% program   : RTKLIB ver.2.4.2
% inp file  : Uslo3610.06O
% inp file  : Uslo3610.06N
% inp file  : Geo135_00b4_1407_03.sbs
% obs start : 2006/12/27 00:00:30.0 GPST (week1407 259230.0s)
% obs end   : 2006/12/27 23:59:30.0 GPST (week1407 345570.0s)
% pos mode  : single
% elev mask : 15.0 deg
% ionos opt : sbas
% tropo opt : sbas
% ephemeris : broadcast+sbas
% navi sys  : gps sbas
%
% (lat/lon/height=WGS84/ellipsoidal,Q=1:fix,2:float,3:sbas,4:dgps,5:single,6:ppp,ns=# of satellites)
%  GPST                  latitude(deg) longitude(deg)  height(m)   Q  ns   sdn(m)   sde(m)   sdu(m)  sdne(m)  sdeu(m)  sdun(m) hpl (m) vpl (m)
2006/12/27 00:04:30.000   35.311789409 -120.661114248   130.5055   3   4  11.2136  19.9097  33.6717  14.3341  25.7826  18.5806 135.11  179.5
2006/12/27 00:05:00.000   35.311801526 -120.661094469   133.7147   3   5   4.3272   6.4927  11.1709   3.2798   8.1795   4.1081  40.85   59.5
2006/12/27 00:05:30.000   35.311802750 -120.661091292   134.4215   3   6   4.3371   4.1041   7.2346   2.7994   4.9087   3.4777  30.43   38.6
2006/12/27 00:06:00.000   35.311807050 -120.661090024   134.6463   3   7   3.1068   3.0935   6.0553  -0.5585   3.6650   0.6055  18.90   32.3
2006/12/27 00:06:30.000   35.311804563 -120.661089931   134.4909   3   7   3.1215   3.0845   6.0306  -0.5412   3.6470   0.7457  18.92   32.1
2006/12/27 00:07:00.000   35.311807610 -120.661093598   134.6160   3   9   2.9771   2.2075   4.5681   1.3541   2.4863   1.9546  18.57   24.3
2006/12/27 00:07:30.000   35.311809005 -120.661095512   134.6841   3   9   2.9865   2.2125   4.5835   1.3682   2.4972   1.9967  18.64   24.4
2006/12/27 00:08:00.000   35.311808034 -120.661094936   134.9255   3   9   2.9958   2.2174   4.5993   1.3820   2.5082   2.0378  18.72   24.5
2006/12/27 00:08:30.000   35.311808254 -120.661095745   134.5981   3   9   2.8254   2.1553   4.4125   1.1803   2.3692   1.7126  17.48   23.5
2006/12/27 00:09:00.000   35.311807875 -120.661094183   134.7249   3   9   2.8310   2.1587   4.4220   1.1904   2.3761   1.7483  17.53   23.6
2006/12/27 00:09:30.000   35.311807477 -120.661095608   134.3474   3   9   2.8367   2.1621   4.4320   1.2003   2.3833   1.7834  17.57   23.6
2006/12/27 00:10:00.000   35.311807964 -120.661095005   134.1820   3   9   2.8424   2.1656   4.4425   1.2100   2.3905   1.8179  17.62   23.7
2006/12/27 00:10:30.000   35.311805223 -120.661096550   133.9467   3   9   2.8482   2.1691   4.4534   1.2197   2.3979   1.8518  17.67   23.7
2006/12/27 00:11:00.000   35.311806181 -120.661093723   133.8680   3   9   2.8541   2.1727   4.4648   1.2292   2.4055   1.8852  17.71   23.8
2006/12/27 00:11:30.000   35.311804557 -120.661095023   133.7823   3   9   2.8599   2.1764   4.4767   1.2385   2.4133   1.9181  17.76   23.9
2006/12/27 00:12:00.000   35.311804081 -120.661092390   133.5203   3   9   2.8363   2.1674   4.4698   1.2085   2.4009   1.9063  17.59   23.8
2006/12/27 00:12:30.000   35.311804658 -120.661095165   133.4888   3   9   2.8416   2.1708   4.4819   1.2168   2.4083   1.9375  17.63   23.9
2006/12/27 00:13:00.000   35.311805897 -120.661091916   134.0472   3   9   2.3598   1.9774   4.1256   0.2492   2.0648   1.0405  14.16   22.0
2006/12/27 00:13:30.000   35.311806871 -120.661093626   133.7264   3   9   2.3683   1.9809   4.1372   0.2891   2.0720   1.0946  14.22   22.1
2006/12/27 00:14:00.000   35.311807192 -120.661093207   133.9755   3   9   2.3769   1.9846   4.1494   0.3242   2.0795   1.1464  14.27   22.1
2006/12/27 00:14:30.000   35.311807024 -120.661093634   133.8383   3   9   2.3856   1.9883   4.1621   0.3559   2.0872   1.1963  14.33   22.2
2006/12/27 00:15:00.000   35.311806588 -120.661093696   134.1189   3   9   2.3944   1.9921   4.1753   0.3852   2.0951   1.2445  14.38   22.3
2006/12/27 00:15:30.000   35.311806755 -120.661094157   133.8054   3   9   2.4033   1.9959   4.1890   0.4124   2.1032   1.2912  14.44   22.3
2006/12/27 00:16:00.000   35.311806401 -120.661093609   133.5946   3   9   2.4123   1.9999   4.2033   0.4381   2.1115   1.3366  14.50   22.4
2006/12/27 00:16:30.000   35.311805132 -120.661091485   134.0282   3   9   2.4214   2.0040   4.2180   0.4625   2.1201   1.3808  14.56   22.5
2006/12/27 00:17:00.000   35.311806910 -120.661092295   133.5050   3   8   2.7722   2.0082   4.8009   0.5080   2.1200  -0.9957  16.65   25.6
2006/12/27 00:17:30.000   35.311806452 -120.661090917   133.5882   3   8   2.7724   2.0124   4.8154   0.5222   2.1320  -0.9129  16.66   25.7
2006/12/27 00:18:00.000   35.311806413 -120.661092606   133.5978   3   8   3.2933   2.2164   5.0661   1.3862   2.4357   1.3803  20.27   27.0
2006/12/27 00:18:30.000   35.311807292 -120.661092470   133.7005   3   8   3.2850   2.2197   5.0850   1.3850   2.4487   1.4375  20.23   27.1
2006/12/27 00:19:00.000   35.311807845 -120.661092946   133.7363   3   8   3.2768   2.2231   5.1045   1.3840   2.4619   1.4921  20.18   27.2
2006/12/27 00:19:30.000   35.311806796 -120.661092305   133.8386   3   8   3.2687   2.2266   5.1247   1.3829   2.4752   1.5446  20.14   27.3
2006/12/27 00:20:00.000   35.311806643 -120.661091887   133.8304   3   8   3.2607   2.2301   5.1455   1.3819   2.4887   1.5950  20.09   27.4
2006/12/27 00:20:30.000   35.311805649 -120.661092881   133.5910   3   8   3.2528   2.2338   5.1669   1.3809   2.5022   1.6437  20.05   27.5
2006/12/27 00:21:00.000   35.311806504 -120.661092537   133.9332   3   8   3.2465   2.2382   5.1912   1.3819   2.5175   1.6952  20.02   27.7
2006/12/27 00:21:30.000   35.311805815 -120.661093165   133.9109   3   8   3.2387   2.2421   5.2139   1.3809   2.5313   1.7405  19.98   27.8
2006/12/27 00:22:00.000   35.311805898 -120.661091625   133.8950   3   9   3.1659   2.1886   5.0717   1.2564   2.4124   1.5299  19.41   27.0
2006/12/27 00:22:30.000   35.311806804 -120.661090755   133.7321   3   9   3.1557   2.1903   5.0871   1.2503   2.4205   1.5670  19.34   27.1
2006/12/27 00:23:00.000   35.311807422 -120.661090505   133.7689   3   9   3.1455   2.1921   5.1027   1.2440   2.4287   1.6025  19.28   27.2
2006/12/27 00:23:30.000   35.311807651 -120.661090458   133.6255   3   9   3.1354   2.1939   5.1186   1.2376   2.4367   1.6367  19.22   27.3
2006/12/27 00:24:00.000   35.311808083 -120.661089906   133.7803   3   9   3.1253   2.1957   5.1347   1.2310   2.4447   1.6695  19.16   27.4
2006/12/27 00:24:30.000   35.311809229 -120.661090171   133.7262   3   9   3.1152   2.1976   5.1510   1.2244   2.4526   1.7010  19.10   27.5
2006/12/27 00:25:00.000   35.311808566 -120.661089629   133.9590   3   9   3.1052   2.1995   5.1676   1.2177   2.4605   1.7313  19.03   27.5
2006/12/27 00:25:30.000   35.311810176 -120.661091437   133.9338   3   8   3.3270   2.2957   5.6023   1.5035   2.7341   2.3855  20.65   29.9
2006/12/27 00:26:00.000   35.311809069 -120.661090074   133.7657   3   8   3.3133   2.2965   5.6214   1.4937   2.7408   2.4035  20.56   30.0
2006/12/27 00:26:30.000   35.311808325 -120.661092666   133.9540   3   8   3.2997   2.2974   5.6406   1.4839   2.7473   2.4207  20.48   30.1
2006/12/27 00:27:00.000   35.311808219 -120.661092988   134.0040   3   8   3.2862   2.2984   5.6598   1.4740   2.7538   2.4374  20.39   30.2
2006/12/27 00:27:30.000   35.311808585 -120.661092890   134.3718   3   8   3.2728   2.2994   5.6791   1.4640   2.7603   2.4535  20.31   30.3
2006/12/27 00:28:00.000   35.311809902 -120.661091431   134.2055   3   8   3.2594   2.3006   5.6984   1.4541   2.7667   2.4690  20.22   30.4
2006/12/27 00:28:30.000   35.311809617 -120.661091043   134.0208   3   8   3.2462   2.3018   5.7177   1.4441   2.7731   2.4839  20.14   30.5
2006/12/27 00:29:00.000   35.311809763 -120.661087901   133.6793   3   8   3.2330   2.3031   5.7372   1.4341   2.7795   2.4984  20.06   30.6
2006/12/27 00:29:30.000   35.311812348 -120.661087703   133.4104   3   8   3.2199   2.3045   5.7566   1.4242   2.7859   2.5123  19.97   30.7
2006/12/27 00:30:00.000   35.311809957 -120.661088920   133.3661   3   8   3.2069   2.3061   5.7761   1.4142   2.7923   2.5258  19.89   30.8
2006/12/27 00:30:30.000   35.311807946 -120.661090398   133.4620   3   8   3.1940   2.3078   5.7957   1.4043   2.7988   2.5389  19.81   30.9
2006/12/27 00:31:00.000   35.311807372 -120.661093159   133.9558   3   8   3.1813   2.3096   5.8154   1.3944   2.8054   2.5515  19.73   31.0
2006/12/27 00:31:30.000   35.311808654 -120.661091891   134.0845   3   8   3.1686   2.3115   5.8352   1.3846   2.8120   2.5638  19.65   31.1
2006/12/27 00:32:00.000   35.311807425 -120.661092090   133.7168   3   8   3.1560   2.3136   5.8551   1.3748   2.8187   2.5756  19.57   31.2
2006/12/27 00:32:30.000   35.311807536 -120.661091880   134.0905   3   8   2.7568   2.0755   5.2909   0.5705   2.3336   1.7678  16.58   28.2
2006/12/27 00:33:00.000   35.311806487 -120.661091705   133.9302   3   8   2.7034   2.0303   5.0923   0.2960   2.1928   1.5587  16.22   27.1
2006/12/27 00:33:30.000   35.311806363 -120.661091367   134.1757   3   8   2.6886   2.0228   5.0577   0.1755   2.1647   1.5281  16.13   27.0
2006/12/27 00:34:00.000   35.311806963 -120.661091557   133.6315   3   8   2.6725   2.0142   5.0176  -0.1767   2.1327   1.4904  16.04   26.7
2006/12/27 00:34:30.000   35.311806276 -120.661089597   133.9102   3   8   2.6553   2.0044   4.9717  -0.3140   2.0963   1.4449  15.94   26.5
2006/12/27 00:35:00.000   35.311807342 -120.661088927   133.0319   3   8   2.6381   1.9949   4.9259  -0.4061   2.0598   1.3986  15.84   26.3
2006/12/27 00:35:30.000   35.311807260 -120.661087185   133.1467   3   8   2.6320   1.9963   4.9296  -0.4251   2.0585   1.4114  15.80   26.3
2006/12/27 00:36:00.000   35.311806960 -120.661091806   133.2622   3   8   2.6257   1.9978   4.9330  -0.4439   2.0569   1.4231  15.77   26.3
2006/12/27 00:36:30.000   35.311806589 -120.661091388   133.4894   3   8   2.6192   1.9992   4.9359  -0.4624   2.0551   1.4336  15.73   26.3
2006/12/27 00:37:00.000   35.311807262 -120.661093865   133.9240   3   8   2.6127   2.0006   4.9385  -0.4806   2.0531   1.4431  15.70   26.3
2006/12/27 00:37:30.000   35.311805693 -120.661094921   134.0242   3   8   2.5991   1.9890   4.9148  -0.5336   2.0783   1.4814  15.63   26.2
2006/12/27 00:38:00.000   35.311806099 -120.661092911   133.5403   3   8   2.5921   1.9902   4.9161  -0.5504   2.0762   1.4889  15.59   26.2
2006/12/27 00:38:30.000   35.311805423 -120.661092215   133.5617   3   8   2.5850   1.9914   4.9170  -0.5671   2.0739   1.4955  15.55   26.2
2006/12/27 00:39:00.000   35.311809482 -120.661091605   132.8944   3   8   2.5633   1.9775   4.8481  -0.6385   2.0221   1.4243  15.45   25.8
2006/12/27 00:39:30.000   35.311807640 -120.661090605   133.1588   3   8   2.5555   1.9781   4.8453  -0.6553   2.0172   1.4265  15.41   25.8
2006/12/27 00:40:00.000   35.311810268 -120.661090365   132.9517   3   8   2.5475   1.9786   4.8421  -0.6719   2.0120   1.4278  15.38   25.8
2006/12/27 00:40:30.000   35.311807529 -120.661092974   133.3853   3   8   2.5395   1.9792   4.8383  -0.6885   2.0065   1.4281  15.34   25.8
2006/12/27 00:41:00.000   35.311808906 -120.661093341   133.7878   3   8   2.5312   1.9797   4.8340  -0.7049   2.0007   1.4274  15.30   25.8
2006/12/27 00:41:30.000   35.311808330 -120.661092152   133.3672   3   8   2.5224   1.9772   4.8236  -0.7173   1.9883   1.4302  15.26   25.7
2006/12/27 00:42:00.000   35.311809358 -120.661091672   133.9943   3   8   2.5214   1.9926   4.8487  -0.7072   1.9492   1.3934  15.25   25.8
2006/12/27 00:42:30.000   35.311807240 -120.661089611   133.1234   3   8   2.5129   1.9932   4.8434  -0.7238   1.9420   1.3895  15.21   25.8
2006/12/27 00:43:00.000   35.311807595 -120.661088729   133.5770   3   8   2.5044   1.9937   4.8376  -0.7402   1.9344   1.3846  15.17   25.8
2006/12/27 00:43:30.000   35.311809992 -120.661088761   133.4222   3   8   2.4957   1.9942   4.8313  -0.7565   1.9265   1.3790  15.14   25.8
2006/12/27 00:44:00.000   35.311807393 -120.661088218   133.4080   3   8   2.4870   1.9947   4.8245  -0.7726   1.9182   1.3724  15.10   25.7
2006/12/27 00:44:30.000   35.311808170 -120.661088926   133.9263   3   8   2.4781   1.9951   4.8172  -0.7885   1.9097   1.3650  15.07   25.7
2006/12/27 00:45:00.000   35.311806928 -120.661089692   133.6158   3   8   2.4692   1.9955   4.8094  -0.8042   1.9008   1.3568  15.04   25.6
2006/12/27 00:45:30.000   35.311808065 -120.661089696   133.9241   3   8   2.4603   1.9959   4.8011  -0.8198   1.8916   1.3478  15.00   25.6
2006/12/27 00:46:00.000   35.311806877 -120.661091622   134.1994   3   8   2.4513   1.9962   4.7923  -0.8352   1.8821   1.3379  14.97   25.5
2006/12/27 00:46:30.000   35.311806325 -120.661089893   133.6855   3   8   2.4422   1.9965   4.7831  -0.8504   1.8723   1.3274  14.94   25.5
2006/12/27 00:47:00.000   35.311807182 -120.661092144   134.1354   3   8   2.4785   2.0542   5.0178  -0.7220   2.0490   1.5633  15.03   26.7
2006/12/27 00:47:30.000   35.311806709 -120.661092496   133.4806   3   8   2.4692   2.0554   5.0116  -0.7390   2.0426   1.5541  14.99   26.7
2006/12/27 00:48:00.000   35.311805696 -120.661093432   134.2129   3   8   2.4517   2.0460   4.9588  -0.7827   2.0008   1.4999  14.94   26.4
2006/12/27 00:48:30.000   35.311804910 -120.661094194   134.0118   3   8   2.4422   2.0467   4.9503  -0.7992   1.9925   1.4881  14.90   26.4
2006/12/27 00:49:00.000   35.311807254 -120.661093416   134.1889   3   8   2.4326   2.0475   4.9412  -0.8154   1.9839   1.4756  14.87   26.3
2006/12/27 00:49:30.000   35.311806042 -120.661094233   133.7877   3   8   2.4231   2.0481   4.9317  -0.8314   1.9750   1.4625  14.84   26.3
2006/12/27 00:50:00.000   35.311807521 -120.661091739   133.4588   3   8   2.4135   2.0487   4.9217  -0.8472   1.9659   1.4486  14.81   26.2
2006/12/27 00:50:30.000   35.311806730 -120.661091918   133.6655   3   8   2.4039   2.0493   4.9112  -0.8627   1.9564   1.4341  14.79   26.2
2006/12/27 00:51:00.000   35.311806528 -120.661093323   133.6522   3   8   2.3943   2.0498   4.9003  -0.8780   1.9466   1.4190  14.76   26.1
2006/12/27 00:51:30.000   35.311806904 -120.661092522   133.8055   3   8   2.3847   2.0502   4.8889  -0.8930   1.9366   1.4032  14.74   26.1
2006/12/27 00:52:00.000   35.311804578 -120.661092620   133.5186   3   8   2.3752   2.0505   4.8771  -0.9078   1.9262   1.3869  14.72   26.0
2006/12/27 00:52:30.000   35.311806240 -120.661093410   133.7244   3   8   2.3657   2.0508   4.8649  -0.9224   1.9155   1.3699  14.70   25.9
2006/12/27 00:53:00.000   35.311804197 -120.661090871   133.6521   3   8   2.3562   2.0510   4.8522  -0.9368   1.9045   1.3524  14.68   25.9
2006/12/27 00:53:30.000   35.311806156 -120.661094406   133.7116   3   8   2.3467   2.0511   4.8392  -0.9509   1.8933   1.3343  14.66   25.8
2006/12/27 00:54:00.000   35.311804905 -120.661094817   134.1176   3   8   2.3373   2.0512   4.8258  -0.9648   1.8817   1.3157  14.65   25.7
2006/12/27 00:54:30.000   35.311805857 -120.661095914   134.1558   3   8   2.3280   2.0511   4.8120  -0.9785   1.8698   1.2965  14.63   25.6
2006/12/27 00:55:00.000   35.311807266 -120.661094134   133.7243   3   8   2.3202   2.0539   4.8096  -0.9872   1.8675   1.2879  14.62   25.6
2006/12/27 00:55:30.000   35.311807022 -120.661093074   133.6076   3   8   2.3135   2.0588   4.8147  -0.9926   1.8719   1.2860  14.61   25.7
2006/12/27 00:56:00.000   35.311805981 -120.661094567   133.8331   3   8   2.3068   2.0637   4.8196  -0.9980   1.8764   1.2837  14.60   25.7
2006/12/27 00:56:30.000   35.311806322 -120.661090647   133.2968   3   8   2.9304   2.6221   6.4935  -0.5648   3.1153   2.3224  17.64   34.6
2006/12/27 00:57:00.000   35.311804951 -120.661094509   133.8541   3   8   2.9241   2.6295   6.4912  -0.6154   3.1168   2.3034  17.63   34.6
2006/12/27 00:57:30.000   35.311805089 -120.661092216   133.4737   3   8   2.9181   2.6371   6.4883  -0.6623   3.1182   2.2841  17.63   34.6
2006/12/27 00:58:00.000   35.311805279 -120.661093142   133.3833   3   8   2.9123   2.6448   6.4847  -0.7063   3.1196   2.2644  17.63   34.6
2006/12/27 00:58:30.000   35.311807195 -120.661091032   133.1607   3   8   2.9068   2.6527   6.4805  -0.7480   3.1210   2.2443  17.64   34.5
2006/12/27 00:59:00.000   35.311806159 -120.661086314   132.5374   3   8   2.9015   2.6607   6.4757  -0.7876   3.1223   2.2238  17.66   34.5
2006/12/27 00:59:30.000   35.311808792 -120.661089135   132.4734   3   8   2.8966   2.6689   6.4703  -0.8255   3.1236   2.2030  17.68   34.5
2006/12/27 01:00:00.000   35.311805417 -120.661092078   133.0581   3   8   2.8919   2.6772   6.4643  -0.8619   3.1249   2.1819  17.72   34.5
2006/12/27 01:00:30.000   35.311807923 -120.661096524   133.3880   3   8   2.8875   2.6857   6.4576  -0.8970   3.1262   2.1604  17.76   34.4
2006/12/27 01:01:00.000   35.311805981 -120.661095866   133.5919   3   8   2.8769   2.6876   6.4502  -0.9505   3.1292   2.1411  17.79   34.4
2006/12/27 01:01:30.000   35.311806454 -120.661095361   133.5236   3   8   2.4489   2.5736   6.2499  -0.3084   3.0476   2.1587  15.46   33.3
2006/12/27 01:02:00.000   35.311805714 -120.661093627   133.3393   3   8   2.4382   2.5806   6.2389  -0.3620   3.0492   2.1348  15.51   33.3
2006/12/27 01:02:30.000   35.311807894 -120.661094257   133.5530   3   8   2.4275   2.5877   6.2274  -0.4086   3.0507   2.1105  15.56   33.2
2006/12/27 01:03:00.000   35.311806984 -120.661093618   133.7474   3   8   2.4151   2.5890   6.1980  -0.4689   3.0389   2.0749  15.59   33.0
2006/12/27 01:03:30.000   35.311806987 -120.661096658   134.1548   3   8   2.4048   2.5960   6.1853  -0.5060   3.0400   2.0495  15.65   33.0
2006/12/27 01:04:00.000   35.311805872 -120.661096826   134.1332   3   8   2.3946   2.6031   6.1721  -0.5406   3.0410   2.0237  15.71   32.9
2006/12/27 01:04:30.000   35.311803676 -120.661099027   134.4617   3   8   2.3845   2.6103   6.1585  -0.5731   3.0420   1.9975  15.76   32.8
2006/12/27 01:05:00.000   35.311803855 -120.661099232   134.5158   3   8   2.3746   2.6175   6.1445  -0.6039   3.0429   1.9708  15.82   32.8
2006/12/27 01:05:30.000   35.311804007 -120.661099723   134.5982   3   8   2.3649   2.6247   6.1301  -0.6332   3.0438   1.9438  15.88   32.7
2006/12/27 01:06:00.000   35.311804644 -120.661097250   134.2361   3   8   2.8511   2.7772   6.3275  -1.2479   3.1325   1.8960  18.49   33.7
2006/12/27 01:06:30.000   35.311804644 -120.661092775   134.3689   3   8   2.8503   2.7874   6.3138  -1.2739   3.1339   1.8709  18.57   33.7
2006/12/27 01:07:00.000   35.311804430 -120.661091399   134.1745   3   8   2.8498   2.7977   6.2997  -1.2997   3.1353   1.8454  18.66   33.6
2006/12/27 01:07:30.000   35.311802886 -120.661090801   133.8117   3   8   2.8496   2.8081   6.2851  -1.3251   3.1367   1.8196  18.75   33.5
2006/12/27 01:08:00.000   35.311804645 -120.661090945   133.9162   3   8   2.8497   2.8187   6.2701  -1.3502   3.1381   1.7934  18.84   33.4
2006/12/27 01:08:30.000   35.311802939 -120.661091024   133.9772   3   8   2.8501   2.8294   6.2546  -1.3750   3.1394   1.7669  18.93   33.3
2006/12/27 01:09:00.000   35.311804484 -120.661088955   133.2519   3   8   2.8507   2.8402   6.2387  -1.3995   3.1408   1.7400  19.03   33.3
2006/12/27 01:09:30.000   35.311806460 -120.661091555   133.6058   3   8   2.8516   2.8512   6.2223  -1.4238   3.1422   1.7127  19.12   33.2
2006/12/27 01:10:00.000   35.311804713 -120.661093894   134.2381   3   8   2.8528   2.8622   6.2056  -1.4478   3.1435   1.6851  19.22   33.1
2006/12/27 01:10:30.000   35.311804430 -120.661093075   134.3031   3   8   2.8543   2.8734   6.1884  -1.4716   3.1449   1.6571  19.32   33.0
2006/12/27 01:11:00.000   35.311803686 -120.661097889   134.4216   3   8   2.8561   2.8847   6.1708  -1.4951   3.1462   1.6287  19.42   32.9
2006/12/27 01:11:30.000   35.311805286 -120.661098436   134.1893   3   8   2.8582   2.8961   6.1529  -1.5185   3.1476   1.5999  19.52   32.8
2006/12/27 01:12:00.000   35.311804375 -120.661100296   134.4954   3   8   2.8605   2.9075   6.1346  -1.5417   3.1489   1.5707  19.63   32.7
2006/12/27 01:12:30.000   35.311802739 -120.661097604   134.2131   3   8   2.8631   2.9191   6.1159  -1.5646   3.1502   1.5411  19.73   32.6
2006/12/27 01:13:00.000   35.311806540 -120.661099157   134.0952   3   8   2.8660   2.9308   6.0969  -1.5874   3.1515   1.5111  19.83   32.5
2006/12/27 01:13:30.000   35.311804527 -120.661099708   133.6476   3   8   2.8691   2.9425   6.0776  -1.6100   3.1528   1.4806  19.94   32.4
2006/12/27 01:14:00.000   35.311806363 -120.661099812   134.2299   3   8   2.8725   2.9544   6.0580  -1.6324   3.1541   1.4496  20.05   32.3
2006/12/27 01:14:30.000   35.311805218 -120.661100436   133.8455   3   8   2.8762   2.9663   6.0380  -1.6547   3.1554   1.4181  20.16   32.2
2006/12/27 01:15:00.000   35.311806573 -120.661101391   134.4548   3   8   2.8802   2.9783   6.0177  -1.6768   3.1566   1.3862  20.27   32.1
2006/12/27 01:15:30.000   35.311806776 -120.661102697   133.6392   3   8   2.8844   2.9903   5.9972  -1.6987   3.1579   1.3537  20.38   32.0
2006/12/27 01:16:00.000   35.311804469 -120.661102050   134.0135   3   8   2.8889   3.0026   5.9770  -1.7204   3.1585   1.3201  20.49   31.9
2006/12/27 01:16:30.000   35.311805662 -120.661102521   133.8924   3   8   2.8937   3.0155   5.9582  -1.7416   3.1580   1.2850  20.60   31.8
2006/12/27 01:17:00.000   35.311805927 -120.661102998   133.3448   3   8   2.8987   3.0285   5.9393  -1.7627   3.1573   1.2493  20.71   31.7
2006/12/27 01:17:30.000   35.311805320 -120.661103342   134.4466   3   8   2.9040   3.0415   5.9204  -1.7837   3.1565   1.2130  20.83   31.6
2006/12/27 01:18:00.000   35.311804915 -120.661103297   134.0884   3   8   2.9095   3.0545   5.9014  -1.8047   3.1557   1.1761  20.94   31.5
2006/12/27 01:18:30.000   35.311807267 -120.661100944   133.7572   3   8   2.9152   3.0676   5.8823  -1.8255   3.1547   1.1385  21.06   31.4
2006/12/27 01:19:00.000   35.311804384 -120.661101594   134.5650   3   8   2.9212   3.0807   5.8633  -1.8463   3.1536   1.1002  21.17   31.3
2006/12/27 01:19:30.000   35.311806989 -120.661099579   134.3532   3   8   2.9273   3.0938   5.8441  -1.8669   3.1524   1.0612  21.29   31.1
2006/12/27 01:20:00.000   35.311804717 -120.661099560   134.4664   3   8   2.9337   3.1069   5.8247  -1.8875   3.1511   1.0215  21.41   31.0
2006/12/27 01:20:30.000   35.311806851 -120.661097760   134.4141   3   8   2.9345   3.0302   5.6741  -1.8716   3.0014   1.0905  21.14   30.2
2006/12/27 01:21:00.000   35.311805172 -120.661095510   134.4641   3   8   2.9413   3.0458   5.6596  -1.8927   3.0046   1.0513  21.26   30.2
2006/12/27 01:21:30.000   35.311805134 -120.661093615   134.8777   3   8   2.9483   3.0615   5.6450  -1.9138   3.0077   1.0111  21.39   30.1
2006/12/27 01:22:00.000   35.311804757 -120.661092339   134.2501   3   8   2.9555   3.0773   5.6304  -1.9348   3.0107   0.9700  21.52   30.0
2006/12/27 01:22:30.000   35.311805421 -120.661091697   134.1114   3   8   2.9629   3.0930   5.6157  -1.9557   3.0135   0.9277  21.65   29.9
2006/12/27 01:23:00.000   35.311805497 -120.661091927   133.9367   3   8   2.9706   3.1087   5.6010  -1.9765   3.0162   0.8843  21.78   29.9
2006/12/27 01:23:30.000   35.311804548 -120.661093569   134.1811   3   8   2.9784   3.1243   5.5862  -1.9971   3.0187   0.8394  21.91   29.8
2006/12/27 01:24:00.000   35.311805625 -120.661093485   134.1159   3   8   2.9865   3.1400   5.5713  -2.0177   3.0210   0.7930  22.04   29.7
2006/12/27 01:24:30.000   35.311805142 -120.661094120   133.5704   3   8   2.9947   3.1556   5.5565  -2.0382   3.0231   0.7448  22.16   29.6
2006/12/27 01:25:00.000   35.311804421 -120.661092432   134.3940   3   8   3.0031   3.1711   5.5415  -2.0586   3.0251   0.6943  22.29   29.5
2006/12/27 01:25:30.000   35.311805732 -120.661089961   133.7813   3   9   2.7659   2.3164   4.4084  -1.3090   1.3668   2.0936  17.56   23.5
2006/12/27 01:26:00.000   35.311805859 -120.661090840   133.6621   3   9   2.7674   2.3208   4.3993  -1.3173   1.3589   2.0881  17.59   23.4
2006/12/27 01:26:30.000   35.311805196 -120.661090192   133.5079   3   9   2.7690   2.3251   4.3903  -1.3253   1.3508   2.0829  17.62   23.4
2006/12/27 01:27:00.000   35.311805820 -120.661089600   133.5891   3   9   2.7707   2.3292   4.3813  -1.3332   1.3425   2.0779  17.65   23.4
2006/12/27 01:27:30.000   35.311805773 -120.661090797   133.4776   3   9   2.7725   2.3332   4.3724  -1.3409   1.3340   2.0732  17.68   23.3
2006/12/27 01:28:00.000   35.311805957 -120.661090270   133.5196   3   9   2.7743   2.3370   4.3636  -1.3484   1.3254   2.0687  17.71   23.3
2006/12/27 01:28:30.000   35.311806139 -120.661092129   133.2930   3   9   2.7718   2.3369   4.3476  -1.3635   1.3036   2.0548  17.74   23.2
2006/12/27 01:29:00.000   35.311807260 -120.661092576   133.2484   3   9   2.7738   2.3404   4.3390  -1.3707   1.2943   2.0507  17.77   23.1
2006/12/27 01:29:30.000   35.311806622 -120.661095732   133.4674   3   9   2.7759   2.3437   4.3305  -1.3777   1.2848   2.0468  17.80   23.1
2006/12/27 01:30:00.000   35.311807619 -120.661096282   133.3397   3   9   2.7367   2.2268   4.1996  -1.2591   0.9452   2.1390  17.24   22.4
2006/12/27 01:30:30.000   35.311807063 -120.661095590   133.2779   3   9   2.7332   2.2111   4.1755  -1.2459   0.8742   2.1507  17.18   22.3
2006/12/27 01:31:00.000   35.311807117 -120.661096474   133.4015   3   9   2.7349   2.2139   4.1699  -1.2518   0.8645   2.1472  17.20   22.2
2006/12/27 01:31:30.000   35.311805069 -120.661092518   133.5838   3   8   3.1154   3.3416   5.3185  -2.3031   3.0005  -0.5732  23.84   28.3
2006/12/27 01:32:00.000   35.311804452 -120.661089526   134.0009   3   8   3.1256   3.3548   5.3032  -2.3207   2.9987  -0.6113  23.96   28.3
2006/12/27 01:32:30.000   35.311804476 -120.661092361   133.8612   3   8   3.1359   3.3678   5.2878  -2.3381   2.9966  -0.6453  24.08   28.2
2006/12/27 01:33:00.000   35.311804074 -120.661090321   133.9846   3   8   3.1462   3.3805   5.2724  -2.3553   2.9940  -0.6759  24.20   28.1
2006/12/27 01:33:30.000   35.311804665 -120.661090992   133.9225   3   8   3.1566   3.3929   5.2569  -2.3721   2.9912  -0.7034  24.31   28.0
2006/12/27 01:34:00.000   35.311804740 -120.661091352   134.2312   3   8   3.1670   3.4050   5.2413  -2.3887   2.9879  -0.7282  24.42   27.9
2006/12/27 01:34:30.000   35.311805627 -120.661089662   134.0417   3   8   3.1775   3.4168   5.2258  -2.4050   2.9843  -0.7505  24.54   27.9
2006/12/27 01:35:00.000   35.311804271 -120.661092901   134.1342   3   8   3.1880   3.4283   5.2102  -2.4209   2.9803  -0.7704  24.65   27.8
2006/12/27 01:35:30.000   35.311804626 -120.661090850   134.1405   3   8   3.1984   3.4394   5.1945  -2.4365   2.9758  -0.7883  24.75   27.7
2006/12/27 01:36:00.000   35.311805417 -120.661091184   134.3036   3   8   3.2089   3.4502   5.1789  -2.4518   2.9710  -0.8041  24.86   27.6
2006/12/27 01:36:30.000   35.311804895 -120.661092324   133.8696   3   8   3.2194   3.4606   5.1632  -2.4667   2.9658  -0.8180  24.96   27.5
2006/12/27 01:37:00.000   35.311803995 -120.661091017   134.3411   3   8   3.2300   3.4706   5.1476  -2.4813   2.9601  -0.8304  25.06   27.4
2006/12/27 01:37:30.000   35.311805489 -120.661091671   133.9971   3   8   3.2404   3.4798   5.1317  -2.4953   2.9534  -0.8405  25.16   27.4
2006/12/27 01:38:00.000   35.311805037 -120.661091638   134.4536   3   8   3.2508   3.4882   5.1154  -2.5088   2.9458  -0.8483  25.25   27.3
2006/12/27 01:38:30.000   35.311806172 -120.661093086   134.2376   3   8   3.2611   3.4961   5.0990  -2.5218   2.9376  -0.8545  25.34   27.2
2006/12/27 01:39:00.000   35.311805055 -120.661091144   134.3190   3   8   3.2714   3.5035   5.0827  -2.5345   2.9290  -0.8590  25.43   27.1
2006/12/27 01:39:30.000   35.311804142 -120.661090385   134.4489   3   8   3.2816   3.5105   5.0663  -2.5467   2.9199  -0.8618  25.51   27.0
2006/12/27 01:40:00.000   35.311804408 -120.661093252   134.2989   3   8   3.2918   3.5170   5.0500  -2.5585   2.9103  -0.8631  25.59   26.9
2006/12/27 01:40:30.000   35.311803815 -120.661091433   133.9256   3   8   3.3019   3.5231   5.0336  -2.5698   2.9003  -0.8629  25.67   26.8
2006/12/27 01:41:00.000   35.311803716 -120.661092329   134.7799   3   8   3.3119   3.5286   5.0173  -2.5807   2.8898  -0.8610  25.74   26.7
2006/12/27 01:41:30.000   35.311804672 -120.661091878   133.9555   3   8   3.3218   3.5336   5.0011  -2.5912   2.8788  -0.8576  25.82   26.7
2006/12/27 01:42:00.000   35.311803698 -120.661091802   134.7843   3   8   3.3316   3.5381   4.9849  -2.6011   2.8674  -0.8526  25.88   26.6
2006/12/27 01:42:30.000   35.311802914 -120.661090858   134.3717   3   8   3.3413   3.5421   4.9688  -2.6107   2.8555  -0.8460  25.95   26.5
2006/12/27 01:43:00.000   35.311803763 -120.661091264   134.3357   3   8   3.3509   3.5455   4.9527  -2.6197   2.8432  -0.8378  26.01   26.4
2006/12/27 01:43:30.000   35.311803022 -120.661091686   134.5150   3   8   3.3603   3.5484   4.9367  -2.6283   2.8305  -0.8279  26.07   26.3
2006/12/27 01:44:00.000   35.311804709 -120.661091054   134.5789   3   8   3.3697   3.5509   4.9208  -2.6364   2.8173  -0.8164  26.13   26.2
2006/12/27 01:44:30.000   35.311803467 -120.661089235   134.7926   3   8   3.3789   3.5527   4.9050  -2.6441   2.8037  -0.8031  26.18   26.1
2006/12/27 01:45:00.000   35.311802765 -120.661089533   134.6928   3   8   3.3879   3.5541   4.8894  -2.6512   2.7897  -0.7881  26.23   26.1
2006/12/27 01:45:30.000   35.311803957 -120.661090383   134.5139   3   8   3.3969   3.5549   4.8738  -2.6578   2.7752  -0.7712  26.27   26.0
2006/12/27 01:46:00.000   35.311804490 -120.661090493   134.5466   3   8   3.4056   3.5551   4.8584  -2.6640   2.7604  -0.7523  26.31   25.9
2006/12/27 01:46:30.000   35.311803015 -120.661090720   134.4740   3   8   3.4143   3.5548   4.8431  -2.6696   2.7452  -0.7313  26.35   25.8
2006/12/27 01:47:00.000   35.311803680 -120.661091316   134.4440   3   8   3.4227   3.5540   4.8280  -2.6748   2.7297  -0.7081  26.39   25.7
2006/12/27 01:47:30.000   35.311801897 -120.661090549   134.6998   3   8   3.4310   3.5527   4.8131  -2.6795   2.7137  -0.6824  26.42   25.7
2006/12/27 01:48:00.000   35.311803076 -120.661090234   134.3265   3   8   3.4392   3.5508   4.7983  -2.6836   2.6975  -0.6541  26.45   25.6
2006/12/27 01:48:30.000   35.311803237 -120.661091205   134.1364   3   8   3.4472   3.5484   4.7837  -2.6873   2.6808  -0.6228  26.47   25.5
2006/12/27 01:49:00.000   35.311802491 -120.661088979   134.6709   3   8   3.4550   3.5454   4.7694  -2.6905   2.6639  -0.5882  26.49   25.4
2006/12/27 01:49:30.000   35.311804608 -120.661089500   133.9465   3   8   2.0579   3.0150   4.6129  -1.5988   2.6983  -1.2807  19.15   24.6
2006/12/27 01:50:00.000   35.311804752 -120.661091005   133.8740   3   8   2.0582   3.0117   4.5989  -1.5990   2.6888  -1.2847  19.14   24.5
2006/12/27 01:50:30.000   35.311804508 -120.661090845   134.1353   3   8   2.0584   3.0082   4.5851  -1.5990   2.6792  -1.2885  19.12   24.4
2006/12/27 01:51:00.000   35.311804744 -120.661091058   134.0623   3   8   2.0587   3.0045   4.5713  -1.5987   2.6694  -1.2919  19.10   24.4
2006/12/27 01:51:30.000   35.311804277 -120.661091011   134.1650   3   8   2.0589   3.0005   4.5576  -1.5983   2.6596  -1.2951  19.08   24.3
2006/12/27 01:52:00.000   35.311803473 -120.661089884   134.4031   3   8   2.0592   2.9963   4.5441  -1.5976   2.6497  -1.2980  19.06   24.2
2006/12/27 01:52:30.000   35.311803885 -120.661090319   134.4003   3   8   2.0595   2.9919   4.5307  -1.5967   2.6397  -1.3007  19.04   24.1
2006/12/27 01:53:00.000   35.311804263 -120.661090869   134.3976   3   8   2.0598   2.9873   4.5174  -1.5956   2.6296  -1.3032  19.01   24.1
2006/12/27 01:53:30.000   35.311802496 -120.661090103   134.6127   3   8   2.0601   2.9824   4.5042  -1.5943   2.6195  -1.3055  18.99   24.0
2006/12/27 01:54:00.000   35.311805113 -120.661092812   134.0072   3   8   2.0604   2.9774   4.4912  -1.5928   2.6093  -1.3076  18.96   23.9
2006/12/27 01:54:30.000   35.311803337 -120.661090772   134.3344   3   8   2.0607   2.9722   4.4783  -1.5911   2.5991  -1.3095  18.93   23.9
2006/12/27 01:55:00.000   35.311804791 -120.661091158   134.3170   3   8   2.0611   2.9669   4.4656  -1.5893   2.5888  -1.3112  18.90   23.8
2006/12/27 01:55:30.000   35.311803442 -120.661090319   134.4507   3   8   2.0614   2.9613   4.4530  -1.5872   2.5785  -1.3127  18.87   23.7
2006/12/27 01:56:00.000   35.311804744 -120.661089387   134.3402   3   8   2.0618   2.9556   4.4405  -1.5850   2.5682  -1.3141  18.84   23.7
2006/12/27 01:56:30.000   35.311804886 -120.661091611   133.8664   3   7   2.3346   2.9677   5.4952  -1.6918   2.7580  -2.3003  19.39   29.3
2006/12/27 01:57:00.000   35.311806063 -120.661089128   133.6751   3   7   2.3364   2.9620   5.4850  -1.6906   2.7499  -2.3031  19.37   29.2
2006/12/27 01:57:30.000   35.311805493 -120.661089646   133.8585   3   7   2.3382   2.9562   5.4749  -1.6891   2.7418  -2.3057  19.34   29.2
2006/12/27 01:58:00.000   35.311807157 -120.661089626   133.5332   3   7   2.3400   2.9501   5.4648  -1.6875   2.7336  -2.3081  19.31   29.1
2006/12/27 01:58:30.000   35.311806200 -120.661088736   133.6147   3   7   2.3418   2.9440   5.4547  -1.6856   2.7254  -2.3104  19.29   29.1
2006/12/27 01:59:00.000   35.311807926 -120.661089409   133.2000   3   7   2.1653   2.8904   5.3827  -1.5497   2.7308  -2.3410  18.53   28.7
2006/12/27 01:59:30.000   35.311806230 -120.661087259   133.5990   3   7   2.1663   2.8858   5.3746  -1.5486   2.7256  -2.3451  18.51   28.6
2006/12/27 02:00:00.000   35.311807211 -120.661089085   133.5209   3   7   2.1671   2.8798   5.3644  -1.5465   2.7178  -2.3479  18.48   28.6
2006/12/27 02:00:30.000   35.311806632 -120.661087815   133.2967   3   7   2.1679   2.8736   5.3543  -1.5442   2.7100  -2.3506  18.45   28.5
2006/12/27 02:01:00.000   35.311804846 -120.661087191   133.8487   3   7   2.1687   2.8674   5.3442  -1.5418   2.7021  -2.3533  18.42   28.5
2006/12/27 02:01:30.000   35.311805424 -120.661087158   133.3794   3   7   2.1694   2.8611   5.3342  -1.5392   2.6943  -2.3559  18.38   28.4
2006/12/27 02:02:00.000   35.311802885 -120.661087550   134.1815   3   7   2.1729   2.8554   5.3269  -1.5387   2.6844  -2.3543  18.36   28.4
2006/12/27 02:02:30.000   35.311805508 -120.661087691   133.2905   3   7   2.1859   2.8520   5.3291  -1.5457   2.6678  -2.3394  18.37   28.4
2006/12/27 02:03:00.000   35.311803572 -120.661087520   134.2227   3   8   2.1614   2.6338   4.9717  -1.4099   2.2289  -2.1677  17.07   26.5
2006/12/27 02:03:30.000   35.311804360 -120.661087232   133.2761   3   8   2.1674   2.5012   4.9200  -1.3743   2.1087  -2.1290  16.45   26.2
2006/12/27 02:04:00.000   35.311804671 -120.661089590   133.9791   3   8   2.1807   2.5109   4.9318  -1.3880   2.1109  -2.1249  16.55   26.3
2006/12/27 02:04:30.000   35.311805196 -120.661088920   133.7119   3   8   2.1930   2.5201   4.9431  -1.4005   2.1135  -2.1215  16.64   26.3
2006/12/27 02:05:00.000   35.311805450 -120.661088761   133.9984   3   8   2.2045   2.5288   4.9537  -1.4118   2.1165  -2.1189  16.72   26.4
2006/12/27 02:05:30.000   35.311806142 -120.661088831   133.5658   3   8   2.2153   2.5371   4.9639  -1.4221   2.1197  -2.1168  16.79   26.5
2006/12/27 02:06:00.000   35.311807019 -120.661086332   133.8202   3   8   2.2254   2.5449   4.9735  -1.4315   2.1232  -2.1154  16.87   26.5
2006/12/27 02:06:30.000   35.311805825 -120.661088652   133.6627   3   8   2.2348   2.5523   4.9827  -1.4401   2.1269  -2.1145  16.93   26.6
2006/12/27 02:07:00.000   35.311806039 -120.661087553   133.8473   3   8   2.2437   2.5594   4.9914  -1.4478   2.1307  -2.1141  16.99   26.6
2006/12/27 02:07:30.000   35.311806667 -120.661087483   133.6528   3   8   2.2521   2.5661   4.9996  -1.4547   2.1347  -2.1142  17.05   26.6
2006/12/27 02:08:00.000   35.311806743 -120.661089616   133.7210   3   8   2.2599   2.5724   5.0074  -1.4610   2.1388  -2.1147  17.10   26.7
2006/12/27 02:08:30.000   35.311806391 -120.661088661   133.4355   3   8   2.2673   2.5785   5.0148  -1.4667   2.1430  -2.1155  17.15   26.7
2006/12/27 02:09:00.000   35.311805832 -120.661090156   133.8595   3   8   2.2740   2.5841   5.0197  -1.4720   2.1464  -2.1180  17.20   26.8
2006/12/27 02:09:30.000   35.311805624 -120.661089570   133.4027   3   8   2.2809   2.5897   5.0284  -1.4762   2.1515  -2.1183  17.24   26.8
2006/12/27 02:10:00.000   35.311805401 -120.661091404   134.1689   3   8   2.2871   2.5949   5.0347  -1.4802   2.1558  -2.1201  17.28   26.8
2006/12/27 02:10:30.000   35.311804251 -120.661089612   133.8251   3   8   2.2926   2.5997   5.0381  -1.4840   2.1590  -2.1239  17.32   26.9
2006/12/27 02:11:00.000   35.311804368 -120.661091376   133.9669   3   8   2.2981   2.6044   5.0435  -1.4871   2.1632  -2.1265  17.36   26.9
2006/12/27 02:11:30.000   35.311805527 -120.661089908   133.7291   3   8   2.3034   2.6089   5.0485  -1.4897   2.1673  -2.1293  17.39   26.9
2006/12/27 02:12:00.000   35.311805066 -120.661090559   133.8251   3   8   2.3083   2.6132   5.0533  -1.4919   2.1714  -2.1323  17.42   26.9
2006/12/27 02:12:30.000   35.311804652 -120.661090326   133.9460   3   8   2.3115   2.6016   5.0319  -1.4836   2.1407  -2.1204  17.36   26.8
2006/12/27 02:13:00.000   35.311806472 -120.661091931   133.7041   3   8   2.3011   2.5275   4.9775  -1.4759   2.1047  -2.1652  17.06   26.5
2006/12/27 02:13:30.000   35.311804108 -120.661089920   134.1008   3   8   2.3010   2.6063   4.9574  -1.5037   2.1168  -2.1927  17.42   26.4
2006/12/27 02:14:00.000   35.311805269 -120.661091934   133.4433   3   8   2.3020   2.5347   4.9607  -1.4840   2.1063  -2.1960  17.11   26.4
2006/12/27 02:14:30.000   35.311803628 -120.661090387   133.7722   3   8   2.3050   2.5387   4.9649  -1.4855   2.1117  -2.2020  17.14   26.5
2006/12/27 02:15:00.000   35.311804713 -120.661087203   133.5728   3   8   2.3078   2.5425   4.9689  -1.4867   2.1169  -2.2080  17.16   26.5
2006/12/27 02:15:30.000   35.311804208 -120.661090708   133.5251   3   8   2.3104   2.5461   4.9727  -1.4876   2.1220  -2.2142  17.18   26.5
2006/12/27 02:16:00.000   35.311805391 -120.661090312   133.5783   3   8   2.3111   2.5485   4.9694  -1.4888   2.1229  -2.2241  17.19   26.5
2006/12/27 02:16:30.000   35.311804987 -120.661091345   133.5969   3   8   2.3130   2.5510   4.9708  -1.4888   2.1255  -2.2299  17.20   26.5
2006/12/27 02:17:00.000   35.311804003 -120.661091306   133.7796   3   8   2.3147   2.5533   4.9721  -1.4887   2.1281  -2.2358  17.21   26.5
2006/12/27 02:17:30.000   35.311805225 -120.661092616   133.4258   3   8   2.3176   2.5641   4.9895  -1.4939   2.1502  -2.2490  17.27   26.6
2006/12/27 02:18:00.000   35.311803952 -120.661090190   134.0250   3   8   2.3189   2.5657   4.9896  -1.4931   2.1514  -2.2547  17.27   26.6
2006/12/27 02:18:30.000   35.311804325 -120.661092331   133.9814   3   8   2.3199   2.5673   4.9896  -1.4921   2.1524  -2.2605  17.28   26.6
2006/12/27 02:19:00.000   35.311805493 -120.661089676   133.8494   3   8   2.3208   2.5688   4.9894  -1.4911   2.1535  -2.2665  17.28   26.6
2006/12/27 02:19:30.000   35.311802805 -120.661090863   134.2391   3   8   2.3215   2.5702   4.9892  -1.4899   2.1544  -2.2725  17.29   26.6
2006/12/27 02:20:00.000   35.311805107 -120.661089578   133.7567   3   8   2.3220   2.5716   4.9888  -1.4887   2.1552  -2.2786  17.29   26.6
2006/12/27 02:20:30.000   35.311803745 -120.661089106   134.2120   3   7   2.3504   2.7488   5.3237  -1.6011   2.5392  -2.4279  18.30   28.4
2006/12/27 02:21:00.000   35.311804172 -120.661089937   134.0454   3   7   2.3504   2.7469   5.3182  -1.5980   2.5326  -2.4299  18.28   28.3
2006/12/27 02:21:30.000   35.311805472 -120.661089261   133.6368   3   7   2.3497   2.7449   5.3113  -1.5946   2.5265  -2.4333  18.26   28.3
2006/12/27 02:22:00.000   35.311804408 -120.661091095   133.8271   3   7   2.3471   2.7422   5.2986  -1.5927   2.5177  -2.4416  18.24   28.2
2006/12/27 02:22:30.000   35.311803336 -120.661088524   134.0819   3   7   2.3457   2.7402   5.2912  -1.5894   2.5117  -2.4460  18.22   28.2
2006/12/27 02:23:00.000   35.311806858 -120.661091740   133.3214   3   7   2.3085   2.7371   5.1718  -1.5764   2.4888  -2.3581  18.12   27.6
2006/12/27 02:23:30.000   35.311805503 -120.661091814   134.1550   3   7   2.3062   2.7350   5.1630  -1.5731   2.4821  -2.3609  18.10   27.5
2006/12/27 02:24:00.000   35.311804839 -120.661091951   133.9181   3   7   2.3036   2.7330   5.1542  -1.5699   2.4754  -2.3640  18.08   27.5
2006/12/27 02:24:30.000   35.311805461 -120.661090859   134.1153   3   7   2.3008   2.7309   5.1456  -1.5668   2.4687  -2.3675  18.06   27.4
2006/12/27 02:25:00.000   35.311808201 -120.661092094   133.0361   3   6  10.9181   3.4091  28.6345  -4.9250   7.9764 -17.5014  66.93  152.6
2006/12/27 02:25:30.000   35.311812988 -120.661095271   131.9703   3   6  11.0202   3.4258  28.8691  -4.9791   8.0590 -17.6597  67.56  153.9
2006/12/27 02:26:00.000   35.311807293 -120.661094037   133.3551   3   5  14.3102   3.8187  38.8590  -6.3411  10.4322 -23.4378  87.55  207.1
2006/12/27 02:26:30.000   35.311808384 -120.661093693   132.9630   3   5  14.4090   3.8418  39.0396  -6.4007  10.5191 -23.5767  88.17  208.1
2006/12/27 02:27:00.000   35.311810163 -120.661093978   132.4973   3   5  14.4881   3.8624  39.1712  -6.4520  10.5927 -23.6843  88.67  208.8
2006/12/27 02:27:30.000   35.311802643 -120.661093475   134.8597   3   5  14.2061   3.8031  38.0711  -6.3063  10.3009 -23.1216  86.93  202.9
2006/12/27 02:28:00.000   35.311810350 -120.661094871   132.3364   3   5  14.2540   3.8185  38.1279  -6.3434  10.3514 -23.1809  87.24  203.2
2006/12/27 02:28:30.000   35.311804057 -120.661091769   134.2629   3   5  14.2818   3.8313  38.1373  -6.3724  10.3891 -23.2090  87.43  203.3
2006/12/27 02:29:00.000   35.311810913 -120.661093278   132.0114   3   5  14.2884   3.8417  38.0975  -6.3928  10.4134 -23.2048  87.48  203.1
2006/12/27 02:29:30.000   35.311809388 -120.661093409   132.9842   3   5  14.2732   3.8493  38.0076  -6.4044  10.4242 -23.1672  87.41  202.6
2006/12/27 02:30:00.000   35.311818964 -120.661094214   130.1602   3   5  14.3215   3.8785  38.1898  -6.4598  10.5235 -23.2633  87.74  203.6
2006/12/27 02:30:30.000   35.311807290 -120.661092383   133.7541   3   5  14.3350   3.9043  38.2911  -6.5016  10.6027 -23.3055  87.87  204.1
2006/12/27 02:31:00.000   35.311817252 -120.661092046   130.3409   3   5  14.3013   3.9233  38.2665  -6.5222  10.6475 -23.2702  87.70  204.0
2006/12/27 02:31:30.000   35.311806071 -120.661090988   133.7633   3   5  14.2212   3.9353  38.1173  -6.5218  10.6576 -23.1584  87.25  203.2
2006/12/27 02:32:00.000   35.311809356 -120.661090178   132.5602   3   5  14.0968   3.9403  37.8487  -6.5009  10.6342 -22.9735  86.53  201.7
2006/12/27 02:32:30.000   35.311816420 -120.661092635   130.8807   3   5  13.9316   3.9386  37.4691  -6.4607  10.5790 -22.7208  85.56  199.7
2006/12/27 02:33:00.000   35.311814839 -120.661093717   131.2998   3   5  13.7297   3.9306  36.9893  -6.4029  10.4947 -22.4071  84.37  197.2
2006/12/27 02:33:30.000   35.311808170 -120.661089886   132.8044   3   5  13.4960   3.9171  36.4221  -6.3294  10.3847 -22.0404  82.98  194.1
2006/12/27 02:34:00.000   35.311803487 -120.661090442   134.7582   3   5  13.2359   3.8987  35.7812  -6.2425  10.2523 -21.6291  81.43  190.7
2006/12/27 02:34:30.000   35.311799564 -120.661088435   135.8036   3   5  12.9547   3.8762  35.0807  -6.1445  10.1015 -21.1819  79.74  187.0
2006/12/27 02:35:00.000   35.311808184 -120.661090508   133.3366   3   5  12.6532   3.8433  34.2872  -6.0313   9.9146 -20.6931  77.93  182.8
2006/12/27 02:35:30.000   35.311800773 -120.661090798   135.3761   3   5  12.3472   3.8164  33.5231  -5.9205   9.7433 -20.2058  76.10  178.7
2006/12/27 02:36:00.000   35.311802429 -120.661089481   134.9421   3   5  12.0330   3.7875  32.7334  -5.8043   9.5627 -19.7036  74.21  174.5
2006/12/27 02:36:30.000   35.311806067 -120.661092305   133.5943   3   5  11.7145   3.7572  31.9289  -5.6846   9.3760 -19.1931  72.30  170.2
2006/12/27 02:37:00.000   35.311802108 -120.661090253   135.2757   3   6   2.1858   2.3901   5.1847   1.0580  -1.8434  -2.3520  15.25   27.6
2006/12/27 02:37:30.000   35.311801499 -120.661090812   135.1682   3   6   2.1959   2.3880   5.2023   1.0534  -1.8474  -2.3373  15.25   27.7
2006/12/27 02:38:00.000   35.311803122 -120.661090364   135.1710   3   6   2.2059   2.3859   5.2208   1.0487  -1.8516  -2.3216  15.24   27.8
2006/12/27 02:38:30.000   35.311802591 -120.661090687   135.2044   3   6   2.2149   2.3837   5.2394   1.0446  -1.8554  -2.3062  15.24   27.9
2006/12/27 02:39:00.000   35.311801834 -120.661091901   135.5591   3   6   2.2230   2.3814   5.2580   1.0409  -1.8587  -2.2911  15.24   28.0
2006/12/27 02:39:30.000   35.311802636 -120.661088899   135.2096   3   6   2.2303   2.3791   5.2766   1.0377  -1.8616  -2.2763  15.23   28.1
2006/12/27 02:40:00.000   35.311800913 -120.661091233   135.6901   3   6   2.2367   2.3767   5.2953   1.0350  -1.8641  -2.2618  15.23   28.2
2006/12/27 02:40:30.000   35.311802473 -120.661087825   134.9996   3   6   2.2425   2.3742   5.3141   1.0325  -1.8662  -2.2475  15.23   28.3
2006/12/27 02:41:00.000   35.311802913 -120.661091125   135.2788   3   6   2.2476   2.3717   5.3329   1.0304  -1.8679  -2.2334  15.22   28.4
2006/12/27 02:41:30.000   35.311803106 -120.661089426   134.7419   3   6   2.2521   2.3691   5.3517   1.0287  -1.8692  -2.2195  15.22   28.5
2006/12/27 02:42:00.000   35.311803110 -120.661091593   135.2865   3   6   2.2625   2.3670   5.3808   1.0227  -1.8749  -2.1930  15.22   28.7
2006/12/27 02:42:30.000   35.311803591 -120.661088785   134.6528   3   6   2.2662   2.3644   5.4008   1.0211  -1.8758  -2.1784  15.21   28.8
2006/12/27 02:43:00.000   35.311804066 -120.661090983   135.1408   3   6   2.2695   2.3616   5.4209   1.0198  -1.8764  -2.1639  15.21   28.9
2006/12/27 02:43:30.000   35.311804297 -120.661089311   134.5399   3   6   2.2723   2.3589   5.4410   1.0187  -1.8765  -2.1496  15.20   29.0
2006/12/27 02:44:00.000   35.311805372 -120.661090257   134.5212   3   6   2.2746   2.3561   5.4612   1.0178  -1.8763  -2.1354  15.20   29.1
2006/12/27 02:44:30.000   35.311804658 -120.661088599   134.3185   3   6   2.2766   2.3532   5.4815   1.0171  -1.8756  -2.1213  15.19   29.2
2006/12/27 02:45:00.000   35.311806800 -120.661089359   134.1480   3   6   2.2783   2.3504   5.5018   1.0165  -1.8746  -2.1073  15.18   29.3
2006/12/27 02:45:30.000   35.311804994 -120.661090757   134.4384   3   6   2.2796   2.3475   5.5222   1.0160  -1.8732  -2.0934  15.18   29.4
2006/12/27 02:46:00.000   35.311807356 -120.661092694   134.5604   3   6   2.2806   2.3445   5.5427   1.0156  -1.8715  -2.0795  15.17   29.5
2006/12/27 02:46:30.000   35.311806507 -120.661091702   134.2610   3   6   2.2813   2.3415   5.5632   1.0153  -1.8693  -2.0657  15.16   29.7
2006/12/27 02:47:00.000   35.311806795 -120.661092840   134.7318   3   6   2.3710   2.3508   5.9575   0.9356  -1.7118  -2.3949  15.24   31.8
2006/12/27 02:47:30.000   35.311806252 -120.661092646   134.3661   3   6   2.3677   2.3479   5.9688   0.9369  -1.7094  -2.3754  15.22   31.8
2006/12/27 02:48:00.000   35.311805096 -120.661092091   134.6486   3   6   2.3643   2.3449   5.9804   0.9381  -1.7065  -2.3560  15.21   31.9
2006/12/27 02:48:30.000   35.311806118 -120.661091492   134.6285   3   6   2.3608   2.3419   5.9921   0.9394  -1.7033  -2.3366  15.19   31.9
2006/12/27 02:49:00.000   35.311805695 -120.661091564   134.8082   3   6   2.3572   2.3389   6.0040   0.9407  -1.6995  -2.3173  15.18   32.0
2006/12/27 02:49:30.000   35.311806173 -120.661091584   134.9016   3   6   2.3536   2.3359   6.0161   0.9420  -1.6953  -2.2980  15.16   32.1
2006/12/27 02:50:00.000   35.311804874 -120.661092810   135.1533   3   6   2.3499   2.3328   6.0284   0.9432  -1.6907  -2.2788  15.15   32.1
2006/12/27 02:50:30.000   35.311806061 -120.661091987   134.8652   3   6   2.3463   2.3297   6.0408   0.9445  -1.6856  -2.2596  15.13   32.2
2006/12/27 02:51:00.000   35.311803744 -120.661091486   135.2953   3   6   2.3426   2.3267   6.0534   0.9457  -1.6801  -2.2404  15.11   32.3
2006/12/27 02:51:30.000   35.311804664 -120.661090283   134.8397   3   6   2.3389   2.3236   6.0661   0.9470  -1.6740  -2.2212  15.10   32.3
2006/12/27 02:52:00.000   35.311803084 -120.661090975   134.9931   3   6   2.3427   2.3210   6.1124   0.9430  -1.6773  -2.1747  15.09   32.6
2006/12/27 02:52:30.000   35.311805111 -120.661090013   134.6665   3   6   2.3391   2.3179   6.1266   0.9443  -1.6705  -2.1547  15.08   32.7
2006/12/27 02:53:00.000   35.311802338 -120.661091494   135.0027   3   6   2.3355   2.3147   6.1410   0.9455  -1.6631  -2.1347  15.06   32.7
2006/12/27 02:53:30.000   35.311804314 -120.661089836   134.6599   3   6   2.3318   2.3115   6.1554   0.9467  -1.6552  -2.1146  15.05   32.8
2006/12/27 02:54:00.000   35.311803192 -120.661091488   134.4354   3   7   2.2647   2.0175   4.7236   0.5406   1.3194  -1.4975  13.69   25.2
2006/12/27 02:54:30.000   35.311804785 -120.661090559   134.3117   3   7   2.2623   2.0165   4.7344   0.5502   1.3274  -1.4743  13.68   25.2
2006/12/27 02:55:00.000   35.311803678 -120.661093028   134.1552   3   7   2.2599   2.0156   4.7455   0.5595   1.3357  -1.4508  13.67   25.3
2006/12/27 02:55:30.000   35.311806335 -120.661091509   134.2168   3   7   2.2575   2.0148   4.7569   0.5685   1.3443  -1.4271  13.67   25.4
2006/12/27 02:56:00.000   35.311805663 -120.661094376   133.8318   3   7   2.2808   2.0474   4.8900   0.4557   1.4935  -1.5290  13.74   26.1
2006/12/27 02:56:30.000   35.311809018 -120.661093593   133.5412   3   7   2.9006   2.4600   6.0266  -0.6254   2.5208  -2.4038  17.47   32.1
2006/12/27 02:57:00.000   35.311807968 -120.661094885   133.4851   3   7   2.8888   2.4585   6.0230  -0.5935   2.5200  -2.3673  17.39   32.1
2006/12/27 02:57:30.000   35.311809536 -120.661095128   133.6884   3   7   2.8783   2.4574   6.0215  -0.5576   2.5205  -2.3282  17.31   32.1
2006/12/27 02:58:00.000   35.311808729 -120.661095140   133.4125   3   7   2.8666   2.4559   6.0186  -0.5233   2.5202  -2.2918  17.23   32.1
2006/12/27 02:58:30.000   35.311810096 -120.661094543   133.3898   3   7   2.8550   2.4546   6.0160  -0.4873   2.5200  -2.2554  17.16   32.1
2006/12/27 02:59:00.000   35.311808299 -120.661094796   133.4670   3   7   2.8436   2.4532   6.0137  -0.4493   2.5200  -2.2191  17.08   32.1
2006/12/27 02:59:30.000   35.311808381 -120.661091531   133.5438   3   7   2.8323   2.4519   6.0118  -0.4087   2.5202  -2.1827  17.01   32.0
2006/12/27 03:00:00.000   35.311807249 -120.661093371   133.5908   3   7   2.8212   2.4506   6.0101  -0.3646   2.5206  -2.1463  16.94   32.0
2006/12/27 03:00:30.000   35.311807966 -120.661092377   133.8145   3   7   2.7932   2.4160   5.9086   0.1575   2.4323  -2.0283  16.76   31.5
2006/12/27 03:01:00.000   35.311807774 -120.661093606   133.2467   3   7   3.0144   2.7971   6.3782   0.2439   2.4447  -2.2089  18.09   34.0
2006/12/27 03:01:30.000   35.311807820 -120.661094242   133.9177   3   7   3.0347   2.8055   6.4397   0.3900   2.4942  -2.1132  18.23   34.3
2006/12/27 03:02:00.000   35.311806083 -120.661093672   133.6099   3   7   3.0290   2.8068   6.4620   0.4032   2.5148  -2.0830  18.19   34.4
2006/12/27 03:02:30.000   35.311805660 -120.661093450   133.9262   3   7   2.9983   2.8012   6.4849   0.3065   2.5343  -2.0569  18.00   34.6
2006/12/27 03:03:00.000   35.311807483 -120.661093848   133.7735   3   7   2.9925   2.8031   6.5087   0.3196   2.5564  -2.0268  17.96   34.7
2006/12/27 03:03:30.000   35.311806249 -120.661093076   133.9174   3   7   2.9867   2.8053   6.5331   0.3314   2.5792  -1.9967  17.93   34.8
2006/12/27 03:04:00.000   35.311805742 -120.661094475   133.6650   3   6   3.1181   2.8556   6.8403   0.7692   2.7899  -1.4456  18.90   36.5
2006/12/27 03:04:30.000   35.311805637 -120.661095421   133.9957   3   6   3.1087   2.8588   6.8694   0.7695   2.8143  -1.4089  18.85   36.6
2006/12/27 03:05:00.000   35.311805946 -120.661094978   133.8003   3   6   3.0996   2.8624   6.8989   0.7699   2.8394  -1.3715  18.81   36.8
2006/12/27 03:05:30.000   35.311807203 -120.661094573   133.8763   3   6   3.0907   2.8664   6.9291   0.7702   2.8651  -1.3335  18.76   36.9
2006/12/27 03:06:00.000   35.311805630 -120.661093339   133.9334   3   6   3.7119   3.0933   7.0260   1.5482   3.0711  -0.7497  23.13   37.4
2006/12/27 03:06:30.000   35.311807142 -120.661092538   133.6982   3   6   3.6998   3.0982   7.0572   1.5359   3.0971  -0.7045  23.06   37.6
2006/12/27 03:07:00.000   35.311806586 -120.661092205   134.1391   3   6   3.6880   3.1034   7.0888   1.5235   3.1237  -0.6568  22.98   37.8
2006/12/27 03:07:30.000   35.311805739 -120.661093050   133.6590   3   6   3.6764   3.1090   7.1207   1.5111   3.1506  -0.6059  22.91   38.0
2006/12/27 03:08:00.000   35.311806547 -120.661091510   134.2730   3   6   3.6651   3.1149   7.1529   1.4988   3.1780  -0.5508  22.84   38.1
2006/12/27 03:08:30.000   35.311805900 -120.661093172   133.9777   3   6   3.6541   3.1212   7.1854   1.4865   3.2058  -0.4902  22.77   38.3
2006/12/27 03:09:00.000   35.311806226 -120.661092517   133.8519   3   5   3.7226   3.2302  11.8160   1.6704   1.7057  -2.7071  23.56   63.0
2006/12/27 03:09:30.000   35.311806223 -120.661093478   134.1012   3   5   3.7113   3.2312  11.8359   1.6530   1.8214  -2.6875  23.47   63.1
2006/12/27 03:10:00.000   35.311806459 -120.661094085   134.0816   3   5   3.7095   3.2697  12.1171   1.5958   2.2279  -2.7879  23.39   64.6
2006/12/27 03:10:30.000   35.311806365 -120.661092967   133.8189   3   5   3.6984   3.2725  12.1342   1.5782   2.3231  -2.7668  23.31   64.7
2006/12/27 03:11:00.000   35.311805959 -120.661098018   134.3381   3   5   3.1660   3.0453  12.1026   1.0037   2.5465  -2.8779  19.65   64.5
2006/12/27 03:11:30.000   35.311805802 -120.661094689   133.6127   3   5   3.1577   3.0499  12.1167   0.9911   2.6429  -2.8504  19.60   64.6
2006/12/27 03:12:00.000   35.311807738 -120.661094394   133.3354   3   5   3.1496   3.0551  12.1299   0.9788   2.7366  -2.8229  19.56   64.7
2006/12/27 03:12:30.000   35.311807234 -120.661094479   133.3274   3   5   3.1418   3.0610  12.1423   0.9666   2.8279  -2.7953  19.52   64.7
2006/12/27 03:13:00.000   35.311809332 -120.661094549   133.9546   3   5   3.1342   3.0676  12.1538   0.9548   2.9169  -2.7679  19.49   64.8
2006/12/27 03:13:30.000   35.311808449 -120.661096383   133.5860   3   5   3.1269   3.0749  12.1644   0.9432   3.0037  -2.7404  19.46   64.8
2006/12/27 03:14:00.000   35.311810235 -120.661095782   134.3044   3   5   3.1197   3.0828  12.1740   0.9318   3.0885  -2.7130  19.44   64.9
2006/12/27 03:14:30.000   35.311808934 -120.661094064   134.0015   3   5   3.1128   3.0914  12.1827   0.9208   3.1714  -2.6857  19.42   64.9
2006/12/27 03:15:00.000   35.311807414 -120.661094748   134.2187   3   5   3.1061   3.1007  12.1904   0.9100   3.2524  -2.6584  19.40   65.0
2006/12/27 03:15:30.000   35.311806876 -120.661095498   134.2679   3   5   3.0996   3.1106  12.1970   0.8994   3.3317  -2.6313  19.40   65.0
2006/12/27 03:16:00.000   35.311807255 -120.661093108   134.3046   3   5   3.0427   3.0973  12.1959   0.8143   3.4274  -2.6052  19.08   65.0
2006/12/27 03:16:30.000   35.311807373 -120.661092188   133.9241   3   5   3.0371   3.1088  12.2001   0.8055   3.5036  -2.5777  19.10   65.0
2006/12/27 03:17:00.000   35.311806933 -120.661094191   134.7138   3   5   3.0316   3.1210  12.2032   0.7969   3.5783  -2.5503  19.12   65.0
2006/12/27 03:17:30.000   35.311807671 -120.661092941   133.9223   3   5   3.0264   3.1338  12.2051   0.7888   3.6514  -2.5232  19.16   65.1
2006/12/27 03:18:00.000   35.311807081 -120.661093049   134.1205   3   5   3.0213   3.1472  12.2060   0.7809   3.7229  -2.4964  19.20   65.1
2006/12/27 03:18:30.000   35.311808346 -120.661094984   133.8092   3   5   3.0145   3.1479  12.1452   0.7939   3.7463  -2.4424  19.21   64.7
2006/12/27 03:19:00.000   35.311806315 -120.661094924   133.7198   3   5   3.0099   3.1622  12.1436   0.7869   3.8149  -2.4162  19.26   64.7
2006/12/27 03:19:30.000   35.311808228 -120.661095092   133.5197   3   5   3.0055   3.1770  12.1408   0.7801   3.8821  -2.3904  19.32   64.7
2006/12/27 03:20:00.000   35.311806502 -120.661096530   133.7608   3   5   3.0012   3.1924  12.1369   0.7737   3.9478  -2.3649  19.39   64.7
2006/12/27 03:20:30.000   35.311808500 -120.661096909   134.2255   3   5   3.0445   3.2289  12.1423   0.8290   3.9914  -2.3449  19.67   64.7
2006/12/27 03:21:00.000   35.311807186 -120.661095509   133.5251   3   5   3.0402   3.2449  12.1364   0.8216   4.0541  -2.3209  19.73   64.7
2006/12/27 03:21:30.000   35.311807423 -120.661096059   133.5712   3   5   3.0362   3.2614  12.1294   0.8143   4.1155  -2.2972  19.81   64.6
2006/12/27 03:22:00.000   35.311808280 -120.661096734   134.0778   3   5   3.0324   3.2783  12.1212   0.8072   4.1755  -2.2741  19.89   64.6
2006/12/27 03:22:30.000   35.311808248 -120.661095760   133.3091   3   5   3.0287   3.2957  12.1118   0.8003   4.2341  -2.2515  19.97   64.6
2006/12/27 03:23:00.000   35.311807931 -120.661095724   134.0203   3   5   3.0252   3.3135  12.1012   0.7935   4.2914  -2.2295  20.06   64.5
2006/12/27 03:23:30.000   35.311807729 -120.661094740   133.4749   3   5   3.0219   3.3317  12.0894   0.7868   4.3474  -2.2080  20.15   64.4
2006/12/27 03:24:00.000   35.311808273 -120.661094240   134.1947   3   5   3.0187   3.3503  12.0764   0.7802   4.4021  -2.1872  20.25   64.4
2006/12/27 03:24:30.000   35.311807422 -120.661093706   133.9242   3   5   3.0125   3.3300  11.9262   0.8183   4.3503  -2.1084  20.16   63.6
2006/12/27 03:25:00.000   35.311808424 -120.661095991   134.0658   3   5   3.0099   3.3502  11.9166   0.8103   4.4068  -2.0917  20.26   63.5
2006/12/27 03:25:30.000   35.311807203 -120.661093270   133.8973   3   5   3.0074   3.3707  11.9058   0.8022   4.4620  -2.0757  20.37   63.5
2006/12/27 03:26:00.000   35.311807281 -120.661094141   134.2208   3   5   3.0051   3.3916  11.8938   0.7941   4.5158  -2.0605  20.48   63.4
2006/12/27 03:26:30.000   35.311807530 -120.661093627   134.3787   3   5   3.0029   3.4128  11.8806   0.7859   4.5684  -2.0460  20.60   63.3
2006/12/27 03:27:00.000   35.311807143 -120.661094254   134.6801   3   5   3.0009   3.4343  11.8663   0.7776   4.6196  -2.0324  20.71   63.2
2006/12/27 03:27:30.000   35.311809172 -120.661094165   134.4478   3   5   2.9990   3.4560  11.8508   0.7691   4.6696  -2.0196  20.84   63.2
2006/12/27 03:28:00.000   35.311806155 -120.661093705   134.8302   3   5   2.9972   3.4780  11.8342   0.7604   4.7183  -2.0076  20.96   63.1
2006/12/27 03:28:30.000   35.311807880 -120.661092350   134.4602   3   5   2.9956   3.5002  11.8165   0.7516   4.7657  -1.9966  21.08   63.0
2006/12/27 03:29:00.000   35.311806375 -120.661092974   134.5025   3   5   2.9942   3.5226  11.7976   0.7424   4.8118  -1.9865  21.21   62.9
2006/12/27 03:29:30.000   35.311807888 -120.661092130   134.1822   3   5   2.9943   3.5727  11.8573   0.7037   4.9188  -2.0100  21.49   63.2
2006/12/27 03:30:00.000   35.311805817 -120.661092779   134.7700   3   5   2.9930   3.5939  11.8308   0.6955   4.9583  -1.9994  21.61   63.1
2006/12/27 03:30:30.000   35.311807408 -120.661092971   134.6422   3   5   2.9918   3.6153  11.8033   0.6869   4.9966  -1.9898  21.74   62.9
2006/12/27 03:31:00.000   35.311804414 -120.661092147   134.8635   3   5   2.9907   3.6367  11.7748   0.6779   5.0338  -1.9813  21.86   62.8
2006/12/27 03:31:30.000   35.311807345 -120.661092250   134.9261   3   5   2.9898   3.6581  11.7453   0.6683   5.0697  -1.9738  21.99   62.6
2006/12/27 03:32:00.000   35.311805230 -120.661091429   135.3860   3   5   2.9890   3.6796  11.7149   0.6582   5.1045  -1.9674  22.11   62.4
2006/12/27 03:32:30.000   35.311807385 -120.661091424   135.0620   3   5   2.9883   3.7010  11.6835   0.6475   5.1381  -1.9621  22.24   62.3
2006/12/27 03:33:00.000   35.311805967 -120.661089253   134.6458   3   5   2.9878   3.7224  11.6512   0.6361   5.1706  -1.9580  22.36   62.1
2006/12/27 03:33:30.000   35.311806853 -120.661092948   134.8776   3   5   2.9874   3.7438  11.6181   0.6239   5.2019  -1.9549  22.49   61.9
2006/12/27 03:34:00.000   35.311808460 -120.661090070   134.1696   3   5   2.9871   3.7651  11.5841   0.6110   5.2322  -1.9529  22.61   61.7
2006/12/27 03:34:30.000   35.311807386 -120.661091617   134.3147   3   5   2.9869   3.7864  11.5494   0.5970   5.2613  -1.9520  22.74   61.6
