% program   : RTKLIB ver.2.4.2
% inp file  : Uslo3610.06O
% inp file  : Uslo3610.06N
% inp file  : Geo135_00b4_1407_03.sbs
% obs start : 2006/12/27 00:00:30.0 GPST (week1407 259230.0s)
% obs end   : 2006/12/27 23:59:30.0 GPST (week1407 345570.0s)
% pos mode  : single
% elev mask : 0.0 deg
% ionos opt : sbas
% tropo opt : sbas
% ephemeris : broadcast+sbas
% navi sys  : gps sbas
%
% (lat/lon/height=WGS84/ellipsoidal,Q=1:fix,2:float,3:sbas,4:dgps,5:single,6:ppp,ns=# of satellites)
%  GPST                  latitude(deg) longitude(deg)  height(m)   Q  ns   sdn(m)   sde(m)   sdu(m)  sdne(m)  sdeu(m)  sdun(m) hpl (m) vpl (m)
2006/12/27 00:04:30.000   35.311789409 -120.661114248   130.5055   3   4  11.2136  19.9097  33.6717  14.3341  25.7826  18.5806 135.11  179.5
2006/12/27 00:05:00.000   35.311801498 -120.661094547   133.7026   3   6   4.2430   6.1800  10.6443   3.0110   7.7561   3.7412  38.73   56.7
2006/12/27 00:05:30.000   35.311802750 -120.661091292   134.4215   3   6   4.3371   4.1041   7.2346   2.7994   4.9087   3.4777  30.43   38.6
2006/12/27 00:06:00.000   35.311806962 -120.661090219   134.6095   3   8   3.0999   3.0710   6.0056  -0.6237   3.6254   0.4544  18.90   32.0
2006/12/27 00:06:30.000   35.311804491 -120.661090086   134.4614   3   8   3.1142   3.0617   5.9800  -0.6106   3.6069   0.6240  18.92   31.9
2006/12/27 00:07:00.000   35.311807493 -120.661093708   134.5925   3  10   2.9629   2.1961   4.5378   1.3298   2.4624   1.9152  18.45   24.2
2006/12/27 00:07:30.000   35.311808867 -120.661095642   134.6564   3  10   2.9716   2.2006   4.5520   1.3431   2.4725   1.9563  18.52   24.3
2006/12/27 00:08:00.000   35.311807909 -120.661095053   134.9005   3  10   2.9802   2.2050   4.5664   1.3560   2.4825   1.9963  18.59   24.3
2006/12/27 00:08:30.000   35.311808254 -120.661095745   134.5981   3   9   2.8254   2.1553   4.4125   1.1803   2.3692   1.7126  17.48   23.5
2006/12/27 00:09:00.000   35.311807875 -120.661094183   134.7249   3   9   2.8310   2.1587   4.4220   1.1904   2.3761   1.7483  17.53   23.6
2006/12/27 00:09:30.000   35.311807356 -120.661095727   134.3219   3  10   2.8190   2.1469   4.3915   1.1661   2.3510   1.7295  17.42   23.4
2006/12/27 00:10:00.000   35.311807964 -120.661095005   134.1820   3   9   2.8424   2.1656   4.4425   1.2100   2.3905   1.8179  17.62   23.7
2006/12/27 00:10:30.000   35.311805223 -120.661096550   133.9467   3   9   2.8482   2.1691   4.4534   1.2197   2.3979   1.8518  17.67   23.7
2006/12/27 00:11:00.000   35.311806181 -120.661093723   133.8680   3   9   2.8541   2.1727   4.4648   1.2292   2.4055   1.8852  17.71   23.8
2006/12/27 00:11:30.000   35.311804557 -120.661095023   133.7823   3   9   2.8599   2.1764   4.4767   1.2385   2.4133   1.9181  17.76   23.9
2006/12/27 00:12:00.000   35.311804023 -120.661092447   133.5080   3  10   2.8151   2.1497   4.4213   1.1683   2.3629   1.8457  17.41   23.6
2006/12/27 00:12:30.000   35.311804637 -120.661095186   133.4843   3  10   2.8194   2.1525   4.4313   1.1752   2.3688   1.8752  17.44   23.6
2006/12/27 00:13:00.000   35.311805845 -120.661091980   134.0319   3  10   2.3525   1.9684   4.0956   0.1642   2.0420   0.9950  14.12   21.8
2006/12/27 00:13:30.000   35.311806836 -120.661093669   133.7160   3  10   2.3604   1.9715   4.1058   0.2152   2.0482   1.0487  14.16   21.9
2006/12/27 00:14:00.000   35.311807138 -120.661093271   133.9601   3  10   2.3685   1.9747   4.1164   0.2561   2.0545   1.1000  14.21   21.9
2006/12/27 00:14:30.000   35.311807024 -120.661093634   133.8383   3   9   2.3856   1.9883   4.1621   0.3559   2.0872   1.1963  14.33   22.2
2006/12/27 00:15:00.000   35.311806539 -120.661093754   134.1050   3  10   2.3848   1.9813   4.1391   0.3226   2.0678   1.1964  14.32   22.1
2006/12/27 00:15:30.000   35.311806712 -120.661094208   133.7931   3  10   2.3931   1.9847   4.1511   0.3511   2.0747   1.2421  14.37   22.1
2006/12/27 00:16:00.000   35.311806339 -120.661093681   133.5772   3  10   2.4014   1.9881   4.1635   0.3774   2.0817   1.2863  14.42   22.2
2006/12/27 00:16:30.000   35.311805026 -120.661091606   133.9987   3  10   2.4098   1.9917   4.1764   0.4020   2.0890   1.3293  14.48   22.3
2006/12/27 00:17:00.000   35.311805257 -120.661092412   133.7789   3  10   2.4183   1.9953   4.1897   0.4251   2.0964   1.3710  14.53   22.3
2006/12/27 00:17:30.000   35.311805210 -120.661091029   133.7839   3  10   2.4269   1.9990   4.2035   0.4470   2.1039   1.4117  14.59   22.4
2006/12/27 00:18:00.000   35.311805251 -120.661092834   133.7260   3  10   2.8655   2.1849   4.5646   1.2392   2.4393   2.1687  17.80   24.3
2006/12/27 00:18:30.000   35.311805870 -120.661092767   133.8498   3  10   2.8694   2.1880   4.5785   1.2440   2.4462   2.1928  17.83   24.4
2006/12/27 00:19:00.000   35.311805473 -120.661093338   134.0319   3  10   2.8732   2.1912   4.5928   1.2486   2.4531   2.2166  17.85   24.5
2006/12/27 00:19:30.000   35.311804962 -120.661092635   134.0563   3  10   2.8770   2.1944   4.6073   1.2531   2.4601   2.2400  17.88   24.6
2006/12/27 00:20:00.000   35.311805217 -120.661092127   134.0075   3  10   2.8807   2.1977   4.6221   1.2574   2.4671   2.2629  17.91   24.6
2006/12/27 00:20:30.000   35.311803824 -120.661093112   133.8524   3  10   2.8578   2.1809   4.5775   1.2147   2.4293   2.2213  17.71   24.4
2006/12/27 00:21:00.000   35.311805045 -120.661092748   134.1313   3  10   2.8609   2.1835   4.5908   1.2173   2.4349   2.2424  17.74   24.5
2006/12/27 00:21:30.000   35.311805161 -120.661093290   133.9865   3  10   2.8624   2.1855   4.6019   1.2179   2.4389   2.2601  17.75   24.5
2006/12/27 00:22:00.000   35.311805224 -120.661091668   134.0117   3  10   2.8637   2.1875   4.6130   1.2181   2.4428   2.2772  17.75   24.6
2006/12/27 00:22:30.000   35.311805441 -120.661090830   133.9746   3  10   2.8649   2.1895   4.6242   1.2181   2.4467   2.2937  17.76   24.6
2006/12/27 00:23:00.000   35.311805651 -120.661090588   134.0926   3  10   2.8658   2.1915   4.6353   1.2177   2.4505   2.3097  17.77   24.7
2006/12/27 00:23:30.000   35.311805370 -120.661090545   134.0538   3  10   2.8666   2.1935   4.6464   1.2170   2.4542   2.3252  17.77   24.8
2006/12/27 00:24:00.000   35.311806413 -120.661089954   134.1026   3  10   2.8671   2.1955   4.6575   1.2160   2.4577   2.3401  17.77   24.8
2006/12/27 00:24:30.000   35.311809229 -120.661090171   133.7262   3   9   3.1152   2.1976   5.1510   1.2244   2.4526   1.7010  19.10   27.5
2006/12/27 00:25:00.000   35.311808566 -120.661089629   133.9590   3   9   3.1052   2.1995   5.1676   1.2177   2.4605   1.7313  19.03   27.5
2006/12/27 00:25:30.000   35.311809946 -120.661091587   133.8895   3   9   3.0952   2.2014   5.1843   1.2108   2.4684   1.7606  18.97   27.6
2006/12/27 00:26:00.000   35.311808806 -120.661090246   133.7142   3   9   3.0852   2.2034   5.2012   1.2038   2.4762   1.7888  18.91   27.7
2006/12/27 00:26:30.000   35.311807769 -120.661093030   133.8434   3   9   3.0752   2.2055   5.2183   1.1968   2.4840   1.8160  18.85   27.8
2006/12/27 00:27:00.000   35.311807647 -120.661093365   133.8888   3   9   3.0653   2.2076   5.2356   1.1896   2.4918   1.8423  18.79   27.9
2006/12/27 00:27:30.000   35.311807627 -120.661093523   134.1761   3   9   3.0554   2.2099   5.2531   1.1824   2.4995   1.8677  18.72   28.0
2006/12/27 00:28:00.000   35.311808999 -120.661092030   134.0184   3   9   3.0455   2.2121   5.2707   1.1750   2.5073   1.8922  18.66   28.1
2006/12/27 00:28:30.000   35.311808985 -120.661091464   133.8881   3   9   3.0357   2.2145   5.2885   1.1677   2.5150   1.9159  18.60   28.2
2006/12/27 00:29:00.000   35.311809318 -120.661088198   133.5848   3   9   3.0259   2.2169   5.3065   1.1602   2.5228   1.9388  18.54   28.3
2006/12/27 00:29:30.000   35.311811891 -120.661088010   133.3119   3   9   3.0161   2.2194   5.3247   1.1527   2.5306   1.9610  18.48   28.4
2006/12/27 00:30:00.000   35.311809738 -120.661089067   133.3183   3   9   3.0064   2.2221   5.3430   1.1452   2.5384   1.9826  18.42   28.5
2006/12/27 00:30:30.000   35.311807784 -120.661090508   133.4261   3   9   2.9968   2.2248   5.3616   1.1377   2.5463   2.0034  18.36   28.6
2006/12/27 00:31:00.000   35.311806893 -120.661093485   133.8484   3   9   2.9872   2.2276   5.3803   1.1301   2.5542   2.0236  18.30   28.7
2006/12/27 00:31:30.000   35.311807945 -120.661092375   133.9237   3   9   2.9776   2.2306   5.3992   1.1225   2.5623   2.0433  18.24   28.8
2006/12/27 00:32:00.000   35.311807260 -120.661092203   133.6790   3   9   2.9681   2.2337   5.4183   1.1150   2.5704   2.0623  18.18   28.9
2006/12/27 00:32:30.000   35.311807349 -120.661091992   134.0423   3   9   2.6614   2.0446   5.0192   0.2626   2.2019   1.3861  15.97   26.8
2006/12/27 00:33:00.000   35.311806454 -120.661091724   133.9218   3   9   2.6229   2.0077   4.8653  -0.3324   2.0866   1.2022  15.74   25.9
2006/12/27 00:33:30.000   35.311806137 -120.661091492   134.1181   3   9   2.6119   2.0019   4.8402  -0.3922   2.0642   1.1831  15.68   25.8
2006/12/27 00:34:00.000   35.311806928 -120.661091576   133.6225   3   9   2.5999   1.9952   4.8102  -0.4492   2.0383   1.1565  15.62   25.6
2006/12/27 00:34:30.000   35.311806236 -120.661089619   133.8998   3   9   2.5868   1.9874   4.7750  -0.5048   2.0083   1.1216  15.55   25.5
2006/12/27 00:35:00.000   35.311807491 -120.661088850   133.0703   3   9   2.5736   1.9796   4.7395  -0.5546   1.9780   1.0851  15.48   25.3
2006/12/27 00:35:30.000   35.311807506 -120.661087058   133.2103   3   9   2.5682   1.9814   4.7434  -0.5666   1.9774   1.1042  15.45   25.3
2006/12/27 00:36:00.000   35.311807130 -120.661091718   133.3065   3   9   2.5624   1.9830   4.7457  -0.5795   1.9761   1.1196  15.42   25.3
2006/12/27 00:36:30.000   35.311806746 -120.661091307   133.5307   3   9   2.5564   1.9847   4.7478  -0.5924   1.9745   1.1337  15.39   25.3
2006/12/27 00:37:00.000   35.311807264 -120.661093864   133.9245   3   9   2.5502   1.9863   4.7496  -0.6054   1.9728   1.1466  15.36   25.3
2006/12/27 00:37:30.000   35.311805632 -120.661094953   134.0082   3   9   2.5365   1.9744   4.7263  -0.6490   1.9988   1.1959  15.30   25.2
2006/12/27 00:38:00.000   35.311806115 -120.661092902   133.5445   3   9   2.5300   1.9758   4.7271  -0.6616   1.9971   1.2064  15.27   25.2
2006/12/27 00:38:30.000   35.311805434 -120.661092209   133.5648   3   9   2.5235   1.9772   4.7275  -0.6742   1.9952   1.2159  15.24   25.2
2006/12/27 00:39:00.000   35.311809457 -120.661091617   132.8877   3   9   2.5058   1.9652   4.6703  -0.7254   1.9502   1.1515  15.17   24.9
2006/12/27 00:39:30.000   35.311807618 -120.661090616   133.1527   3   9   2.4986   1.9661   4.6677  -0.7387   1.9460   1.1567  15.13   24.9
2006/12/27 00:40:00.000   35.311810319 -120.661090340   132.9654   3   9   2.4914   1.9670   4.6647  -0.7520   1.9416   1.1609  15.10   24.9
2006/12/27 00:40:30.000   35.311807427 -120.661093024   133.3575   3   9   2.4840   1.9678   4.6612  -0.7653   1.9369   1.1640  15.07   24.8
2006/12/27 00:41:00.000   35.311808690 -120.661093446   133.7286   3   9   2.4765   1.9686   4.6574  -0.7786   1.9320   1.1661  15.04   24.8
2006/12/27 00:41:30.000   35.311808275 -120.661092178   133.3522   3   9   2.4683   1.9666   4.6479  -0.7880   1.9207   1.1727  15.00   24.8
2006/12/27 00:42:00.000   35.311809094 -120.661091797   133.9199   3   9   2.4497   1.9792   4.6070  -0.7985   1.8578   1.0191  14.92   24.6
2006/12/27 00:42:30.000   35.311807229 -120.661089616   133.1203   3   9   2.4436   1.9805   4.6072  -0.8096   1.8536   1.0271  14.90   24.6
2006/12/27 00:43:00.000   35.311807410 -120.661088815   133.5242   3   9   2.4374   1.9817   4.6069  -0.8208   1.8490   1.0336  14.87   24.6
2006/12/27 00:43:30.000   35.311809831 -120.661088835   133.3760   3   9   2.4319   1.9830   4.6088  -0.8312   1.8451   1.0435  14.86   24.6
2006/12/27 00:44:00.000   35.311807328 -120.661088248   133.3892   3   9   2.4253   1.9840   4.6073  -0.8428   1.8397   1.0469  14.84   24.6
2006/12/27 00:44:30.000   35.311807996 -120.661089005   133.8759   3   9   2.4187   1.9850   4.6051  -0.8543   1.8340   1.0491  14.82   24.5
2006/12/27 00:45:00.000   35.311806845 -120.661089729   133.5916   3   9   2.4119   1.9860   4.6025  -0.8660   1.8279   1.0500  14.80   24.5
2006/12/27 00:45:30.000   35.311807976 -120.661089736   133.8976   3   9   2.4050   1.9869   4.5993  -0.8777   1.8214   1.0497  14.78   24.5
2006/12/27 00:46:00.000   35.311806716 -120.661091693   134.1516   3   9   2.3979   1.9877   4.5955  -0.8894   1.8145   1.0482  14.76   24.5
2006/12/27 00:46:30.000   35.311806294 -120.661089906   133.6761   3   9   2.3908   1.9885   4.5912  -0.9012   1.8073   1.0456  14.74   24.5
2006/12/27 00:47:00.000   35.311806932 -120.661092274   134.0584   3   9   2.4185   2.0413   4.7881  -0.8038   1.9629   1.2769  14.78   25.5
2006/12/27 00:47:30.000   35.311806644 -120.661092529   133.4606   3   9   2.4112   2.0431   4.7870  -0.8159   1.9591   1.2753  14.76   25.5
2006/12/27 00:48:00.000   35.311805490 -120.661093535   134.1490   3   9   2.3977   2.0352   4.7472  -0.8484   1.9243   1.2313  14.73   25.3
2006/12/27 00:48:30.000   35.311804703 -120.661094297   133.9470   3   9   2.3940   2.0373   4.7591  -0.8565   1.9241   1.2476  14.72   25.4
2006/12/27 00:49:00.000   35.311807006 -120.661093539   134.1107   3   9   2.3861   2.0385   4.7544  -0.8693   1.9178   1.2409  14.70   25.3
2006/12/27 00:49:30.000   35.311805894 -120.661094305   133.7406   3   9   2.3781   2.0396   4.7491  -0.8820   1.9112   1.2333  14.68   25.3
2006/12/27 00:50:00.000   35.311807340 -120.661091827   133.4007   3   9   2.3701   2.0406   4.7433  -0.8947   1.9042   1.2249  14.66   25.3
2006/12/27 00:50:30.000   35.311806489 -120.661092034   133.5881   3   9   2.3620   2.0416   4.7370  -0.9073   1.8968   1.2156  14.65   25.2
2006/12/27 00:51:00.000   35.311806528 -120.661093323   133.6522   3   8   2.3943   2.0498   4.9003  -0.8780   1.9466   1.4190  14.76   26.1
2006/12/27 00:51:30.000   35.311806904 -120.661092522   133.8055   3   8   2.3847   2.0502   4.8889  -0.8930   1.9366   1.4032  14.74   26.1
2006/12/27 00:52:00.000   35.311804578 -120.661092620   133.5186   3   8   2.3752   2.0505   4.8771  -0.9078   1.9262   1.3869  14.72   26.0
2006/12/27 00:52:30.000   35.311806240 -120.661093410   133.7244   3   8   2.3657   2.0508   4.8649  -0.9224   1.9155   1.3699  14.70   25.9
2006/12/27 00:53:00.000   35.311804197 -120.661090871   133.6521   3   8   2.3562   2.0510   4.8522  -0.9368   1.9045   1.3524  14.68   25.9
2006/12/27 00:53:30.000   35.311806156 -120.661094406   133.7116   3   8   2.3467   2.0511   4.8392  -0.9509   1.8933   1.3343  14.66   25.8
2006/12/27 00:54:00.000   35.311804905 -120.661094817   134.1176   3   8   2.3373   2.0512   4.8258  -0.9648   1.8817   1.3157  14.65   25.7
2006/12/27 00:54:30.000   35.311805857 -120.661095914   134.1558   3   8   2.3280   2.0511   4.8120  -0.9785   1.8698   1.2965  14.63   25.6
2006/12/27 00:55:00.000   35.311807266 -120.661094134   133.7243   3   8   2.3202   2.0539   4.8096  -0.9872   1.8675   1.2879  14.62   25.6
2006/12/27 00:55:30.000   35.311807022 -120.661093074   133.6076   3   8   2.3135   2.0588   4.8147  -0.9926   1.8719   1.2860  14.61   25.7
2006/12/27 00:56:00.000   35.311805981 -120.661094567   133.8331   3   8   2.3068   2.0637   4.8196  -0.9980   1.8764   1.2837  14.60   25.7
2006/12/27 00:56:30.000   35.311806322 -120.661090647   133.2968   3   8   2.9304   2.6221   6.4935  -0.5648   3.1153   2.3224  17.64   34.6
2006/12/27 00:57:00.000   35.311804951 -120.661094509   133.8541   3   8   2.9241   2.6295   6.4912  -0.6154   3.1168   2.3034  17.63   34.6
2006/12/27 00:57:30.000   35.311805089 -120.661092216   133.4737   3   8   2.9181   2.6371   6.4883  -0.6623   3.1182   2.2841  17.63   34.6
2006/12/27 00:58:00.000   35.311805279 -120.661093142   133.3833   3   8   2.9123   2.6448   6.4847  -0.7063   3.1196   2.2644  17.63   34.6
2006/12/27 00:58:30.000   35.311807195 -120.661091032   133.1607   3   8   2.9068   2.6527   6.4805  -0.7480   3.1210   2.2443  17.64   34.5
2006/12/27 00:59:00.000   35.311806159 -120.661086314   132.5374   3   8   2.9015   2.6607   6.4757  -0.7876   3.1223   2.2238  17.66   34.5
2006/12/27 00:59:30.000   35.311808792 -120.661089135   132.4734   3   8   2.8966   2.6689   6.4703  -0.8255   3.1236   2.2030  17.68   34.5
2006/12/27 01:00:00.000   35.311805417 -120.661092078   133.0581   3   8   2.8919   2.6772   6.4643  -0.8619   3.1249   2.1819  17.72   34.5
2006/12/27 01:00:30.000   35.311807923 -120.661096524   133.3880   3   8   2.8875   2.6857   6.4576  -0.8970   3.1262   2.1604  17.76   34.4
2006/12/27 01:01:00.000   35.311805981 -120.661095866   133.5919   3   8   2.8769   2.6876   6.4502  -0.9505   3.1292   2.1411  17.79   34.4
2006/12/27 01:01:30.000   35.311806454 -120.661095361   133.5236   3   8   2.4489   2.5736   6.2499  -0.3084   3.0476   2.1587  15.46   33.3
2006/12/27 01:02:00.000   35.311805714 -120.661093627   133.3393   3   8   2.4382   2.5806   6.2389  -0.3620   3.0492   2.1348  15.51   33.3
2006/12/27 01:02:30.000   35.311807894 -120.661094257   133.5530   3   8   2.4275   2.5877   6.2274  -0.4086   3.0507   2.1105  15.56   33.2
2006/12/27 01:03:00.000   35.311806984 -120.661093618   133.7474   3   8   2.4151   2.5890   6.1980  -0.4689   3.0389   2.0749  15.59   33.0
2006/12/27 01:03:30.000   35.311806987 -120.661096658   134.1548   3   8   2.4048   2.5960   6.1853  -0.5060   3.0400   2.0495  15.65   33.0
2006/12/27 01:04:00.000   35.311805872 -120.661096826   134.1332   3   8   2.3946   2.6031   6.1721  -0.5406   3.0410   2.0237  15.71   32.9
2006/12/27 01:04:30.000   35.311803676 -120.661099027   134.4617   3   8   2.3845   2.6103   6.1585  -0.5731   3.0420   1.9975  15.76   32.8
2006/12/27 01:05:00.000   35.311803855 -120.661099232   134.5158   3   8   2.3746   2.6175   6.1445  -0.6039   3.0429   1.9708  15.82   32.8
2006/12/27 01:05:30.000   35.311804007 -120.661099723   134.5982   3   8   2.3649   2.6247   6.1301  -0.6332   3.0438   1.9438  15.88   32.7
2006/12/27 01:06:00.000   35.311804644 -120.661097250   134.2361   3   8   2.8511   2.7772   6.3275  -1.2479   3.1325   1.8960  18.49   33.7
2006/12/27 01:06:30.000   35.311804644 -120.661092775   134.3689   3   8   2.8503   2.7874   6.3138  -1.2739   3.1339   1.8709  18.57   33.7
2006/12/27 01:07:00.000   35.311804430 -120.661091399   134.1745   3   8   2.8498   2.7977   6.2997  -1.2997   3.1353   1.8454  18.66   33.6
2006/12/27 01:07:30.000   35.311802886 -120.661090801   133.8117   3   8   2.8496   2.8081   6.2851  -1.3251   3.1367   1.8196  18.75   33.5
2006/12/27 01:08:00.000   35.311804645 -120.661090945   133.9162   3   8   2.8497   2.8187   6.2701  -1.3502   3.1381   1.7934  18.84   33.4
2006/12/27 01:08:30.000   35.311802939 -120.661091024   133.9772   3   8   2.8501   2.8294   6.2546  -1.3750   3.1394   1.7669  18.93   33.3
2006/12/27 01:09:00.000   35.311804484 -120.661088955   133.2519   3   8   2.8507   2.8402   6.2387  -1.3995   3.1408   1.7400  19.03   33.3
2006/12/27 01:09:30.000   35.311806460 -120.661091555   133.6058   3   8   2.8516   2.8512   6.2223  -1.4238   3.1422   1.7127  19.12   33.2
2006/12/27 01:10:00.000   35.311804713 -120.661093894   134.2381   3   8   2.8528   2.8622   6.2056  -1.4478   3.1435   1.6851  19.22   33.1
2006/12/27 01:10:30.000   35.311804430 -120.661093075   134.3031   3   8   2.8543   2.8734   6.1884  -1.4716   3.1449   1.6571  19.32   33.0
2006/12/27 01:11:00.000   35.311803686 -120.661097889   134.4216   3   8   2.8561   2.8847   6.1708  -1.4951   3.1462   1.6287  19.42   32.9
2006/12/27 01:11:30.000   35.311805286 -120.661098436   134.1893   3   8   2.8582   2.8961   6.1529  -1.5185   3.1476   1.5999  19.52   32.8
2006/12/27 01:12:00.000   35.311804375 -120.661100296   134.4954   3   8   2.8605   2.9075   6.1346  -1.5417   3.1489   1.5707  19.63   32.7
2006/12/27 01:12:30.000   35.311802739 -120.661097604   134.2131   3   8   2.8631   2.9191   6.1159  -1.5646   3.1502   1.5411  19.73   32.6
2006/12/27 01:13:00.000   35.311806540 -120.661099157   134.0952   3   8   2.8660   2.9308   6.0969  -1.5874   3.1515   1.5111  19.83   32.5
2006/12/27 01:13:30.000   35.311804527 -120.661099708   133.6476   3   8   2.8691   2.9425   6.0776  -1.6100   3.1528   1.4806  19.94   32.4
2006/12/27 01:14:00.000   35.311806363 -120.661099812   134.2299   3   8   2.8725   2.9544   6.0580  -1.6324   3.1541   1.4496  20.05   32.3
2006/12/27 01:14:30.000   35.311805218 -120.661100436   133.8455   3   8   2.8762   2.9663   6.0380  -1.6547   3.1554   1.4181  20.16   32.2
2006/12/27 01:15:00.000   35.311806573 -120.661101391   134.4548   3   8   2.8802   2.9783   6.0177  -1.6768   3.1566   1.3862  20.27   32.1
2006/12/27 01:15:30.000   35.311806776 -120.661102697   133.6392   3   8   2.8844   2.9903   5.9972  -1.6987   3.1579   1.3537  20.38   32.0
2006/12/27 01:16:00.000   35.311804469 -120.661102050   134.0135   3   8   2.8889   3.0026   5.9770  -1.7204   3.1585   1.3201  20.49   31.9
2006/12/27 01:16:30.000   35.311805662 -120.661102521   133.8924   3   8   2.8937   3.0155   5.9582  -1.7416   3.1580   1.2850  20.60   31.8
2006/12/27 01:17:00.000   35.311805927 -120.661102998   133.3448   3   8   2.8987   3.0285   5.9393  -1.7627   3.1573   1.2493  20.71   31.7
2006/12/27 01:17:30.000   35.311805320 -120.661103342   134.4466   3   8   2.9040   3.0415   5.9204  -1.7837   3.1565   1.2130  20.83   31.6
2006/12/27 01:18:00.000   35.311804915 -120.661103297   134.0884   3   8   2.9095   3.0545   5.9014  -1.8047   3.1557   1.1761  20.94   31.5
2006/12/27 01:18:30.000   35.311807267 -120.661100944   133.7572   3   8   2.9152   3.0676   5.8823  -1.8255   3.1547   1.1385  21.06   31.4
2006/12/27 01:19:00.000   35.311804384 -120.661101594   134.5650   3   8   2.9212   3.0807   5.8633  -1.8463   3.1536   1.1002  21.17   31.3
2006/12/27 01:19:30.000   35.311806989 -120.661099579   134.3532   3   8   2.9273   3.0938   5.8441  -1.8669   3.1524   1.0612  21.29   31.1
2006/12/27 01:20:00.000   35.311804717 -120.661099560   134.4664   3   8   2.9337   3.1069   5.8247  -1.8875   3.1511   1.0215  21.41   31.0
2006/12/27 01:20:30.000   35.311808092 -120.661100785   133.9413   3   9   2.7565   2.2657   4.5006  -1.2157   1.4337   2.1603  17.28   24.0
2006/12/27 01:21:00.000   35.311806523 -120.661098774   133.9601   3   9   2.7570   2.2713   4.4914  -1.2259   1.4281   2.1527  17.30   23.9
2006/12/27 01:21:30.000   35.311806756 -120.661097498   134.2852   3   9   2.7576   2.2768   4.4822  -1.2359   1.4221   2.1453  17.33   23.9
2006/12/27 01:22:00.000   35.311805973 -120.661095224   133.8151   3   9   2.7582   2.2821   4.4729  -1.2457   1.4160   2.1380  17.36   23.8
2006/12/27 01:22:30.000   35.311806114 -120.661093328   133.8685   3   9   2.7590   2.2874   4.4636  -1.2554   1.4096   2.1310  17.39   23.8
2006/12/27 01:23:00.000   35.311806366 -120.661093954   133.6384   3   9   2.7599   2.2925   4.4544  -1.2648   1.4030   2.1243  17.42   23.7
2006/12/27 01:23:30.000   35.311805224 -120.661095133   133.9536   3   9   2.7609   2.2975   4.4451  -1.2740   1.3962   2.1177  17.44   23.7
2006/12/27 01:24:00.000   35.311806230 -120.661094874   133.9164   3   9   2.7620   2.3024   4.4359  -1.2831   1.3892   2.1113  17.47   23.6
2006/12/27 01:24:30.000   35.311804733 -120.661093190   133.7023   3   9   2.7632   2.3072   4.4267  -1.2919   1.3819   2.1052  17.50   23.6
2006/12/27 01:25:00.000   35.311804831 -120.661093357   134.2643   3   9   2.7645   2.3119   4.4175  -1.3006   1.3744   2.0993  17.53   23.5
2006/12/27 01:25:30.000   35.311805732 -120.661089961   133.7813   3   9   2.7659   2.3164   4.4084  -1.3090   1.3668   2.0936  17.56   23.5
2006/12/27 01:26:00.000   35.311805859 -120.661090840   133.6621   3   9   2.7674   2.3208   4.3993  -1.3173   1.3589   2.0881  17.59   23.4
2006/12/27 01:26:30.000   35.311805196 -120.661090192   133.5079   3   9   2.7690   2.3251   4.3903  -1.3253   1.3508   2.0829  17.62   23.4
2006/12/27 01:27:00.000   35.311805820 -120.661089600   133.5891   3   9   2.7707   2.3292   4.3813  -1.3332   1.3425   2.0779  17.65   23.4
2006/12/27 01:27:30.000   35.311805773 -120.661090797   133.4776   3   9   2.7725   2.3332   4.3724  -1.3409   1.3340   2.0732  17.68   23.3
2006/12/27 01:28:00.000   35.311805957 -120.661090270   133.5196   3   9   2.7743   2.3370   4.3636  -1.3484   1.3254   2.0687  17.71   23.3
2006/12/27 01:28:30.000   35.311806139 -120.661092129   133.2930   3   9   2.7718   2.3369   4.3476  -1.3635   1.3036   2.0548  17.74   23.2
2006/12/27 01:29:00.000   35.311807260 -120.661092576   133.2484   3   9   2.7738   2.3404   4.3390  -1.3707   1.2943   2.0507  17.77   23.1
2006/12/27 01:29:30.000   35.311806622 -120.661095732   133.4674   3   9   2.7759   2.3437   4.3305  -1.3777   1.2848   2.0468  17.80   23.1
2006/12/27 01:30:00.000   35.311807619 -120.661096282   133.3397   3   9   2.7367   2.2268   4.1996  -1.2591   0.9452   2.1390  17.24   22.4
2006/12/27 01:30:30.000   35.311807063 -120.661095590   133.2779   3   9   2.7332   2.2111   4.1755  -1.2459   0.8742   2.1507  17.18   22.3
2006/12/27 01:31:00.000   35.311807117 -120.661096474   133.4015   3   9   2.7349   2.2139   4.1699  -1.2518   0.8645   2.1472  17.20   22.2
2006/12/27 01:31:30.000   35.311805069 -120.661092518   133.5838   3   8   3.1154   3.3416   5.3185  -2.3031   3.0005  -0.5732  23.84   28.3
2006/12/27 01:32:00.000   35.311804452 -120.661089526   134.0009   3   8   3.1256   3.3548   5.3032  -2.3207   2.9987  -0.6113  23.96   28.3
2006/12/27 01:32:30.000   35.311804476 -120.661092361   133.8612   3   8   3.1359   3.3678   5.2878  -2.3381   2.9966  -0.6453  24.08   28.2
2006/12/27 01:33:00.000   35.311804074 -120.661090321   133.9846   3   8   3.1462   3.3805   5.2724  -2.3553   2.9940  -0.6759  24.20   28.1
2006/12/27 01:33:30.000   35.311804665 -120.661090992   133.9225   3   8   3.1566   3.3929   5.2569  -2.3721   2.9912  -0.7034  24.31   28.0
2006/12/27 01:34:00.000   35.311804740 -120.661091352   134.2312   3   8   3.1670   3.4050   5.2413  -2.3887   2.9879  -0.7282  24.42   27.9
2006/12/27 01:34:30.000   35.311805627 -120.661089662   134.0417   3   8   3.1775   3.4168   5.2258  -2.4050   2.9843  -0.7505  24.54   27.9
2006/12/27 01:35:00.000   35.311804271 -120.661092901   134.1342   3   8   3.1880   3.4283   5.2102  -2.4209   2.9803  -0.7704  24.65   27.8
2006/12/27 01:35:30.000   35.311804626 -120.661090850   134.1405   3   8   3.1984   3.4394   5.1945  -2.4365   2.9758  -0.7883  24.75   27.7
2006/12/27 01:36:00.000   35.311805417 -120.661091184   134.3036   3   8   3.2089   3.4502   5.1789  -2.4518   2.9710  -0.8041  24.86   27.6
2006/12/27 01:36:30.000   35.311804895 -120.661092324   133.8696   3   8   3.2194   3.4606   5.1632  -2.4667   2.9658  -0.8180  24.96   27.5
2006/12/27 01:37:00.000   35.311803995 -120.661091017   134.3411   3   8   3.2300   3.4706   5.1476  -2.4813   2.9601  -0.8304  25.06   27.4
2006/12/27 01:37:30.000   35.311805489 -120.661091671   133.9971   3   8   3.2404   3.4798   5.1317  -2.4953   2.9534  -0.8405  25.16   27.4
2006/12/27 01:38:00.000   35.311805037 -120.661091638   134.4536   3   8   3.2508   3.4882   5.1154  -2.5088   2.9458  -0.8483  25.25   27.3
2006/12/27 01:38:30.000   35.311806172 -120.661093086   134.2376   3   8   3.2611   3.4961   5.0990  -2.5218   2.9376  -0.8545  25.34   27.2
2006/12/27 01:39:00.000   35.311805055 -120.661091144   134.3190   3   8   3.2714   3.5035   5.0827  -2.5345   2.9290  -0.8590  25.43   27.1
2006/12/27 01:39:30.000   35.311804142 -120.661090385   134.4489   3   8   3.2816   3.5105   5.0663  -2.5467   2.9199  -0.8618  25.51   27.0
2006/12/27 01:40:00.000   35.311804408 -120.661093252   134.2989   3   8   3.2918   3.5170   5.0500  -2.5585   2.9103  -0.8631  25.59   26.9
2006/12/27 01:40:30.000   35.311803815 -120.661091433   133.9256   3   8   3.3019   3.5231   5.0336  -2.5698   2.9003  -0.8629  25.67   26.8
2006/12/27 01:41:00.000   35.311803716 -120.661092329   134.7799   3   8   3.3119   3.5286   5.0173  -2.5807   2.8898  -0.8610  25.74   26.7
2006/12/27 01:41:30.000   35.311804672 -120.661091878   133.9555   3   8   3.3218   3.5336   5.0011  -2.5912   2.8788  -0.8576  25.82   26.7
2006/12/27 01:42:00.000   35.311803698 -120.661091802   134.7843   3   8   3.3316   3.5381   4.9849  -2.6011   2.8674  -0.8526  25.88   26.6
2006/12/27 01:42:30.000   35.311802914 -120.661090858   134.3717   3   8   3.3413   3.5421   4.9688  -2.6107   2.8555  -0.8460  25.95   26.5
2006/12/27 01:43:00.000   35.311803763 -120.661091264   134.3357   3   8   3.3509   3.5455   4.9527  -2.6197   2.8432  -0.8378  26.01   26.4
2006/12/27 01:43:30.000   35.311803022 -120.661091686   134.5150   3   8   3.3603   3.5484   4.9367  -2.6283   2.8305  -0.8279  26.07   26.3
2006/12/27 01:44:00.000   35.311804709 -120.661091054   134.5789   3   8   3.3697   3.5509   4.9208  -2.6364   2.8173  -0.8164  26.13   26.2
2006/12/27 01:44:30.000   35.311803467 -120.661089235   134.7926   3   8   3.3789   3.5527   4.9050  -2.6441   2.8037  -0.8031  26.18   26.1
2006/12/27 01:45:00.000   35.311802765 -120.661089533   134.6928   3   8   3.3879   3.5541   4.8894  -2.6512   2.7897  -0.7881  26.23   26.1
2006/12/27 01:45:30.000   35.311803957 -120.661090383   134.5139   3   8   3.3969   3.5549   4.8738  -2.6578   2.7752  -0.7712  26.27   26.0
2006/12/27 01:46:00.000   35.311804490 -120.661090493   134.5466   3   8   3.4056   3.5551   4.8584  -2.6640   2.7604  -0.7523  26.31   25.9
2006/12/27 01:46:30.000   35.311803015 -120.661090720   134.4740   3   8   3.4143   3.5548   4.8431  -2.6696   2.7452  -0.7313  26.35   25.8
2006/12/27 01:47:00.000   35.311803680 -120.661091316   134.4440   3   8   3.4227   3.5540   4.8280  -2.6748   2.7297  -0.7081  26.39   25.7
2006/12/27 01:47:30.000   35.311801897 -120.661090549   134.6998   3   8   3.4310   3.5527   4.8131  -2.6795   2.7137  -0.6824  26.42   25.7
2006/12/27 01:48:00.000   35.311803076 -120.661090234   134.3265   3   8   3.4392   3.5508   4.7983  -2.6836   2.6975  -0.6541  26.45   25.6
2006/12/27 01:48:30.000   35.311803237 -120.661091205   134.1364   3   8   3.4472   3.5484   4.7837  -2.6873   2.6808  -0.6228  26.47   25.5
2006/12/27 01:49:00.000   35.311802491 -120.661088979   134.6709   3   8   3.4550   3.5454   4.7694  -2.6905   2.6639  -0.5882  26.49   25.4
2006/12/27 01:49:30.000   35.311804608 -120.661089500   133.9465   3   8   2.0579   3.0150   4.6129  -1.5988   2.6983  -1.2807  19.15   24.6
2006/12/27 01:50:00.000   35.311804752 -120.661091005   133.8740   3   8   2.0582   3.0117   4.5989  -1.5990   2.6888  -1.2847  19.14   24.5
2006/12/27 01:50:30.000   35.311804508 -120.661090845   134.1353   3   8   2.0584   3.0082   4.5851  -1.5990   2.6792  -1.2885  19.12   24.4
2006/12/27 01:51:00.000   35.311804744 -120.661091058   134.0623   3   8   2.0587   3.0045   4.5713  -1.5987   2.6694  -1.2919  19.10   24.4
2006/12/27 01:51:30.000   35.311804277 -120.661091011   134.1650   3   8   2.0589   3.0005   4.5576  -1.5983   2.6596  -1.2951  19.08   24.3
2006/12/27 01:52:00.000   35.311803473 -120.661089884   134.4031   3   8   2.0592   2.9963   4.5441  -1.5976   2.6497  -1.2980  19.06   24.2
2006/12/27 01:52:30.000   35.311803885 -120.661090319   134.4003   3   8   2.0595   2.9919   4.5307  -1.5967   2.6397  -1.3007  19.04   24.1
2006/12/27 01:53:00.000   35.311804263 -120.661090869   134.3976   3   8   2.0598   2.9873   4.5174  -1.5956   2.6296  -1.3032  19.01   24.1
2006/12/27 01:53:30.000   35.311802496 -120.661090103   134.6127   3   8   2.0601   2.9824   4.5042  -1.5943   2.6195  -1.3055  18.99   24.0
2006/12/27 01:54:00.000   35.311805113 -120.661092812   134.0072   3   8   2.0604   2.9774   4.4912  -1.5928   2.6093  -1.3076  18.96   23.9
2006/12/27 01:54:30.000   35.311803337 -120.661090772   134.3344   3   8   2.0607   2.9722   4.4783  -1.5911   2.5991  -1.3095  18.93   23.9
2006/12/27 01:55:00.000   35.311804791 -120.661091158   134.3170   3   8   2.0611   2.9669   4.4656  -1.5893   2.5888  -1.3112  18.90   23.8
2006/12/27 01:55:30.000   35.311803442 -120.661090319   134.4507   3   8   2.0614   2.9613   4.4530  -1.5872   2.5785  -1.3127  18.87   23.7
2006/12/27 01:56:00.000   35.311804744 -120.661089387   134.3402   3   8   2.0618   2.9556   4.4405  -1.5850   2.5682  -1.3141  18.84   23.7
2006/12/27 01:56:30.000   35.311804090 -120.661091322   134.1290   3   8   2.0621   2.9497   4.4282  -1.5826   2.5579  -1.3154  18.81   23.6
2006/12/27 01:57:00.000   35.311804668 -120.661088617   134.1343   3   8   2.0625   2.9437   4.4161  -1.5800   2.5476  -1.3165  18.77   23.5
2006/12/27 01:57:30.000   35.311804013 -120.661089102   134.3442   3   8   2.0629   2.9375   4.4041  -1.5772   2.5373  -1.3175  18.74   23.5
2006/12/27 01:58:00.000   35.311805743 -120.661089104   133.9954   3   8   2.0633   2.9311   4.3923  -1.5743   2.5270  -1.3183  18.70   23.4
2006/12/27 01:58:30.000   35.311804594 -120.661088140   134.1383   3   8   2.0637   2.9246   4.3806  -1.5712   2.5167  -1.3191  18.67   23.3
2006/12/27 01:59:00.000   35.311805916 -120.661088667   133.8536   3   8   1.8821   2.8721   4.3745  -1.4333   2.5378  -1.4568  18.02   23.3
2006/12/27 01:59:30.000   35.311804422 -120.661086587   134.1853   3   8   1.8816   2.8672   4.3644  -1.4307   2.5302  -1.4601  17.99   23.3
2006/12/27 02:00:00.000   35.311805515 -120.661088452   134.0696   3   8   1.8811   2.8609   4.3530  -1.4273   2.5207  -1.4626  17.95   23.2
2006/12/27 02:00:30.000   35.311804801 -120.661087130   133.8871   3   8   1.8805   2.8545   4.3418  -1.4239   2.5113  -1.4649  17.91   23.1
2006/12/27 02:01:00.000   35.311803924 -120.661086844   134.1454   3   8   1.8800   2.8480   4.3306  -1.4203   2.5019  -1.4672  17.87   23.1
2006/12/27 02:01:30.000   35.311803617 -120.661086477   133.9590   3   8   1.8795   2.8415   4.3196  -1.4166   2.4925  -1.4695  17.83   23.0
2006/12/27 02:02:00.000   35.311802760 -120.661087503   134.2214   3   8   1.8831   2.8357   4.3106  -1.4158   2.4815  -1.4661  17.80   23.0
2006/12/27 02:02:30.000   35.311803798 -120.661087168   133.8013   3   9   1.8985   2.8284   4.2880  -1.4297   2.4516  -1.4573  17.80   22.9
2006/12/27 02:03:00.000   35.311803741 -120.661087549   134.1706   3   9   1.9020   2.6297   4.0700  -1.3553   2.1326  -1.3295  16.69   21.7
2006/12/27 02:03:30.000   35.311803353 -120.661087084   133.5866   3   9   1.9137   2.4982   4.0280  -1.3280   2.0246  -1.2876  16.03   21.5
2006/12/27 02:04:00.000   35.311804835 -120.661089615   133.9284   3   9   1.9288   2.5077   4.0331  -1.3404   2.0234  -1.2757  16.11   21.5
2006/12/27 02:04:30.000   35.311804695 -120.661088841   133.8678   3   9   1.9428   2.5166   4.0377  -1.3516   2.0224  -1.2649  16.19   21.5
2006/12/27 02:05:00.000   35.311805435 -120.661088759   134.0030   3   9   1.9556   2.5251   4.0420  -1.3616   2.0218  -1.2551  16.27   21.5
2006/12/27 02:05:30.000   35.311805317 -120.661088691   133.8247   3   9   1.9675   2.5331   4.0459  -1.3705   2.0214  -1.2462  16.34   21.6
2006/12/27 02:06:00.000   35.311806179 -120.661086185   134.0848   3   9   1.9785   2.5407   4.0494  -1.3785   2.0213  -1.2381  16.40   21.6
2006/12/27 02:06:30.000   35.311804764 -120.661088460   133.9973   3   9   1.9886   2.5479   4.0525  -1.3855   2.0213  -1.2309  16.46   21.6
2006/12/27 02:07:00.000   35.311805206 -120.661087398   134.1110   3   9   1.9981   2.5546   4.0554  -1.3917   2.0215  -1.2244  16.51   21.6
2006/12/27 02:07:30.000   35.311805082 -120.661087179   134.1554   3   9   2.0068   2.5610   4.0579  -1.3972   2.0218  -1.2185  16.56   21.6
2006/12/27 02:08:00.000   35.311806743 -120.661089616   133.7210   3   8   2.2599   2.5724   5.0074  -1.4610   2.1388  -2.1147  17.10   26.7
2006/12/27 02:08:30.000   35.311806391 -120.661088661   133.4355   3   8   2.2673   2.5785   5.0148  -1.4667   2.1430  -2.1155  17.15   26.7
2006/12/27 02:09:00.000   35.311805832 -120.661090156   133.8595   3   8   2.2740   2.5841   5.0197  -1.4720   2.1464  -2.1180  17.20   26.8
2006/12/27 02:09:30.000   35.311805624 -120.661089570   133.4027   3   8   2.2809   2.5897   5.0284  -1.4762   2.1515  -2.1183  17.24   26.8
2006/12/27 02:10:00.000   35.311805401 -120.661091404   134.1689   3   8   2.2871   2.5949   5.0347  -1.4802   2.1558  -2.1201  17.28   26.8
2006/12/27 02:10:30.000   35.311804251 -120.661089612   133.8251   3   8   2.2926   2.5997   5.0381  -1.4840   2.1590  -2.1239  17.32   26.9
2006/12/27 02:11:00.000   35.311804368 -120.661091376   133.9669   3   8   2.2981   2.6044   5.0435  -1.4871   2.1632  -2.1265  17.36   26.9
2006/12/27 02:11:30.000   35.311805527 -120.661089908   133.7291   3   8   2.3034   2.6089   5.0485  -1.4897   2.1673  -2.1293  17.39   26.9
2006/12/27 02:12:00.000   35.311805066 -120.661090559   133.8251   3   8   2.3083   2.6132   5.0533  -1.4919   2.1714  -2.1323  17.42   26.9
2006/12/27 02:12:30.000   35.311804652 -120.661090326   133.9460   3   8   2.3115   2.6016   5.0319  -1.4836   2.1407  -2.1204  17.36   26.8
2006/12/27 02:13:00.000   35.311806472 -120.661091931   133.7041   3   8   2.3011   2.5275   4.9775  -1.4759   2.1047  -2.1652  17.06   26.5
2006/12/27 02:13:30.000   35.311804108 -120.661089920   134.1008   3   8   2.3010   2.6063   4.9574  -1.5037   2.1168  -2.1927  17.42   26.4
2006/12/27 02:14:00.000   35.311805269 -120.661091934   133.4433   3   8   2.3020   2.5347   4.9607  -1.4840   2.1063  -2.1960  17.11   26.4
2006/12/27 02:14:30.000   35.311803628 -120.661090387   133.7722   3   8   2.3050   2.5387   4.9649  -1.4855   2.1117  -2.2020  17.14   26.5
2006/12/27 02:15:00.000   35.311804713 -120.661087203   133.5728   3   8   2.3078   2.5425   4.9689  -1.4867   2.1169  -2.2080  17.16   26.5
2006/12/27 02:15:30.000   35.311804208 -120.661090708   133.5251   3   8   2.3104   2.5461   4.9727  -1.4876   2.1220  -2.2142  17.18   26.5
2006/12/27 02:16:00.000   35.311805391 -120.661090312   133.5783   3   8   2.3111   2.5485   4.9694  -1.4888   2.1229  -2.2241  17.19   26.5
2006/12/27 02:16:30.000   35.311804987 -120.661091345   133.5969   3   8   2.3130   2.5510   4.9708  -1.4888   2.1255  -2.2299  17.20   26.5
2006/12/27 02:17:00.000   35.311804003 -120.661091306   133.7796   3   8   2.3147   2.5533   4.9721  -1.4887   2.1281  -2.2358  17.21   26.5
2006/12/27 02:17:30.000   35.311805225 -120.661092616   133.4258   3   8   2.3176   2.5641   4.9895  -1.4939   2.1502  -2.2490  17.27   26.6
2006/12/27 02:18:00.000   35.311803952 -120.661090190   134.0250   3   8   2.3189   2.5657   4.9896  -1.4931   2.1514  -2.2547  17.27   26.6
2006/12/27 02:18:30.000   35.311804325 -120.661092331   133.9814   3   8   2.3199   2.5673   4.9896  -1.4921   2.1524  -2.2605  17.28   26.6
2006/12/27 02:19:00.000   35.311805493 -120.661089676   133.8494   3   8   2.3208   2.5688   4.9894  -1.4911   2.1535  -2.2665  17.28   26.6
2006/12/27 02:19:30.000   35.311802805 -120.661090863   134.2391   3   8   2.3215   2.5702   4.9892  -1.4899   2.1544  -2.2725  17.29   26.6
2006/12/27 02:20:00.000   35.311805107 -120.661089578   133.7567   3   8   2.3220   2.5716   4.9888  -1.4887   2.1552  -2.2786  17.29   26.6
2006/12/27 02:20:30.000   35.311803780 -120.661089220   134.1920   3   8   2.3222   2.5728   4.9884  -1.4874   2.1559  -2.2848  17.29   26.6
2006/12/27 02:21:00.000   35.311804150 -120.661089865   134.0581   3   8   2.3229   2.5742   4.9890  -1.4865   2.1559  -2.2899  17.29   26.6
2006/12/27 02:21:30.000   35.311805454 -120.661089203   133.6471   3   8   2.3227   2.5753   4.9883  -1.4850   2.1565  -2.2964  17.29   26.6
2006/12/27 02:22:00.000   35.311804255 -120.661090596   133.9140   3   8   2.3202   2.5761   4.9833  -1.4845   2.1555  -2.3074  17.29   26.6
2006/12/27 02:22:30.000   35.311803333 -120.661088513   134.0838   3   8   2.3193   2.5770   4.9820  -1.4830   2.1560  -2.3146  17.28   26.6
2006/12/27 02:23:00.000   35.311806707 -120.661091221   133.4092   3   8   2.2852   2.5779   4.8811  -1.4779   2.1498  -2.2364  17.21   26.0
2006/12/27 02:23:30.000   35.311805521 -120.661091873   134.1449   3   8   2.2833   2.5788   4.8782  -1.4763   2.1494  -2.2419  17.21   26.0
2006/12/27 02:24:00.000   35.311804802 -120.661091826   133.9392   3   8   2.2811   2.5796   4.8752  -1.4747   2.1489  -2.2475  17.20   26.0
2006/12/27 02:24:30.000   35.311805497 -120.661090982   134.0945   3   8   2.2787   2.5804   4.8723  -1.4731   2.1483  -2.2534  17.20   26.0
2006/12/27 02:25:00.000   35.311805465 -120.661091560   133.8285   3   8   2.2761   2.5819   4.8707  -1.4721   2.1492  -2.2599  17.20   26.0
2006/12/27 02:25:30.000   35.311805663 -120.661093603   134.1096   3   8   2.2731   2.5826   4.8678  -1.4706   2.1483  -2.2661  17.19   25.9
2006/12/27 02:26:00.000   35.311805472 -120.661093310   133.8847   3   8   2.2698   2.5833   4.8650  -1.4693   2.1474  -2.2725  17.18   25.9
2006/12/27 02:26:30.000   35.311806188 -120.661093040   133.6049   3   8   2.2661   2.5839   4.8622  -1.4681   2.1463  -2.2791  17.18   25.9
2006/12/27 02:27:00.000   35.311804698 -120.661092506   134.1009   3   8   2.2617   2.5815   4.8540  -1.4650   2.1384  -2.2836  17.15   25.9
2006/12/27 02:27:30.000   35.311805834 -120.661093932   133.8813   3   8   2.2450   2.5805   4.8378  -1.4718   2.1295  -2.3097  17.14   25.8
2006/12/27 02:28:00.000   35.311804944 -120.661093311   133.9731   3   8   2.2783   2.5813   4.9503  -1.4778   2.1383  -2.4127  17.21   26.4
2006/12/27 02:28:30.000   35.311804972 -120.661091973   133.9983   3   8   2.2723   2.5818   4.9488  -1.4783   2.1370  -2.4218  17.21   26.4
2006/12/27 02:29:00.000   35.311804014 -120.661091620   134.0898   3   8   2.2655   2.5823   4.9470  -1.4792   2.1355  -2.4313  17.20   26.4
2006/12/27 02:29:30.000   35.311806038 -120.661092555   133.9959   3   8   2.2580   2.5826   4.9452  -1.4804   2.1339  -2.4409  17.19   26.4
2006/12/27 02:30:00.000   35.311806729 -120.661091167   133.8147   3   8   2.2565   2.5838   4.9493  -1.4778   2.1361  -2.4421  17.19   26.4
2006/12/27 02:30:30.000   35.311806685 -120.661092160   133.9317   3   8   2.2557   2.5851   4.9539  -1.4747   2.1387  -2.4422  17.18   26.4
2006/12/27 02:31:00.000   35.311805569 -120.661089371   133.8280   3   8   2.2548   2.5864   4.9584  -1.4716   2.1413  -2.4420  17.18   26.4
2006/12/27 02:31:30.000   35.311806416 -120.661091162   133.6452   3   8   2.2539   2.5878   4.9627  -1.4685   2.1438  -2.4417  17.17   26.5
2006/12/27 02:32:00.000   35.311806163 -120.661089608   133.4980   3   8   2.2532   2.5905   4.9695  -1.4663   2.1496  -2.4424  17.17   26.5
2006/12/27 02:32:30.000   35.311805922 -120.661090236   133.9699   3   8   2.2522   2.5918   4.9732  -1.4629   2.1519  -2.4416  17.17   26.5
2006/12/27 02:33:00.000   35.311805950 -120.661091784   133.9068   3   8   2.2511   2.5931   4.9769  -1.4596   2.1542  -2.4407  17.16   26.5
2006/12/27 02:33:30.000   35.311803923 -120.661089326   134.0283   3   8   2.2500   2.5944   4.9804  -1.4562   2.1565  -2.4396  17.16   26.5
2006/12/27 02:34:00.000   35.311805486 -120.661091486   134.0493   3   8   2.2489   2.5962   4.9846  -1.4531   2.1599  -2.4388  17.15   26.6
2006/12/27 02:34:30.000   35.311804530 -120.661090390   134.1982   3   8   2.2477   2.5976   4.9878  -1.4496   2.1623  -2.4373  17.15   26.6
2006/12/27 02:35:00.000   35.311810379 -120.661091140   132.6541   3   7   6.8874   2.7607  17.6141  -2.8641   4.5234 -10.7724  42.03   93.9
2006/12/27 02:35:30.000   35.311807217 -120.661092671   133.3638   3   7   6.8510   2.7669  17.5605  -2.8726   4.5455 -10.7250  41.83   93.6
2006/12/27 02:36:00.000   35.311807270 -120.661090949   133.4327   3   7   6.8101   2.7730  17.4946  -2.8789   4.5642 -10.6700  41.60   93.2
2006/12/27 02:36:30.000   35.311807453 -120.661092649   133.1446   3   7   6.2703   2.6796  15.9672  -2.5388   3.9819  -9.7395  38.21   85.1
2006/12/27 02:37:00.000   35.311803455 -120.661087446   134.4632   3   9   2.0746   1.9838   4.0631   0.5175   0.5155  -1.8837  12.65   21.7
2006/12/27 02:37:30.000   35.311802454 -120.661088618   134.5162   3   9   2.0821   1.9810   4.0445   0.5279   0.5409  -1.8935  12.69   21.6
2006/12/27 02:38:00.000   35.311803901 -120.661088604   134.5903   3   9   2.0986   1.9796   4.0638   0.5263   0.5342  -1.8740  12.77   21.7
2006/12/27 02:38:30.000   35.311803292 -120.661089015   134.6931   3   9   2.1127   1.9777   4.0782   0.5265   0.5305  -1.8575  12.84   21.7
2006/12/27 02:39:00.000   35.311802865 -120.661089323   134.8021   3   9   2.1251   1.9758   4.0903   0.5277   0.5290  -1.8425  12.90   21.8
2006/12/27 02:39:30.000   35.311802992 -120.661088062   134.8422   3   9   2.1360   1.9737   4.1010   0.5295   0.5284  -1.8284  12.96   21.9
2006/12/27 02:40:00.000   35.311801855 -120.661088690   135.0261   3   9   2.1462   1.9977   4.1618   0.5470   0.6990  -1.8057  13.05   22.2
2006/12/27 02:40:30.000   35.311802604 -120.661087400   134.8194   3   9   2.1549   1.9958   4.1729   0.5514   0.7033  -1.7911  13.09   22.2
2006/12/27 02:41:00.000   35.311803529 -120.661089362   134.7837   3   9   2.1626   1.9940   4.1838   0.5559   0.7082  -1.7766  13.14   22.3
2006/12/27 02:41:30.000   35.311803336 -120.661088734   134.5129   3   9   2.1696   1.9942   4.1988   0.5621   0.7257  -1.7613  13.18   22.4
2006/12/27 02:42:00.000   35.311803814 -120.661089566   134.7339   3   9   2.1855   1.9926   4.2157   0.5680   0.7318  -1.7354  13.27   22.5
2006/12/27 02:42:30.000   35.311803758 -120.661088240   134.4625   3   9   2.1913   1.9909   4.2264   0.5732   0.7389  -1.7206  13.30   22.5
2006/12/27 02:43:00.000   35.311804773 -120.661088939   134.5860   3   9   2.1963   1.9892   4.2373   0.5785   0.7465  -1.7058  13.33   22.6
2006/12/27 02:43:30.000   35.311804463 -120.661088779   134.3590   3   9   2.2008   1.9876   4.2484   0.5837   0.7543  -1.6909  13.36   22.6
2006/12/27 02:44:00.000   35.311805698 -120.661089225   134.2240   3   9   2.2047   1.9860   4.2595   0.5889   0.7626  -1.6759  13.39   22.7
2006/12/27 02:44:30.000   35.311804660 -120.661088490   134.2482   3   9   2.2081   1.9845   4.2708   0.5940   0.7711  -1.6608  13.41   22.8
2006/12/27 02:45:00.000   35.311806913 -120.661088873   133.9623   3   9   2.2099   1.9706   4.2525   0.5857   0.7049  -1.6566  13.40   22.7
2006/12/27 02:45:30.000   35.311805129 -120.661090228   134.2460   3   9   2.2124   1.9692   4.2636   0.5903   0.7144  -1.6419  13.42   22.7
2006/12/27 02:46:00.000   35.311807765 -120.661091317   134.1658   3   9   2.2145   1.9678   4.2748   0.5949   0.7243  -1.6272  13.43   22.8
2006/12/27 02:46:30.000   35.311806878 -120.661090498   133.9101   3   9   2.2162   1.9665   4.2861   0.5994   0.7344  -1.6123  13.45   22.8
2006/12/27 02:47:00.000   35.311807374 -120.661091462   134.2938   3   9   2.2807   2.0120   4.5226   0.3338   1.0813  -1.8528  13.70   24.1
2006/12/27 02:47:30.000   35.311806789 -120.661091328   134.0023   3   9   2.2791   2.0103   4.5286   0.3494   1.0842  -1.8339  13.69   24.1
2006/12/27 02:48:00.000   35.311805527 -120.661091041   134.3402   3   9   2.2774   2.0086   4.5349   0.3642   1.0874  -1.8151  13.68   24.2
2006/12/27 02:48:30.000   35.311806701 -120.661090068   134.2138   3   9   2.2755   2.0070   4.5415   0.3783   1.0910  -1.7961  13.68   24.2
2006/12/27 02:49:00.000   35.311806308 -120.661090068   134.3588   3   9   2.2742   2.0200   4.5896   0.4094   1.1611  -1.7670  13.68   24.5
2006/12/27 02:49:30.000   35.311806823 -120.661090000   134.4084   3   9   2.2721   2.0185   4.5971   0.4224   1.1654  -1.7472  13.67   24.5
2006/12/27 02:50:00.000   35.311805862 -120.661090444   134.4175   3   9   2.2699   2.0170   4.6048   0.4349   1.1701  -1.7274  13.66   24.5
2006/12/27 02:50:30.000   35.311806729 -120.661090358   134.3416   3   9   2.2676   2.0155   4.6127   0.4468   1.1751  -1.7075  13.65   24.6
2006/12/27 02:51:00.000   35.311804550 -120.661089533   134.6491   3   9   2.2652   2.0141   4.6209   0.4583   1.1805  -1.6875  13.64   24.6
2006/12/27 02:51:30.000   35.311805215 -120.661088905   134.4023   3   8   2.2629   2.0228   4.6507   0.4779   1.2777  -1.6425  13.64   24.8
2006/12/27 02:52:00.000   35.311803795 -120.661089141   134.4041   3   8   2.2724   2.0219   4.6718   0.4979   1.2887  -1.5974  13.71   24.9
2006/12/27 02:52:30.000   35.311805450 -120.661089082   134.3569   3   8   2.2700   2.0207   4.6818   0.5089   1.2956  -1.5751  13.70   25.0
2006/12/27 02:53:00.000   35.311803024 -120.661089708   134.4220   3   8   2.2676   2.0196   4.6920   0.5194   1.3027  -1.5527  13.69   25.0
2006/12/27 02:53:30.000   35.311804572 -120.661089110   134.4135   3   8   2.2652   2.0185   4.7024   0.5296   1.3101  -1.5301  13.68   25.1
2006/12/27 02:54:00.000   35.311803164 -120.661091493   134.4246   3   8   2.2628   2.0175   4.7129   0.5395   1.3178  -1.5073  13.68   25.1
2006/12/27 02:54:30.000   35.311804759 -120.661090564   134.3018   3   8   2.2604   2.0165   4.7238   0.5490   1.3257  -1.4843  13.67   25.2
2006/12/27 02:55:00.000   35.311803656 -120.661093033   134.1469   3   8   2.2580   2.0156   4.7348   0.5583   1.3340  -1.4610  13.66   25.2
2006/12/27 02:55:30.000   35.311806304 -120.661091515   134.2050   3   8   2.2556   2.0147   4.7460   0.5673   1.3424  -1.4374  13.66   25.3
2006/12/27 02:56:00.000   35.311805643 -120.661094381   133.8238   3   8   2.2791   2.0473   4.8786   0.4537   1.4912  -1.5387  13.73   26.0
2006/12/27 02:56:30.000   35.311809018 -120.661093593   133.5412   3   7   2.9006   2.4600   6.0266  -0.6254   2.5208  -2.4038  17.47   32.1
2006/12/27 02:57:00.000   35.311807968 -120.661094885   133.4851   3   7   2.8888   2.4585   6.0230  -0.5935   2.5200  -2.3673  17.39   32.1
2006/12/27 02:57:30.000   35.311809536 -120.661095128   133.6884   3   7   2.8783   2.4574   6.0215  -0.5576   2.5205  -2.3282  17.31   32.1
2006/12/27 02:58:00.000   35.311808729 -120.661095140   133.4125   3   7   2.8666   2.4559   6.0186  -0.5233   2.5202  -2.2918  17.23   32.1
2006/12/27 02:58:30.000   35.311810096 -120.661094543   133.3898   3   7   2.8550   2.4546   6.0160  -0.4873   2.5200  -2.2554  17.16   32.1
2006/12/27 02:59:00.000   35.311808299 -120.661094796   133.4670   3   7   2.8436   2.4532   6.0137  -0.4493   2.5200  -2.2191  17.08   32.1
2006/12/27 02:59:30.000   35.311808381 -120.661091531   133.5438   3   7   2.8323   2.4519   6.0118  -0.4087   2.5202  -2.1827  17.01   32.0
2006/12/27 03:00:00.000   35.311807249 -120.661093371   133.5908   3   7   2.8212   2.4506   6.0101  -0.3646   2.5206  -2.1463  16.94   32.0
2006/12/27 03:00:30.000   35.311807966 -120.661092377   133.8145   3   7   2.7932   2.4160   5.9086   0.1575   2.4323  -2.0283  16.76   31.5
2006/12/27 03:01:00.000   35.311807774 -120.661093606   133.2467   3   7   3.0144   2.7971   6.3782   0.2439   2.4447  -2.2089  18.09   34.0
2006/12/27 03:01:30.000   35.311807820 -120.661094242   133.9177   3   7   3.0347   2.8055   6.4397   0.3900   2.4942  -2.1132  18.23   34.3
2006/12/27 03:02:00.000   35.311806083 -120.661093672   133.6099   3   7   3.0290   2.8068   6.4620   0.4032   2.5148  -2.0830  18.19   34.4
2006/12/27 03:02:30.000   35.311805660 -120.661093450   133.9262   3   7   2.9983   2.8012   6.4849   0.3065   2.5343  -2.0569  18.00   34.6
2006/12/27 03:03:00.000   35.311807483 -120.661093848   133.7735   3   7   2.9925   2.8031   6.5087   0.3196   2.5564  -2.0268  17.96   34.7
2006/12/27 03:03:30.000   35.311806249 -120.661093076   133.9174   3   7   2.9867   2.8053   6.5331   0.3314   2.5792  -1.9967  17.93   34.8
2006/12/27 03:04:00.000   35.311805439 -120.661094685   133.5933   3   7   2.9811   2.8080   6.5581   0.3420   2.6026  -1.9666  17.90   35.0
2006/12/27 03:04:30.000   35.311805336 -120.661095633   133.9230   3   7   2.9755   2.8110   6.5838   0.3516   2.6268  -1.9363  17.87   35.1
2006/12/27 03:05:00.000   35.311805712 -120.661095147   133.7422   3   7   2.9701   2.8144   6.6101   0.3603   2.6516  -1.9059  17.84   35.2
2006/12/27 03:05:30.000   35.311806814 -120.661094858   133.7778   3   7   2.9647   2.8182   6.6370   0.3683   2.6771  -1.8754  17.81   35.4
2006/12/27 03:06:00.000   35.311805594 -120.661093363   133.9273   3   7   3.6656   3.0765   6.9686   1.4861   3.0236  -1.0421  22.78   37.1
2006/12/27 03:06:30.000   35.311807053 -120.661092599   133.6828   3   7   3.6548   3.0815   6.9994   1.4746   3.0501  -1.0074  22.72   37.3
2006/12/27 03:07:00.000   35.311806506 -120.661092260   134.1249   3   7   3.6443   3.0869   7.0306   1.4630   3.0770  -0.9720  22.65   37.5
2006/12/27 03:07:30.000   35.311805682 -120.661093090   133.6488   3   7   3.6339   3.0927   7.0620   1.4513   3.1043  -0.9356  22.59   37.6
2006/12/27 03:08:00.000   35.311806451 -120.661091577   134.2553   3   7   3.6238   3.0987   7.0938   1.4396   3.1320  -0.8983  22.52   37.8
2006/12/27 03:08:30.000   35.311805820 -120.661093229   133.9625   3   7   3.6138   3.1052   7.1259   1.4279   3.1601  -0.8598  22.46   38.0
2006/12/27 03:09:00.000   35.311806202 -120.661092531   133.8367   3   6   3.6997   3.2246  11.5860   1.6467   1.5710  -2.8783  23.40   61.8
2006/12/27 03:09:30.000   35.311806177 -120.661093505   134.0723   3   6   3.6891   3.2254  11.6061   1.6291   1.6936  -2.8573  23.32   61.9
2006/12/27 03:10:00.000   35.311806443 -120.661094096   134.0701   3   6   3.6891   3.2626  11.8729   1.5693   2.1071  -2.9517  23.24   63.3
2006/12/27 03:10:30.000   35.311806359 -120.661092971   133.8145   3   6   3.6785   3.2651  11.8904   1.5512   2.2054  -2.9294  23.16   63.4
2006/12/27 03:11:00.000   35.311805818 -120.661098165   134.1609   3   6   3.1310   3.0187  10.8673   0.9048   2.0842  -3.2838  19.30   57.9
2006/12/27 03:11:30.000   35.311805727 -120.661094771   133.5172   3   6   3.1234   3.0213  10.8846   0.8881   2.1832  -3.2552  19.25   58.0
2006/12/27 03:12:00.000   35.311807741 -120.661094391   133.3388   3   6   3.1160   3.0244  10.9015   0.8716   2.2788  -3.2267  19.20   58.1
2006/12/27 03:12:30.000   35.311807222 -120.661094494   133.3106   3   6   3.1088   3.0282  10.9179   0.8552   2.3714  -3.1983  19.15   58.2
2006/12/27 03:13:00.000   35.311809201 -120.661094713   133.7830   3   6   3.1018   3.0327  10.9338   0.8390   2.4613  -3.1699  19.11   58.3
2006/12/27 03:13:30.000   35.311808356 -120.661096505   133.4625   3   6   3.0950   3.0377  10.9491   0.8229   2.5487  -3.1417  19.07   58.4
2006/12/27 03:14:00.000   35.311809967 -120.661096147   133.9468   3   6   3.0912   3.0469  11.0791   0.8192   2.6782  -3.0794  19.07   59.1
2006/12/27 03:14:30.000   35.311808772 -120.661094293   133.7842   3   6   3.0872   3.0567  11.1919   0.8148   2.7993  -3.0214  19.08   59.7
2006/12/27 03:15:00.000   35.311807268 -120.661094961   134.0224   3   6   3.0829   3.0669  11.2854   0.8095   2.9113  -2.9686  19.08   60.2
2006/12/27 03:15:30.000   35.311806776 -120.661095652   134.1307   3   6   3.0785   3.0776  11.3640   0.8035   3.0162  -2.9199  19.09   60.6
2006/12/27 03:16:00.000   35.311807199 -120.661093201   134.2236   3   6   3.0254   3.0652  11.4246   0.7203   3.1382  -2.8585  18.79   60.9
2006/12/27 03:16:30.000   35.311807324 -120.661092273   133.8517   3   6   3.0210   3.0771  11.4828   0.7147   3.2328  -2.8158  18.82   61.2
2006/12/27 03:17:00.000   35.311806831 -120.661094375   134.5630   3   6   3.0167   3.0896  11.5319   0.7088   3.3229  -2.7756  18.85   61.5
2006/12/27 03:17:30.000   35.311807580 -120.661093111   133.7869   3   6   3.0124   3.1026  11.5744   0.7029   3.4095  -2.7371  18.89   61.7
2006/12/27 03:18:00.000   35.311806989 -120.661093225   133.9841   3   6   3.0082   3.1162  11.6113   0.6970   3.4930  -2.7001  18.94   61.9
2006/12/27 03:18:30.000   35.311808264 -120.661095141   133.6897   3   6   3.0018   3.1180  11.5904   0.7146   3.5304  -2.6396  18.96   61.8
2006/12/27 03:19:00.000   35.311806294 -120.661094967   133.6882   3   6   2.9979   3.1323  11.6176   0.7091   3.6085  -2.6051  19.02   61.9
2006/12/27 03:19:30.000   35.311808165 -120.661095220   133.4274   3   6   2.9941   3.1472  11.6409   0.7038   3.6842  -2.5717  19.09   62.0
2006/12/27 03:20:00.000   35.311806459 -120.661096619   133.6977   3   6   2.9905   3.1627  11.6607   0.6986   3.7577  -2.5394  19.16   62.2
2006/12/27 03:20:30.000   35.311808342 -120.661097230   134.0059   3   6   3.0291   3.1885  11.5196   0.7292   3.7387  -2.5830  19.35   61.4
2006/12/27 03:21:00.000   35.311807078 -120.661095736   133.3733   3   6   3.0254   3.2039  11.5319   0.7215   3.8068  -2.5540  19.42   61.5
2006/12/27 03:21:30.000   35.311807288 -120.661096349   133.3817   3   6   3.0218   3.2198  11.5416   0.7140   3.8732  -2.5258  19.49   61.5
2006/12/27 03:22:00.000   35.311808032 -120.661097366   133.7184   3   7   3.0112   3.1772  11.1612   0.6092   3.6988  -2.6191  19.18   59.5
2006/12/27 03:22:30.000   35.311808094 -120.661096147   133.0873   3   7   3.0075   3.1904  11.1547   0.5944   3.7541  -2.5987  19.24   59.5
2006/12/27 03:23:00.000   35.311807782 -120.661096068   133.8106   3   6   3.0120   3.2701  11.5570   0.6917   4.0617  -2.4463  19.74   61.6
2006/12/27 03:23:30.000   35.311807629 -120.661095022   133.3285   3   7   3.0006   3.2177  11.1359   0.5636   3.8598  -2.5604  19.37   59.4
2006/12/27 03:24:00.000   35.311808094 -120.661094761   133.9346   3   7   2.9974   3.2318  11.1237   0.5474   3.9102  -2.5426  19.45   59.3
2006/12/27 03:24:30.000   35.311807304 -120.661094013   133.7620   3   7   2.9900   3.2137  11.0057   0.5962   3.8705  -2.4767  19.36   58.7
2006/12/27 03:25:00.000   35.311808311 -120.661096284   133.9104   3   7   2.9930   3.2736  11.2461   0.6586   4.0806  -2.3726  19.73   59.9
2006/12/27 03:25:30.000   35.311807120 -120.661093489   133.7841   3   7   2.9907   3.2916  11.2399   0.6460   4.1350  -2.3563  19.83   59.9
2006/12/27 03:26:00.000   35.311807181 -120.661094421   134.0833   3   7   2.9885   3.3099  11.2320   0.6331   4.1878  -2.3409  19.93   59.9
2006/12/27 03:26:30.000   35.311807394 -120.661094020   134.1921   3   7   2.9864   3.3285  11.2224   0.6197   4.2391  -2.3265  20.03   59.8
2006/12/27 03:27:00.000   35.311807001 -120.661094680   134.4849   3   7   2.9844   3.3474  11.2111   0.6059   4.2889  -2.3130  20.14   59.8
2006/12/27 03:27:30.000   35.311808996 -120.661094708   134.2055   3   7   2.9826   3.3664  11.1986   0.5916   4.3373  -2.3003  20.24   59.7
2006/12/27 03:28:00.000   35.311806017 -120.661094143   134.6410   3   7   2.9809   3.3856  11.1842   0.5767   4.3842  -2.2888  20.35   59.6
2006/12/27 03:28:30.000   35.311807735 -120.661092821   134.2608   3   7   2.9794   3.4050  11.1682   0.5611   4.4295  -2.2782  20.46   59.5
2006/12/27 03:29:00.000   35.311806291 -120.661093277   134.3876   3   7   2.9779   3.4245  11.1507   0.5446   4.4735  -2.2686  20.57   59.4
2006/12/27 03:29:30.000   35.311807809 -120.661092422   134.0732   3   7   2.9785   3.4682  11.1981   0.4840   4.5706  -2.2887  20.82   59.7
2006/12/27 03:30:00.000   35.311805628 -120.661093491   134.5078   3   7   2.9696   3.4159  10.8610   0.2646   4.4049  -2.3979  20.50   57.9
2006/12/27 03:30:30.000   35.311807216 -120.661093673   134.3754   3   7   2.9682   3.4324  10.8340   0.2229   4.4392  -2.3905  20.59   57.7
2006/12/27 03:31:00.000   35.311804292 -120.661092600   134.6952   3   7   2.9670   3.4489  10.8060   0.1702   4.4724  -2.3840  20.69   57.6
2006/12/27 03:31:30.000   35.311807180 -120.661092871   134.7005   3   7   2.9659   3.4656  10.7773   0.0886   4.5046  -2.3783  20.79   57.4
2006/12/27 03:32:00.000   35.311805060 -120.661092078   135.1548   3   7   2.9650   3.4823  10.7479  -0.1169   4.5358  -2.3734  20.89   57.3
2006/12/27 03:32:30.000   35.311807234 -120.661092007   134.8573   3   7   2.9642   3.4990  10.7177  -0.1888   4.5661  -2.3693  20.99   57.1
2006/12/27 03:33:00.000   35.311805866 -120.661089651   134.5091   3   7   2.9635   3.5159  10.6869  -0.2410   4.5954  -2.3659  21.10   57.0
2006/12/27 03:33:30.000   35.311806804 -120.661093154   134.8132   3   6   2.9698   3.5753  10.9727   0.1728   4.7769  -2.2488  21.45   58.5
2006/12/27 03:34:00.000   35.311808406 -120.661090299   134.0990   3   6   2.9704   3.6040  10.9797   0.1728   4.8323  -2.2310  21.62   58.5
2006/12/27 03:34:30.000   35.311807346 -120.661091786   134.2633   3   6   2.9700   3.6210  10.9414   0.0701   4.8567  -2.2327  21.73   58.3
