% program   : rnx2rtkp ver.2.4.2
% inp file  : ../../../test/data/rinex/07590920.05o
% inp file  : ../../../test/data/rinex/30400920.05n
% inp file  : ../../../test/data/rinex/30400920.05o
% obs start : 2005/04/02 00:00:00.0 GPST (week1316 518400.0s)
% obs end   : 2005/04/02 00:59:30.0 GPST (week1316 521970.0s)
% ref pos   : -3978241.9580   3382840.2340   3649900.8530
%
% (x/y/z-ecef=WGS84,Q=1:fix,2:float,3:sbas,4:dgps,5:single,6:ppp,ns=# of satellites)
%  GPST                      x-ecef(m)      y-ecef(m)      z-ecef(m)   Q  ns   sdx(m)   sdy(m)   sdz(m)  sdxy(m)  sdyz(m)  sdzx(m) age(s)  ratio
2005/04/02 00:00:00.000  -3976219.1840   3382371.6041   3652511.1389   1   7   0.0091   0.0100   0.0074  -0.0086   0.0068  -0.0064   0.00   24.9
2005/04/02 00:00:30.000  -3976219.1819   3382371.5988   3652511.1344   1   7   0.0091   0.0100   0.0075  -0.0086   0.0067  -0.0064   0.00   41.6
2005/04/02 00:01:00.000  -3976219.1832   3382371.6004   3652511.1341   1   7   0.0091   0.0099   0.0075  -0.0086   0.0068  -0.0064   0.00   41.3
2005/04/02 00:01:30.000  -3976219.1893   3382371.6079   3652511.1394   1   7   0.0091   0.0099   0.0074  -0.0086   0.0068  -0.0064   0.00   53.6
2005/04/02 00:02:00.000  -3976219.1883   3382371.6009   3652511.1418   1   7   0.0090   0.0098   0.0074  -0.0086   0.0068  -0.0064   0.00   65.1
2005/04/02 00:02:30.000  -3976219.1863   3382371.6011   3652511.1397   1   7   0.0091   0.0099   0.0075  -0.0085   0.0067  -0.0065   0.00   68.8
2005/04/02 00:03:00.000  -3976219.1943   3382371.6103   3652511.1451   1   7   0.0091   0.0100   0.0075  -0.0084   0.0067  -0.0064   0.00   78.7
2005/04/02 00:03:30.000  -3976219.1966   3382371.6147   3652511.1460   1   7   0.0090   0.0098   0.0076  -0.0085   0.0068  -0.0064   0.00   70.9
2005/04/02 00:04:00.000  -3976219.1932   3382371.6129   3652511.1481   1   7   0.0090   0.0098   0.0074  -0.0085   0.0068  -0.0064   0.00   69.2
2005/04/02 00:04:30.000  -3976219.1873   3382371.5984   3652511.1399   1   7   0.0090   0.0098   0.0075  -0.0084   0.0067  -0.0064   0.00   66.4
2005/04/02 00:05:00.000  -3976219.1866   3382371.6034   3652511.1461   1   7   0.0089   0.0097   0.0077  -0.0084   0.0067  -0.0063   0.00  451.1
2005/04/02 00:05:30.000  -3976219.1875   3382371.6087   3652511.1507   1   7   0.0088   0.0098   0.0075  -0.0084   0.0066  -0.0064   0.00  710.2
2005/04/02 00:06:00.000  -3976219.1823   3382371.6025   3652511.1460   1   7   0.0089   0.0097   0.0075  -0.0083   0.0068  -0.0065   0.00  899.4
2005/04/02 00:06:30.000  -3976219.1842   3382371.6039   3652511.1448   1   7   0.0090   0.0097   0.0075  -0.0083   0.0065  -0.0064   0.00  999.9
2005/04/02 00:07:00.000  -3976219.1873   3382371.6105   3652511.1450   1   7   0.0089   0.0097   0.0075  -0.0083   0.0064  -0.0063   0.00  999.9
2005/04/02 00:07:30.000  -3976219.1883   3382371.6116   3652511.1462   1   7   0.0089   0.0096   0.0074  -0.0083   0.0066  -0.0064   0.00  999.9
2005/04/02 00:08:00.000  -3976219.1864   3382371.6064   3652511.1440   1   7   0.0088   0.0095   0.0076  -0.0084   0.0065  -0.0063   0.00  999.9
2005/04/02 00:08:30.000  -3976219.1846   3382371.6089   3652511.1412   1   7   0.0088   0.0097   0.0077  -0.0081   0.0065  -0.0065   0.00  999.9
2005/04/02 00:09:00.000  -3976219.1888   3382371.6077   3652511.1400   1   7   0.0089   0.0096   0.0078  -0.0081   0.0065  -0.0064   0.00  999.9
2005/04/02 00:09:30.000  -3976219.1752   3382371.5876   3652511.1293   1   7   0.0088   0.0095   0.0076  -0.0081   0.0066  -0.0064   0.00  999.9
2005/04/02 00:10:00.000  -3976219.1861   3382371.6017   3652511.1406   1   7   0.0088   0.0096   0.0079  -0.0080   0.0066  -0.0064   0.00  999.9
2005/04/02 00:10:30.000  -3976219.1835   3382371.6035   3652511.1390   1   7   0.0087   0.0094   0.0076  -0.0081   0.0066  -0.0063   0.00  999.9
2005/04/02 00:11:00.000  -3976219.1835   3382371.6003   3652511.1395   1   7   0.0085   0.0094   0.0078  -0.0082   0.0065  -0.0065   0.00  999.9
2005/04/02 00:11:30.000  -3976219.1809   3382371.5949   3652511.1395   1   7   0.0086   0.0094   0.0079  -0.0082   0.0064  -0.0063   0.00  999.9
2005/04/02 00:12:00.000  -3976219.1898   3382371.6050   3652511.1456   1   7   0.0087   0.0094   0.0079  -0.0081   0.0062  -0.0064   0.00  999.9
2005/04/02 00:12:30.000  -3976219.1836   3382371.5970   3652511.1415   1   7   0.0089   0.0094   0.0076  -0.0079   0.0065  -0.0064   0.00  999.9
2005/04/02 00:13:00.000  -3976219.1877   3382371.6033   3652511.1471   1   7   0.0086   0.0093   0.0079  -0.0080   0.0064  -0.0064   0.00  999.9
2005/04/02 00:13:30.000  -3976219.1836   3382371.6045   3652511.1452   1   7   0.0087   0.0093   0.0079  -0.0079   0.0064  -0.0065   0.00  999.9
2005/04/02 00:14:00.000  -3976219.1914   3382371.6116   3652511.1499   1   7   0.0086   0.0092   0.0078  -0.0080   0.0064  -0.0063   0.00  999.9
2005/04/02 00:14:30.000  -3976219.1861   3382371.6029   3652511.1460   1   7   0.0087   0.0092   0.0080  -0.0079   0.0064  -0.0064   0.00  999.9
2005/04/02 00:15:00.000  -3976219.1913   3382371.6054   3652511.1443   1   7   0.0087   0.0092   0.0078  -0.0079   0.0064  -0.0065   0.00  999.9
2005/04/02 00:15:30.000  -3976219.1881   3382371.6051   3652511.1433   1   7   0.0084   0.0090   0.0078  -0.0079   0.0065  -0.0064   0.00  999.9
2005/04/02 00:16:00.000  -3976219.1864   3382371.6006   3652511.1408   1   7   0.0085   0.0091   0.0079  -0.0078   0.0065  -0.0064   0.00  999.9
2005/04/02 00:16:30.000  -3976219.1899   3382371.6049   3652511.1437   1   7   0.0085   0.0089   0.0080  -0.0079   0.0064  -0.0064   0.00  999.9
2005/04/02 00:17:00.000  -3976219.1906   3382371.6061   3652511.1456   1   7   0.0085   0.0091   0.0082  -0.0078   0.0063  -0.0064   0.00  999.9
2005/04/02 00:17:30.000  -3976219.1920   3382371.6069   3652511.1421   1   7   0.0085   0.0090   0.0078  -0.0078   0.0064  -0.0062   0.00  999.9
2005/04/02 00:18:00.000  -3976219.1921   3382371.6044   3652511.1454   1   6   0.0093   0.0092   0.0093  -0.0082   0.0069  -0.0075   0.00  999.9
2005/04/02 00:18:30.000  -3976219.1859   3382371.5996   3652511.1390   1   6   0.0093   0.0092   0.0093  -0.0082   0.0070  -0.0076   0.00  999.9
2005/04/02 00:19:00.000  -3976219.1956   3382371.6064   3652511.1449   1   6   0.0094   0.0091   0.0095  -0.0083   0.0069  -0.0074   0.00  999.9
2005/04/02 00:19:30.000  -3976219.1908   3382371.6046   3652511.1394   1   6   0.0094   0.0091   0.0095  -0.0081   0.0070  -0.0074   0.00  999.9
2005/04/02 00:20:00.000  -3976219.1933   3382371.6084   3652511.1434   1   6   0.0093   0.0092   0.0094  -0.0080   0.0069  -0.0077   0.00  999.9
2005/04/02 00:20:30.000  -3976219.1872   3382371.6037   3652511.1396   1   6   0.0091   0.0091   0.0095  -0.0081   0.0069  -0.0075   0.00  999.9
2005/04/02 00:20:59.999  -3976219.1878   3382371.6008   3652511.1427   1   6   0.0092   0.0090   0.0096  -0.0081   0.0069  -0.0076   0.00  999.9
2005/04/02 00:21:30.000  -3976219.1850   3382371.6036   3652511.1437   1   6   0.0092   0.0091   0.0097  -0.0080   0.0069  -0.0076   0.00  999.9
2005/04/02 00:22:00.000  -3976219.1932   3382371.6118   3652511.1478   1   6   0.0093   0.0091   0.0097  -0.0080   0.0070  -0.0076   0.00  999.9
2005/04/02 00:22:30.000  -3976219.1869   3382371.6074   3652511.1406   1   6   0.0091   0.0089   0.0097  -0.0080   0.0070  -0.0077   0.00  999.9
2005/04/02 00:23:00.000  -3976219.1880   3382371.6058   3652511.1421   1   6   0.0091   0.0089   0.0096  -0.0080   0.0071  -0.0077   0.00  999.9
2005/04/02 00:23:30.000  -3976219.1906   3382371.6090   3652511.1440   1   6   0.0091   0.0089   0.0097  -0.0081   0.0070  -0.0076   0.00  999.9
2005/04/02 00:24:00.000  -3976219.1828   3382371.5951   3652511.1384   1   6   0.0090   0.0087   0.0099  -0.0081   0.0071  -0.0077   0.00  999.9
2005/04/02 00:24:30.000  -3976219.1903   3382371.6025   3652511.1447   1   6   0.0093   0.0090   0.0098  -0.0077   0.0069  -0.0078   0.00  999.9
2005/04/02 00:25:00.000  -3976219.1911   3382371.6071   3652511.1440   1   6   0.0091   0.0087   0.0099  -0.0080   0.0072  -0.0077   0.00  999.9
2005/04/02 00:25:30.000  -3976219.1924   3382371.6074   3652511.1440   1   6   0.0090   0.0088   0.0100  -0.0080   0.0070  -0.0078   0.00  999.9
2005/04/02 00:26:00.000  -3976219.1896   3382371.6019   3652511.1411   1   6   0.0092   0.0087   0.0101  -0.0080   0.0070  -0.0076   0.00  999.9
2005/04/02 00:26:30.000  -3976219.1938   3382371.6016   3652511.1417   1   6   0.0091   0.0087   0.0100  -0.0079   0.0070  -0.0077   0.00  999.9
2005/04/02 00:27:00.000  -3976219.1929   3382371.6050   3652511.1439   1   6   0.0091   0.0089   0.0101  -0.0078   0.0069  -0.0077   0.00  999.9
2005/04/02 00:27:30.000  -3976219.1976   3382371.6099   3652511.1469   1   6   0.0090   0.0088   0.0102  -0.0078   0.0069  -0.0079   0.00  999.9
2005/04/02 00:28:00.000  -3976219.1906   3382371.6062   3652511.1436   1   6   0.0093   0.0090   0.0103  -0.0077   0.0066  -0.0078   0.00  999.9
2005/04/02 00:28:30.000  -3976219.1898   3382371.6079   3652511.1421   1   6   0.0090   0.0087   0.0102  -0.0078   0.0069  -0.0079   0.00  999.9
2005/04/02 00:29:00.000  -3976219.1871   3382371.6040   3652511.1398   1   6   0.0090   0.0086   0.0103  -0.0079   0.0070  -0.0079   0.00  999.9
2005/04/02 00:29:30.000  -3976219.1904   3382371.6066   3652511.1409   1   6   0.0091   0.0086   0.0103  -0.0078   0.0071  -0.0080   0.00  999.9
2005/04/02 00:30:00.000  -3976219.1910   3382371.6032   3652511.1445   1   6   0.0091   0.0085   0.0105  -0.0079   0.0070  -0.0079   0.00  999.9
2005/04/02 00:30:30.000  -3976219.1875   3382371.6021   3652511.1375   1   6   0.0088   0.0086   0.0105  -0.0078   0.0070  -0.0080   0.00  999.9
2005/04/02 00:31:00.000  -3976219.1945   3382371.6055   3652511.1415   1   6   0.0092   0.0086   0.0107  -0.0078   0.0069  -0.0078   0.00  999.9
2005/04/02 00:31:30.000  -3976219.1873   3382371.6032   3652511.1377   1   6   0.0090   0.0085   0.0107  -0.0076   0.0072  -0.0079   0.00  999.9
2005/04/02 00:32:00.000  -3976219.1809   3382371.5910   3652511.1365   1   6   0.0090   0.0084   0.0106  -0.0076   0.0073  -0.0080   0.00  999.9
2005/04/02 00:32:30.000  -3976219.1880   3382371.6026   3652511.1421   1   6   0.0092   0.0086   0.0109  -0.0077   0.0070  -0.0080   0.00  999.9
2005/04/02 00:33:00.000  -3976219.1930   3382371.6073   3652511.1412   1   6   0.0089   0.0085   0.0108  -0.0078   0.0070  -0.0081   0.00  999.9
2005/04/02 00:33:30.000  -3976219.1924   3382371.6029   3652511.1475   1   6   0.0088   0.0084   0.0108  -0.0077   0.0072  -0.0082   0.00  999.9
2005/04/02 00:34:00.000  -3976219.1921   3382371.6100   3652511.1519   1   6   0.0089   0.0085   0.0111  -0.0077   0.0070  -0.0080   0.00  999.9
2005/04/02 00:34:30.000  -3976219.1856   3382371.6015   3652511.1451   1   6   0.0091   0.0083   0.0111  -0.0078   0.0070  -0.0080   0.00  999.9
2005/04/02 00:35:00.000  -3976219.1909   3382371.6046   3652511.1486   1   6   0.0092   0.0085   0.0112  -0.0075   0.0072  -0.0080   0.00  999.9
2005/04/02 00:35:30.000  -3976219.1804   3382371.5971   3652511.1354   1   6   0.0092   0.0084   0.0112  -0.0076   0.0072  -0.0081   0.00  999.9
2005/04/02 00:36:00.000  -3976219.1931   3382371.6024   3652511.1500   1   6   0.0090   0.0085   0.0113  -0.0077   0.0070  -0.0082   0.00  999.9
2005/04/02 00:36:30.000  -3976219.1839   3382371.5967   3652511.1379   1   6   0.0094   0.0085   0.0114  -0.0077   0.0071  -0.0081   0.01  999.9
2005/04/02 00:37:00.000  -3976219.1889   3382371.6047   3652511.1443   1   6   0.0090   0.0084   0.0114  -0.0076   0.0072  -0.0083   0.01  999.9
2005/04/02 00:37:30.000  -3976219.1867   3382371.6031   3652511.1382   1   6   0.0090   0.0083   0.0114  -0.0076   0.0073  -0.0083   0.01  999.9
2005/04/02 00:38:00.000  -3976219.1879   3382371.6021   3652511.1381   1   6   0.0093   0.0085   0.0117  -0.0076   0.0072  -0.0082   0.01  999.9
2005/04/02 00:38:30.000  -3976219.1901   3382371.6022   3652511.1385   1   6   0.0088   0.0083   0.0116  -0.0077   0.0073  -0.0085   0.01  999.9
2005/04/02 00:39:00.000  -3976219.1870   3382371.6055   3652511.1366   1   6   0.0089   0.0083   0.0118  -0.0077   0.0072  -0.0084   0.01  999.9
2005/04/02 00:39:30.000  -3976219.1873   3382371.6055   3652511.1353   1   6   0.0090   0.0084   0.0118  -0.0075   0.0073  -0.0085   0.01  999.9
2005/04/02 00:40:00.000  -3976219.1847   3382371.6031   3652511.1414   1   6   0.0093   0.0082   0.0119  -0.0076   0.0073  -0.0083   0.01  999.9
2005/04/02 00:40:30.000  -3976219.1905   3382371.6028   3652511.1455   1   6   0.0089   0.0083   0.0120  -0.0077   0.0072  -0.0085   0.01  999.9
2005/04/02 00:41:00.000  -3976219.1852   3382371.5998   3652511.1340   1   6   0.0093   0.0083   0.0121  -0.0076   0.0073  -0.0085   0.01  999.9
2005/04/02 00:41:30.000  -3976219.1844   3382371.6010   3652511.1369   1   6   0.0092   0.0083   0.0122  -0.0076   0.0074  -0.0086   0.01  999.9
2005/04/02 00:42:00.000  -3976219.1921   3382371.6093   3652511.1384   1   6   0.0093   0.0082   0.0122  -0.0077   0.0074  -0.0086   0.01  999.9
2005/04/02 00:42:30.000  -3976219.1900   3382371.6051   3652511.1339   1   6   0.0092   0.0082   0.0124  -0.0076   0.0074  -0.0086   0.01  999.9
2005/04/02 00:43:00.000  -3976219.1870   3382371.6063   3652511.1321   1   6   0.0093   0.0083   0.0125  -0.0077   0.0074  -0.0086   0.01  999.9
2005/04/02 00:43:30.000  -3976219.1859   3382371.6076   3652511.1281   1   6   0.0095   0.0083   0.0126  -0.0076   0.0074  -0.0086   0.01  999.9
2005/04/02 00:44:00.000  -3976219.1880   3382371.6042   3652511.1340   1   6   0.0094   0.0082   0.0126  -0.0077   0.0075  -0.0088   0.01  999.9
2005/04/02 00:44:30.000  -3976219.1909   3382371.6103   3652511.1444   1   6   0.0092   0.0083   0.0127  -0.0076   0.0076  -0.0088   0.01  999.9
2005/04/02 00:45:00.000  -3976219.1886   3382371.6028   3652511.1406   1   6   0.0091   0.0082   0.0128  -0.0076   0.0076  -0.0089   0.01  999.9
2005/04/02 00:45:30.000  -3976219.1799   3382371.5990   3652511.1346   1   6   0.0091   0.0082   0.0129  -0.0078   0.0076  -0.0089   0.01  999.9
2005/04/02 00:46:00.000  -3976219.1803   3382371.5998   3652511.1386   1   6   0.0090   0.0082   0.0130  -0.0076   0.0077  -0.0091   0.01  999.9
2005/04/02 00:46:30.000  -3976219.1776   3382371.5953   3652511.1363   1   6   0.0092   0.0082   0.0131  -0.0075   0.0078  -0.0091   0.01  999.9
2005/04/02 00:47:00.000  -3976219.1738   3382371.5985   3652511.1343   1   6   0.0091   0.0083   0.0132  -0.0077   0.0078  -0.0091   0.01  999.9
2005/04/02 00:47:30.000  -3976219.1814   3382371.6056   3652511.1406   1   6   0.0091   0.0083   0.0133  -0.0077   0.0078  -0.0092   0.01  999.9
2005/04/02 00:48:00.000  -3976219.1830   3382371.6093   3652511.1404   1   6   0.0093   0.0083   0.0134  -0.0078   0.0078  -0.0091   0.01  999.9
2005/04/02 00:48:30.000  -3976219.1775   3382371.6035   3652511.1307   1   6   0.0095   0.0083   0.0136  -0.0078   0.0078  -0.0091   0.01  999.9
2005/04/02 00:49:00.000  -3976219.1851   3382371.6039   3652511.1449   1   6   0.0097   0.0083   0.0136  -0.0077   0.0079  -0.0091   0.01  999.9
2005/04/02 00:49:30.000  -3976219.1807   3382371.6050   3652511.1362   1   6   0.0095   0.0083   0.0137  -0.0077   0.0079  -0.0094   0.01  999.9
2005/04/02 00:50:00.000  -3976219.1809   3382371.6034   3652511.1377   1   6   0.0091   0.0082   0.0138  -0.0078   0.0080  -0.0094   0.01  999.9
2005/04/02 00:50:30.000  -3976219.1798   3382371.6033   3652511.1336   1   6   0.0095   0.0083   0.0139  -0.0078   0.0080  -0.0095   0.01  999.9
2005/04/02 00:51:00.000  -3976219.1851   3382371.6065   3652511.1401   1   6   0.0095   0.0083   0.0140  -0.0079   0.0080  -0.0095   0.01  999.9
2005/04/02 00:51:30.000  -3976219.1863   3382371.6050   3652511.1298   1   6   0.0096   0.0083   0.0141  -0.0077   0.0081  -0.0096   0.01  999.9
2005/04/02 00:52:00.000  -3976219.1868   3382371.6017   3652511.1302   1   6   0.0095   0.0083   0.0142  -0.0078   0.0082  -0.0097   0.01  999.9
2005/04/02 00:52:30.000  -3976219.1809   3382371.5996   3652511.1204   1   6   0.0094   0.0083   0.0143  -0.0078   0.0083  -0.0098   0.01  999.9
2005/04/02 00:53:00.000  -3976219.1840   3382371.5993   3652511.1286   1   6   0.0096   0.0083   0.0144  -0.0079   0.0083  -0.0097   0.01  999.9
2005/04/02 00:53:30.000  -3976219.1831   3382371.6012   3652511.1336   1   6   0.0096   0.0083   0.0145  -0.0079   0.0083  -0.0097   0.01  999.9
2005/04/02 00:54:00.000  -3976219.1884   3382371.6055   3652511.1426   1   6   0.0097   0.0084   0.0146  -0.0079   0.0084  -0.0098   0.01  999.9
2005/04/02 00:54:30.000  -3976219.1878   3382371.6053   3652511.1421   1   6   0.0098   0.0084   0.0147  -0.0080   0.0084  -0.0099   0.01  999.9
2005/04/02 00:55:00.000  -3976219.1841   3382371.6011   3652511.1413   1   6   0.0099   0.0084   0.0148  -0.0077   0.0086  -0.0099   0.01  999.9
2005/04/02 00:55:30.000  -3976219.1922   3382371.6061   3652511.1531   1   6   0.0097   0.0085   0.0149  -0.0080   0.0085  -0.0100   0.01  999.9
2005/04/02 00:56:00.000  -3976219.1957   3382371.6120   3652511.1464   1   6   0.0099   0.0085   0.0150  -0.0079   0.0086  -0.0100   0.01  999.9
2005/04/02 00:56:30.000  -3976219.1816   3382371.6038   3652511.1396   1   6   0.0100   0.0084   0.0151  -0.0080   0.0087  -0.0101   0.01  999.9
2005/04/02 00:57:00.000  -3976219.2210   3382371.6437   3652511.2124   1   5   0.0436   0.0463   0.0930  -0.0447   0.0652  -0.0633   0.01  999.9
