% program   : rnx2rtkp ver.2.4.2
% inp file  : ../../../test/data/rinex/07590920.05o
% inp file  : ../../../test/data/rinex/30400920.05n
% inp file  : ../../../test/data/rinex/30400920.05o
% obs start : 2005/04/02 00:00:00.0 GPST (week1316 518400.0s)
% obs end   : 2005/04/02 00:59:30.0 GPST (week1316 521970.0s)
% ref pos   : 35.132063648  139.624300357    75.4015
%
% (lat/lon/height=WGS84/ellipsoidal,Q=1:fix,2:float,3:sbas,4:dgps,5:single,6:ppp,ns=# of satellites)
%  GPST                  latitude(deg) longitude(deg)  height(m)   Q  ns   sdn(m)   sde(m)   sdu(m)  sdne(m)  sdeu(m)  sdun(m) age(s)  ratio
2005/04/02 00:00:00.000   35.160872529  139.613836777    69.8714   1   7   0.0058   0.0044   0.0136   0.0022  -0.0047  -0.0055   0.00   24.9
2005/04/02 00:00:30.000   35.160872522  139.613836807    69.8647   1   7   0.0058   0.0045   0.0136   0.0022  -0.0046  -0.0055   0.00   40.8
2005/04/02 00:01:00.000   35.160872509  139.613836802    69.8661   1   7   0.0057   0.0045   0.0135   0.0023  -0.0047  -0.0054   0.00   40.2
2005/04/02 00:01:30.000   35.160872499  139.613836783    69.8770   1   7   0.0058   0.0041   0.0135   0.0024  -0.0045  -0.0054   0.00   52.2
2005/04/02 00:02:00.000   35.160872544  139.613836835    69.8741   1   7   0.0056   0.0041   0.0135   0.0021  -0.0045  -0.0054   0.00   63.1
2005/04/02 00:02:30.000   35.160872535  139.613836819    69.8717   1   7   0.0058   0.0044   0.0136   0.0022  -0.0045  -0.0053   0.00   66.3
2005/04/02 00:03:00.000   35.160872513  139.613836799    69.8846   1   7   0.0057   0.0044   0.0135   0.0024  -0.0045  -0.0053   0.00   75.7
2005/04/02 00:03:30.000   35.160872496  139.613836778    69.8890   1   7   0.0060   0.0045   0.0135   0.0019  -0.0045  -0.0052   0.00   69.2
2005/04/02 00:04:00.000   35.160872530  139.613836770    69.8871   1   7   0.0059   0.0044   0.0134   0.0025  -0.0045  -0.0052   0.00   67.4
2005/04/02 00:04:30.000   35.160872542  139.613836849    69.8710   1   7   0.0059   0.0043   0.0134   0.0025  -0.0045  -0.0052   0.00   64.3
2005/04/02 00:05:00.000   35.160872574  139.613836802    69.8767   1   7   0.0058   0.0045   0.0134   0.0019  -0.0045  -0.0052   0.00   67.9
2005/04/02 00:05:30.000   35.160872586  139.613836764    69.8828   1   7   0.0059   0.0043   0.0134   0.0022  -0.0043  -0.0053   0.00   84.0
2005/04/02 00:06:00.000   35.160872593  139.613836778    69.8735   1   7   0.0057   0.0044   0.0134   0.0022  -0.0045  -0.0051   0.00   81.8
2005/04/02 00:06:30.000   35.160872572  139.613836781    69.8748   1   7   0.0057   0.0041   0.0132   0.0020  -0.0044  -0.0052   0.00   85.3
2005/04/02 00:07:00.000   35.160872539  139.613836748    69.8803   1   7   0.0058   0.0043   0.0134   0.0023  -0.0042  -0.0050   0.00   87.0
2005/04/02 00:07:30.000   35.160872540  139.613836746    69.8822   1   7   0.0058   0.0046   0.0133   0.0023  -0.0045  -0.0047   0.00   88.0
2005/04/02 00:08:00.000   35.160872549  139.613836775    69.8770   1   7   0.0058   0.0043   0.0133   0.0023  -0.0043  -0.0048   0.00   94.0
2005/04/02 00:08:30.000   35.160872527  139.613836742    69.8756   1   7   0.0059   0.0044   0.0132   0.0022  -0.0043  -0.0049   0.00   99.9
2005/04/02 00:09:00.000   35.160872506  139.613836781    69.8769   1   7   0.0057   0.0042   0.0132   0.0021  -0.0044  -0.0049   0.00  105.9
2005/04/02 00:09:30.000   35.160872548  139.613836853    69.8516   1   7   0.0057   0.0041   0.0132   0.0020  -0.0042  -0.0049   0.00  108.4
2005/04/02 00:10:00.000   35.160872541  139.613836813    69.8724   1   7   0.0058   0.0041   0.0132   0.0019  -0.0041  -0.0047   0.00  110.6
2005/04/02 00:10:30.000   35.160872533  139.613836779    69.8708   1   7   0.0056   0.0044   0.0131   0.0023  -0.0043  -0.0045   0.00  122.9
2005/04/02 00:11:00.000   35.160872548  139.613836806    69.8694   1   7   0.0059   0.0044   0.0131   0.0023  -0.0043  -0.0045   0.00  128.3
2005/04/02 00:11:30.000   35.160872576  139.613836833    69.8649   1   7   0.0056   0.0041   0.0131   0.0020  -0.0042  -0.0045   0.00  132.3
2005/04/02 00:12:00.000   35.160872552  139.613836811    69.8793   1   7   0.0056   0.0042   0.0132   0.0021  -0.0039  -0.0044   0.00  143.8
2005/04/02 00:12:30.000   35.160872573  139.613836834    69.8689   1   7   0.0059   0.0041   0.0131   0.0019  -0.0039  -0.0045   0.00  158.3
2005/04/02 00:13:00.000   35.160872577  139.613836810    69.8780   1   7   0.0059   0.0042   0.0130   0.0020  -0.0043  -0.0043   0.00  163.0
2005/04/02 00:13:30.000   35.160872575  139.613836771    69.8750   1   7   0.0059   0.0039   0.0130   0.0019  -0.0041  -0.0043   0.00  173.5
2005/04/02 00:14:00.000   35.160872554  139.613836768    69.8863   1   7   0.0060   0.0041   0.0130   0.0017  -0.0040  -0.0044   0.00  185.4
2005/04/02 00:14:30.000   35.160872576  139.613836803    69.8761   1   7   0.0058   0.0044   0.0129   0.0020  -0.0040  -0.0044   0.00  185.7
2005/04/02 00:15:00.000   35.160872535  139.613836818    69.8798   1   7   0.0059   0.0040   0.0129   0.0025  -0.0039  -0.0041   0.00  175.2
2005/04/02 00:15:30.000   35.160872542  139.613836798    69.8770   1   7   0.0058   0.0043   0.0130   0.0020  -0.0039  -0.0040   0.00  165.3
2005/04/02 00:16:00.000   35.160872544  139.613836824    69.8721   1   7   0.0058   0.0039   0.0129   0.0021  -0.0040  -0.0039   0.00  156.5
2005/04/02 00:16:30.000   35.160872538  139.613836813    69.8783   1   7   0.0057   0.0043   0.0129   0.0021  -0.0037  -0.0040   0.00  147.0
2005/04/02 00:17:00.000   35.160872545  139.613836808    69.8804   1   7   0.0060   0.0042   0.0129   0.0018  -0.0037  -0.0039   0.00  146.9
2005/04/02 00:17:30.000   35.160872511  139.613836811    69.8797   1   7   0.0059   0.0040   0.0129   0.0020  -0.0039  -0.0036   0.00  142.6
2005/04/02 00:18:00.000   35.160872543  139.613836832    69.8805   1   6   0.0062   0.0042   0.0142   0.0024  -0.0029  -0.0022   0.00  142.1
2005/04/02 00:18:30.000   35.160872537  139.613836829    69.8704   1   6   0.0064   0.0045   0.0142   0.0024  -0.0029  -0.0020   0.00  140.6
2005/04/02 00:19:00.000   35.160872519  139.613836842    69.8835   1   6   0.0061   0.0040   0.0141   0.0020  -0.0030  -0.0017   0.00  139.6
2005/04/02 00:19:30.000   35.160872504  139.613836822    69.8764   1   6   0.0062   0.0047   0.0141   0.0025  -0.0027  -0.0016   0.00  139.6
2005/04/02 00:20:00.000   35.160872510  139.613836809    69.8822   1   6   0.0062   0.0046   0.0142   0.0025  -0.0027  -0.0015   0.00  137.6
2005/04/02 00:20:30.000   35.160872522  139.613836804    69.8738   1   6   0.0059   0.0045   0.0141   0.0023  -0.0028  -0.0011   0.00   76.3
2005/04/02 00:20:59.999   35.160872553  139.613836832    69.8744   1   6   0.0064   0.0041   0.0141   0.0024  -0.0025  -0.0011   0.00   76.2
2005/04/02 00:21:30.000   35.160872562  139.613836789    69.8747   1   6   0.0066   0.0045   0.0141   0.0026  -0.0025  -0.0007   0.00   77.1
2005/04/02 00:22:00.000   35.160872532  139.613836779    69.8865   1   6   0.0064   0.0043   0.0142   0.0020  -0.0027   0.0011   0.00   82.6
2005/04/02 00:22:30.000   35.160872518  139.613836771    69.8761   1   6   0.0061   0.0044   0.0142   0.0022  -0.0024   0.0006   0.00   84.9
2005/04/02 00:23:00.000   35.160872530  139.613836793    69.8768   1   6   0.0061   0.0044   0.0141   0.0023  -0.0024   0.0013   0.00   91.0
2005/04/02 00:23:30.000   35.160872524  139.613836784    69.8812   1   6   0.0064   0.0044   0.0141   0.0025  -0.0027   0.0017   0.00   93.5
2005/04/02 00:24:00.000   35.160872560  139.613836844    69.8658   1   6   0.0063   0.0044   0.0141   0.0025  -0.0022   0.0015   0.00   96.3
2005/04/02 00:24:30.000   35.160872551  139.613836836    69.8780   1   6   0.0062   0.0047   0.0141   0.0024  -0.0021   0.0019   0.00  100.8
2005/04/02 00:25:00.000   35.160872528  139.613836804    69.8805   1   6   0.0063   0.0042   0.0142   0.0018  -0.0024   0.0023   0.00  104.6
2005/04/02 00:25:30.000   35.160872522  139.613836810    69.8815   1   6   0.0067   0.0038   0.0141   0.0022  -0.0024   0.0023   0.00  107.2
2005/04/02 00:26:00.000   35.160872530  139.613836836    69.8752   1   6   0.0065   0.0042   0.0142   0.0018  -0.0024   0.0025   0.00  110.9
2005/04/02 00:26:30.000   35.160872518  139.613836869    69.8780   1   6   0.0065   0.0044   0.0142   0.0018  -0.0022   0.0029   0.00  118.1
2005/04/02 00:27:00.000   35.160872527  139.613836834    69.8805   1   6   0.0064   0.0039   0.0142   0.0023  -0.0020   0.0028   0.00  123.8
2005/04/02 00:27:30.000   35.160872513  139.613836826    69.8877   1   6   0.0066   0.0041   0.0142   0.0025  -0.0022   0.0031   0.00  128.4
2005/04/02 00:28:00.000   35.160872530  139.613836808    69.8795   1   6   0.0066   0.0043   0.0142   0.0023  -0.0021   0.0031   0.00  134.8
2005/04/02 00:28:30.000   35.160872516  139.613836787    69.8791   1   6   0.0067   0.0044   0.0142   0.0025  -0.0018   0.0032   0.00  140.8
2005/04/02 00:29:00.000   35.160872523  139.613836802    69.8740   1   6   0.0064   0.0041   0.0142   0.0022  -0.0023   0.0036   0.00  149.0
2005/04/02 00:29:30.000   35.160872509  139.613836802    69.8781   1   6   0.0064   0.0040   0.0143   0.0025  -0.0016   0.0036   0.00  150.7
2005/04/02 00:30:00.000   35.160872544  139.613836835    69.8788   1   6   0.0068   0.0044   0.0142   0.0022  -0.0019   0.0036   0.00  148.0
2005/04/02 00:30:30.000   35.160872510  139.613836820    69.8719   1   6   0.0066   0.0045   0.0143   0.0017  -0.0011   0.0038   0.00  146.3
2005/04/02 00:31:00.000   35.160872501  139.613836841    69.8804   1   6   0.0065   0.0043   0.0143   0.0025  -0.0017   0.0041   0.00  146.3
2005/04/02 00:31:30.000   35.160872509  139.613836809    69.8725   1   6   0.0065   0.0041   0.0143   0.0026  -0.0016   0.0041   0.00  147.3
2005/04/02 00:32:00.000   35.160872567  139.613836866    69.8614   1   6   0.0069   0.0042   0.0143   0.0027  -0.0021   0.0042   0.00  149.2
2005/04/02 00:32:30.000   35.160872541  139.613836819    69.8751   1   6   0.0067   0.0042   0.0144   0.0024  -0.0015   0.0042   0.00  150.3
2005/04/02 00:33:00.000   35.160872499  139.613836816    69.8803   1   6   0.0066   0.0042   0.0144   0.0024  -0.0014   0.0044   0.00  156.7
2005/04/02 00:33:30.000   35.160872562  139.613836848    69.8812   1   6   0.0070   0.0043   0.0144   0.0023  -0.0015   0.0046   0.00  166.2
2005/04/02 00:34:00.000   35.160872572  139.613836787    69.8873   1   6   0.0069   0.0039   0.0144   0.0029  -0.0017   0.0046   0.00  179.4
2005/04/02 00:34:30.000   35.160872576  139.613836811    69.8748   1   6   0.0071   0.0045   0.0145   0.0021  -0.0006   0.0046   0.00  190.4
2005/04/02 00:35:00.000   35.160872571  139.613836823    69.8818   1   6   0.0068   0.0042   0.0145   0.0027  -0.0009   0.0048   0.00  193.5
2005/04/02 00:35:30.000   35.160872539  139.613836811    69.8637   1   6   0.0073   0.0046   0.0146   0.0023   0.0006   0.0048   0.00  196.3
2005/04/02 00:36:00.000   35.160872579  139.613836857    69.8827   1   6   0.0072   0.0046   0.0146   0.0020   0.0007   0.0049   0.00  199.5
2005/04/02 00:36:30.000   35.160872546  139.613836839    69.8671   1   6   0.0070   0.0042   0.0146   0.0025  -0.0003   0.0051   0.01  200.6
2005/04/02 00:37:00.000   35.160872546  139.613836808    69.8781   1   6   0.0073   0.0045   0.0146   0.0022   0.0006   0.0052   0.01  200.4
2005/04/02 00:37:30.000   35.160872515  139.613836805    69.8724   1   6   0.0075   0.0044   0.0146   0.0023  -0.0004   0.0052   0.01  202.0
2005/04/02 00:38:00.000   35.160872513  139.613836822    69.8725   1   6   0.0074   0.0046   0.0147   0.0021   0.0012   0.0053   0.01  202.4
2005/04/02 00:38:30.000   35.160872507  139.613836838    69.8742   1   6   0.0071   0.0043   0.0147   0.0024   0.0008   0.0056   0.01  205.2
2005/04/02 00:39:00.000   35.160872494  139.613836788    69.8729   1   6   0.0076   0.0041   0.0148   0.0025   0.0010   0.0055   0.01  202.1
2005/04/02 00:39:30.000   35.160872483  139.613836790    69.8724   1   6   0.0073   0.0040   0.0148   0.0026   0.0013   0.0058   0.01  202.6
2005/04/02 00:40:00.000   35.160872546  139.613836791    69.8729   1   6   0.0076   0.0043   0.0149   0.0023   0.0017   0.0057   0.01  198.0
2005/04/02 00:40:30.000   35.160872555  139.613836835    69.8787   1   6   0.0073   0.0047   0.0149   0.0025   0.0013   0.0060   0.01  198.4
2005/04/02 00:41:00.000   35.160872501  139.613836823    69.8672   1   6   0.0075   0.0041   0.0150   0.0031  -0.0002   0.0061   0.01  200.4
2005/04/02 00:41:30.000   35.160872521  139.613836806    69.8690   1   6   0.0076   0.0042   0.0150   0.0028   0.0010   0.0061   0.01  201.4
2005/04/02 00:42:00.000   35.160872474  139.613836792    69.8792   1   6   0.0077   0.0045   0.0151   0.0021   0.0017   0.0062   0.01  204.0
2005/04/02 00:42:30.000   35.160872463  139.613836812    69.8730   1   6   0.0076   0.0039   0.0151   0.0028   0.0010   0.0064   0.01  203.9
2005/04/02 00:43:00.000   35.160872458  139.613836781    69.8708   1   6   0.0077   0.0041   0.0152   0.0023   0.0017   0.0064   0.01  202.8
2005/04/02 00:43:30.000   35.160872428  139.613836762    69.8684   1   6   0.0079   0.0042   0.0152   0.0021   0.0020   0.0065   0.01  205.4
2005/04/02 00:44:00.000   35.160872475  139.613836805    69.8713   1   6   0.0076   0.0042   0.0153   0.0023   0.0015   0.0067   0.01  207.0
2005/04/02 00:44:30.000   35.160872519  139.613836775    69.8823   1   6   0.0079   0.0040   0.0153   0.0027   0.0014   0.0067   0.01  210.3
2005/04/02 00:45:00.000   35.160872525  139.613836822    69.8747   1   6   0.0081   0.0044   0.0154   0.0014   0.0022   0.0067   0.01  215.2
2005/04/02 00:45:30.000   35.160872529  139.613836792    69.8638   1   6   0.0081   0.0041   0.0154   0.0025   0.0018   0.0069   0.01  213.4
2005/04/02 00:46:00.000   35.160872554  139.613836788    69.8668   1   6   0.0080   0.0042   0.0155   0.0023   0.0020   0.0070   0.01  211.2
2005/04/02 00:46:30.000   35.160872563  139.613836807    69.8614   1   6   0.0082   0.0044   0.0156   0.0025   0.0022   0.0070   0.01  209.1
2005/04/02 00:47:00.000   35.160872552  139.613836752    69.8596   1   6   0.0079   0.0043   0.0156   0.0027   0.0019   0.0073   0.01  206.9
2005/04/02 00:47:30.000   35.160872544  139.613836747    69.8717   1   6   0.0083   0.0043   0.0158   0.0027   0.0024   0.0072   0.01  209.9
2005/04/02 00:48:00.000   35.160872524  139.613836727    69.8745   1   6   0.0083   0.0042   0.0158   0.0025   0.0019   0.0074   0.01  213.3
2005/04/02 00:48:30.000   35.160872494  139.613836737    69.8625   1   6   0.0083   0.0037   0.0159   0.0024   0.0022   0.0074   0.01  213.9
2005/04/02 00:49:00.000   35.160872567  139.613836788    69.8756   1   6   0.0082   0.0041   0.0159   0.0025   0.0020   0.0076   0.01  214.7
2005/04/02 00:49:30.000   35.160872517  139.613836747    69.8683   1   6   0.0086   0.0042   0.0160   0.0023   0.0022   0.0076   0.01  215.5
2005/04/02 00:50:00.000   35.160872532  139.613836762    69.8685   1   6   0.0086   0.0041   0.0161   0.0023   0.0021   0.0077   0.01  217.4
2005/04/02 00:50:30.000   35.160872507  139.613836755    69.8654   1   6   0.0084   0.0040   0.0162   0.0024   0.0023   0.0079   0.01  219.3
2005/04/02 00:51:00.000   35.160872523  139.613836766    69.8741   1   6   0.0085   0.0043   0.0162   0.0029   0.0023   0.0080   0.01  223.8
2005/04/02 00:51:30.000   35.160872447  139.613836788    69.8681   1   6   0.0085   0.0042   0.0163   0.0028   0.0024   0.0081   0.01  229.3
2005/04/02 00:52:00.000   35.160872459  139.613836818    69.8669   1   6   0.0086   0.0040   0.0164   0.0030   0.0023   0.0082   0.01  228.3
2005/04/02 00:52:30.000   35.160872417  139.613836794    69.8565   1   6   0.0089   0.0043   0.0165   0.0022   0.0026   0.0082   0.01  227.4
2005/04/02 00:53:00.000   35.160872467  139.613836818    69.8630   1   6   0.0087   0.0041   0.0166   0.0028   0.0024   0.0084   0.01  226.9
2005/04/02 00:53:30.000   35.160872500  139.613836796    69.8662   1   6   0.0088   0.0041   0.0166   0.0026   0.0024   0.0084   0.01  231.3
2005/04/02 00:54:00.000   35.160872531  139.613836798    69.8770   1   6   0.0088   0.0040   0.0167   0.0026   0.0026   0.0085   0.01  234.6
2005/04/02 00:54:30.000   35.160872531  139.613836796    69.8763   1   6   0.0088   0.0036   0.0168   0.0030   0.0022   0.0087   0.01  230.5
2005/04/02 00:55:00.000   35.160872553  139.613836805    69.8713   1   6   0.0092   0.0044   0.0169   0.0026   0.0027   0.0086   0.01  234.4
2005/04/02 00:55:30.000   35.160872591  139.613836820    69.8857   1   6   0.0092   0.0044   0.0170   0.0023   0.0027   0.0087   0.01  241.1
2005/04/02 00:56:00.000   35.160872508  139.613836795    69.8872   1   6   0.0090   0.0042   0.0171   0.0030   0.0025   0.0089   0.01  245.4
2005/04/02 00:56:30.000   35.160872541  139.613836764    69.8701   1   6   0.0091   0.0041   0.0172   0.0027   0.0027   0.0090   0.01  248.6
2005/04/02 00:57:00.000   35.160872789  139.613836710    69.9581   1   5   0.0404   0.0084   0.1049  -0.0166  -0.0271   0.0644   0.01  246.8
