% program   : rnx2rtkp ver.2.4.2
% inp file  : ../../../test/data/rinex/07590920.05o
% inp file  : ../../../test/data/rinex/30400920.05n
% inp file  : ../../../test/data/rinex/30400920.05o
% obs start : 2005/04/02 00:00:00.0 GPST (week1316 518400.0s)
% obs end   : 2005/04/02 00:59:30.0 GPST (week1316 521970.0s)
% ref pos   : -3978241.9580   3382840.2340   3649900.8530
%
% (x/y/z-ecef=WGS84,Q=1:fix,2:float,3:sbas,4:dgps,5:single,6:ppp,ns=# of satellites)
%  GPST                      x-ecef(m)      y-ecef(m)      z-ecef(m)   Q  ns   sdx(m)   sdy(m)   sdz(m)  sdxy(m)  sdyz(m)  sdzx(m) age(s)  ratio
2005/04/02 00:00:00.000  -3976219.5698   3382372.2966   3652511.5003   4   7   0.9080   1.0001   0.7420  -0.8597   0.6773  -0.6405   0.00    0.0
2005/04/02 00:00:30.000  -3976218.9360   3382371.5815   3652511.4075   4   7   0.9067   0.9979   0.7431  -0.8579   0.6764  -0.6404   0.00    0.0
2005/04/02 00:01:00.000  -3976219.3828   3382371.8832   3652511.5718   4   7   0.9054   0.9955   0.7442  -0.8561   0.6755  -0.6403   0.00    0.0
2005/04/02 00:01:30.000  -3976219.6374   3382371.9670   3652511.4353   4   7   0.9040   0.9931   0.7453  -0.8541   0.6745  -0.6401   0.00    0.0
2005/04/02 00:02:00.000  -3976218.9125   3382371.4021   3652510.6908   4   7   0.9026   0.9907   0.7464  -0.8521   0.6734  -0.6399   0.00    0.0
2005/04/02 00:02:30.000  -3976219.5009   3382372.3381   3652511.8687   4   7   0.9012   0.9882   0.7476  -0.8501   0.6723  -0.6397   0.00    0.0
2005/04/02 00:03:00.000  -3976219.4268   3382371.9445   3652511.3722   4   7   0.8997   0.9856   0.7487  -0.8480   0.6712  -0.6394   0.00    0.0
2005/04/02 00:03:30.000  -3976219.5003   3382372.1354   3652511.0893   4   7   0.8982   0.9830   0.7499  -0.8459   0.6700  -0.6391   0.00    0.0
2005/04/02 00:04:00.000  -3976219.5417   3382372.1260   3652511.5306   4   7   0.8967   0.9803   0.7511  -0.8437   0.6688  -0.6388   0.00    0.0
2005/04/02 00:04:30.000  -3976219.2797   3382371.5056   3652511.4011   4   7   0.8951   0.9776   0.7524  -0.8415   0.6676  -0.6385   0.00    0.0
2005/04/02 00:05:00.000  -3976219.1575   3382371.4758   3652511.6081   4   7   0.8936   0.9748   0.7536  -0.8392   0.6663  -0.6382   0.00    0.0
2005/04/02 00:05:30.000  -3976219.3018   3382371.7965   3652511.5069   4   7   0.8920   0.9721   0.7549  -0.8369   0.6650  -0.6378   0.00    0.0
2005/04/02 00:06:00.000  -3976219.1959   3382372.1167   3652511.6395   4   7   0.8904   0.9692   0.7563  -0.8345   0.6637  -0.6375   0.00    0.0
2005/04/02 00:06:30.000  -3976219.6155   3382372.0625   3652511.3949   4   7   0.8887   0.9664   0.7576  -0.8322   0.6624  -0.6371   0.00    0.0
2005/04/02 00:07:00.000  -3976219.6207   3382371.9359   3652511.2716   4   7   0.8871   0.9635   0.7590  -0.8298   0.6610  -0.6368   0.00    0.0
2005/04/02 00:07:30.000  -3976219.4443   3382371.6589   3652511.0345   4   7   0.8854   0.9606   0.7604  -0.8273   0.6596  -0.6364   0.00    0.0
2005/04/02 00:08:00.000  -3976218.6759   3382370.9347   3652511.1504   4   7   0.8838   0.9576   0.7619  -0.8249   0.6582  -0.6360   0.00    0.0
2005/04/02 00:08:30.000  -3976219.2952   3382371.5135   3652511.4032   4   7   0.8821   0.9547   0.7634  -0.8224   0.6568  -0.6357   0.00    0.0
2005/04/02 00:09:00.000  -3976219.6392   3382371.8361   3652511.6016   4   7   0.8804   0.9517   0.7649  -0.8199   0.6554  -0.6353   0.00    0.0
2005/04/02 00:09:30.000  -3976219.7331   3382372.0595   3652511.4752   4   7   0.8788   0.9487   0.7665  -0.8174   0.6540  -0.6349   0.00    0.0
2005/04/02 00:10:00.000  -3976219.6213   3382372.2007   3652511.8401   4   7   0.8771   0.9457   0.7682  -0.8149   0.6526  -0.6346   0.00    0.0
2005/04/02 00:10:30.000  -3976219.2269   3382371.5505   3652511.2590   4   7   0.8754   0.9427   0.7699  -0.8124   0.6512  -0.6343   0.00    0.0
2005/04/02 00:11:00.000  -3976218.9656   3382371.4120   3652511.1867   4   7   0.8738   0.9396   0.7716  -0.8098   0.6497  -0.6339   0.00    0.0
2005/04/02 00:11:30.000  -3976218.6186   3382371.3281   3652511.1467   4   7   0.8721   0.9366   0.7734  -0.8073   0.6483  -0.6336   0.00    0.0
2005/04/02 00:12:00.000  -3976219.4072   3382371.9867   3652511.2054   4   7   0.8705   0.9335   0.7752  -0.8047   0.6469  -0.6333   0.00    0.0
2005/04/02 00:12:30.000  -3976219.3861   3382371.5040   3652511.1791   4   7   0.8689   0.9305   0.7771  -0.8022   0.6455  -0.6331   0.00    0.0
2005/04/02 00:13:00.000  -3976219.0106   3382371.7646   3652511.4492   4   7   0.8672   0.9275   0.7791  -0.7996   0.6441  -0.6328   0.00    0.0
2005/04/02 00:13:30.000  -3976218.6988   3382371.3220   3652510.9710   4   7   0.8656   0.9244   0.7811  -0.7971   0.6427  -0.6326   0.00    0.0
2005/04/02 00:14:00.000  -3976218.9597   3382371.4204   3652510.6266   4   7   0.8641   0.9214   0.7832  -0.7945   0.6413  -0.6324   0.00    0.0
2005/04/02 00:14:30.000  -3976219.0194   3382371.7996   3652510.9591   4   7   0.8625   0.9184   0.7853  -0.7920   0.6399  -0.6323   0.00    0.0
2005/04/02 00:15:00.000  -3976219.5649   3382372.1327   3652511.4556   4   7   0.8609   0.9153   0.7875  -0.7895   0.6386  -0.6321   0.00    0.0
2005/04/02 00:15:30.000  -3976219.6395   3382372.1811   3652511.9562   4   7   0.8594   0.9123   0.7898  -0.7870   0.6373  -0.6321   0.00    0.0
2005/04/02 00:16:00.000  -3976219.4391   3382372.0582   3652511.4720   4   7   0.8579   0.9093   0.7921  -0.7845   0.6359  -0.6320   0.00    0.0
2005/04/02 00:16:30.000  -3976219.2185   3382371.2999   3652511.5426   4   7   0.8565   0.9064   0.7945  -0.7820   0.6347  -0.6320   0.00    0.0
2005/04/02 00:17:00.000  -3976219.2490   3382371.5133   3652511.4862   4   7   0.8550   0.9034   0.7970  -0.7796   0.6334  -0.6320   0.00    0.0
2005/04/02 00:17:30.000  -3976218.8970   3382371.4482   3652510.9660   4   7   0.8536   0.9005   0.7996  -0.7771   0.6322  -0.6321   0.00    0.0
2005/04/02 00:18:00.000  -3976219.5634   3382371.8297   3652511.7674   4   6   0.9244   0.9184   0.9294  -0.8185   0.6996  -0.7535   0.00    0.0
2005/04/02 00:18:30.000  -3976218.7860   3382370.7660   3652510.8647   4   6   0.9232   0.9157   0.9334  -0.8164   0.6992  -0.7544   0.00    0.0
2005/04/02 00:19:00.000  -3976218.8434   3382371.7748   3652511.3456   4   6   0.9220   0.9130   0.9374  -0.8143   0.6989  -0.7554   0.00    0.0
2005/04/02 00:19:30.000  -3976218.4261   3382371.2607   3652511.2194   4   6   0.9208   0.9104   0.9415  -0.8122   0.6986  -0.7563   0.00    0.0
2005/04/02 00:20:00.000  -3976219.2411   3382371.7533   3652511.4821   4   6   0.9197   0.9077   0.9457  -0.8101   0.6983  -0.7573   0.00    0.0
2005/04/02 00:20:30.000  -3976219.1902   3382371.7398   3652511.4258   4   6   0.9185   0.9051   0.9499  -0.8081   0.6980  -0.7584   0.00    0.0
2005/04/02 00:20:59.999  -3976218.8606   3382371.6263   3652511.2433   4   6   0.9174   0.9025   0.9543  -0.8061   0.6977  -0.7595   0.00    0.0
2005/04/02 00:21:30.000  -3976219.2415   3382371.9716   3652511.0442   4   6   0.9163   0.9000   0.9587  -0.8041   0.6975  -0.7606   0.00    0.0
2005/04/02 00:22:00.000  -3976219.0681   3382371.2212   3652511.2624   4   6   0.9153   0.8974   0.9632  -0.8021   0.6974  -0.7618   0.00    0.0
2005/04/02 00:22:30.000  -3976218.6894   3382371.4484   3652510.8957   4   6   0.9143   0.8949   0.9678  -0.8001   0.6972  -0.7630   0.00    0.0
2005/04/02 00:23:00.000  -3976218.7852   3382371.2028   3652511.4571   4   6   0.9133   0.8924   0.9724  -0.7982   0.6971  -0.7642   0.00    0.0
2005/04/02 00:23:30.000  -3976219.1444   3382371.6052   3652511.6690   4   6   0.9123   0.8899   0.9772  -0.7963   0.6971  -0.7655   0.00    0.0
2005/04/02 00:24:00.000  -3976219.6391   3382372.3501   3652511.3745   4   6   0.9114   0.8875   0.9820  -0.7945   0.6970  -0.7669   0.00    0.0
2005/04/02 00:24:30.000  -3976219.1697   3382371.6517   3652511.2154   4   6   0.9105   0.8851   0.9870  -0.7926   0.6971  -0.7683   0.00    0.0
2005/04/02 00:25:00.000  -3976219.8186   3382372.2110   3652511.7024   4   6   0.9097   0.8828   0.9920  -0.7908   0.6971  -0.7697   0.00    0.0
2005/04/02 00:25:30.000  -3976219.5578   3382372.0965   3652511.8080   4   6   0.9089   0.8804   0.9971  -0.7891   0.6972  -0.7713   0.00    0.0
2005/04/02 00:26:00.000  -3976219.2970   3382371.8766   3652511.2978   4   6   0.9082   0.8781   1.0023  -0.7873   0.6974  -0.7728   0.00    0.0
2005/04/02 00:26:30.000  -3976219.2649   3382371.6380   3652511.2068   4   6   0.9074   0.8759   1.0076  -0.7857   0.6976  -0.7744   0.00    0.0
2005/04/02 00:27:00.000  -3976218.9405   3382371.4041   3652511.2796   4   6   0.9068   0.8737   1.0130  -0.7840   0.6979  -0.7761   0.00    0.0
2005/04/02 00:27:30.000  -3976218.9134   3382371.7621   3652511.0271   4   6   0.9062   0.8715   1.0185  -0.7824   0.6982  -0.7779   0.00    0.0
2005/04/02 00:28:00.000  -3976219.3693   3382371.6492   3652511.3687   4   6   0.9056   0.8693   1.0242  -0.7808   0.6986  -0.7797   0.00    0.0
2005/04/02 00:28:30.000  -3976219.2435   3382371.8451   3652511.3199   4   6   0.9051   0.8672   1.0299  -0.7793   0.6990  -0.7815   0.00    0.0
2005/04/02 00:29:00.000  -3976219.3549   3382371.6757   3652511.0951   4   6   0.9046   0.8652   1.0357  -0.7778   0.6995  -0.7835   0.00    0.0
2005/04/02 00:29:30.000  -3976218.9498   3382371.7744   3652511.0884   4   6   0.9042   0.8632   1.0416  -0.7764   0.7001  -0.7855   0.00    0.0
2005/04/02 00:30:00.000  -3976219.1180   3382371.9551   3652510.8806   4   6   0.9038   0.8612   1.0476  -0.7750   0.7007  -0.7876   0.00    0.0
2005/04/02 00:30:30.000  -3976219.1182   3382371.3289   3652511.1089   4   6   0.9035   0.8593   1.0537  -0.7737   0.7014  -0.7897   0.00    0.0
2005/04/02 00:31:00.000  -3976218.9137   3382371.4339   3652511.3510   4   6   0.9032   0.8574   1.0600  -0.7724   0.7022  -0.7919   0.00    0.0
2005/04/02 00:31:30.000  -3976218.9591   3382371.4581   3652511.3042   4   6   0.9030   0.8555   1.0663  -0.7712   0.7030  -0.7942   0.00    0.0
2005/04/02 00:32:00.000  -3976219.4677   3382371.9432   3652511.9169   4   6   0.9028   0.8537   1.0728  -0.7700   0.7039  -0.7966   0.00    0.0
2005/04/02 00:32:30.000  -3976218.9080   3382371.4664   3652511.3937   4   6   0.9027   0.8520   1.0794  -0.7689   0.7049  -0.7990   0.00    0.0
2005/04/02 00:33:00.000  -3976219.2154   3382371.6455   3652511.7177   4   6   0.9027   0.8503   1.0860  -0.7678   0.7060  -0.8015   0.00    0.0
2005/04/02 00:33:30.000  -3976219.0654   3382371.7199   3652511.3984   4   6   0.9027   0.8487   1.0928  -0.7668   0.7071  -0.8041   0.00    0.0
2005/04/02 00:34:00.000  -3976219.7347   3382372.4890   3652511.5414   4   6   0.9028   0.8471   1.0997  -0.7659   0.7083  -0.8067   0.00    0.0
2005/04/02 00:34:30.000  -3976219.2260   3382371.8125   3652511.4860   4   6   0.9029   0.8456   1.1068  -0.7650   0.7096  -0.8095   0.00    0.0
2005/04/02 00:35:00.000  -3976219.2792   3382372.0492   3652511.5234   4   6   0.9031   0.8441   1.1139  -0.7642   0.7110  -0.8123   0.00    0.0
2005/04/02 00:35:30.000  -3976219.6481   3382371.9324   3652511.8419   4   6   0.9034   0.8426   1.1212  -0.7634   0.7125  -0.8152   0.00    0.0
2005/04/02 00:36:00.000  -3976219.4565   3382371.8284   3652511.6340   4   6   0.9037   0.8413   1.1285  -0.7627   0.7140  -0.8182   0.00    0.0
2005/04/02 00:36:30.000  -3976219.1483   3382371.4659   3652511.8747   4   6   0.9041   0.8399   1.1360  -0.7620   0.7157  -0.8213   0.01    0.0
2005/04/02 00:37:00.000  -3976219.0504   3382371.4836   3652511.5758   4   6   0.9046   0.8387   1.1436  -0.7615   0.7174  -0.8244   0.01    0.0
2005/04/02 00:37:30.000  -3976219.7447   3382371.8472   3652511.8767   4   6   0.9051   0.8375   1.1514  -0.7609   0.7192  -0.8277   0.01    0.0
2005/04/02 00:38:00.000  -3976219.3691   3382371.9943   3652510.8716   4   6   0.9057   0.8363   1.1592  -0.7605   0.7211  -0.8310   0.01    0.0
2005/04/02 00:38:30.000  -3976219.2151   3382371.2100   3652510.8969   4   6   0.9064   0.8352   1.1672  -0.7601   0.7231  -0.8344   0.01    0.0
2005/04/02 00:39:00.000  -3976219.1935   3382371.7413   3652511.2012   4   6   0.9071   0.8342   1.1752  -0.7598   0.7252  -0.8379   0.01    0.0
2005/04/02 00:39:30.000  -3976219.4065   3382371.8473   3652512.2877   4   6   0.9079   0.8332   1.1834  -0.7596   0.7274  -0.8415   0.01    0.0
2005/04/02 00:40:00.000  -3976219.2445   3382371.9777   3652511.8825   4   6   0.9088   0.8323   1.1917  -0.7594   0.7297  -0.8452   0.01    0.0
2005/04/02 00:40:30.000  -3976219.3961   3382371.9671   3652511.4200   4   6   0.9097   0.8315   1.2001  -0.7593   0.7321  -0.8490   0.01    0.0
2005/04/02 00:41:00.000  -3976219.5692   3382371.7430   3652511.2578   4   6   0.9108   0.8307   1.2087  -0.7593   0.7347  -0.8528   0.01    0.0
2005/04/02 00:41:30.000  -3976218.5457   3382371.2075   3652510.6603   4   6   0.9118   0.8300   1.2173  -0.7594   0.7373  -0.8568   0.01    0.0
2005/04/02 00:42:00.000  -3976219.3158   3382371.6600   3652511.5516   4   6   0.9130   0.8293   1.2261  -0.7595   0.7400  -0.8608   0.01    0.0
2005/04/02 00:42:30.000  -3976219.5023   3382372.1433   3652511.3042   4   6   0.9142   0.8288   1.2349  -0.7597   0.7428  -0.8649   0.01    0.0
2005/04/02 00:43:00.000  -3976219.1080   3382371.8206   3652511.3071   4   6   0.9156   0.8282   1.2439  -0.7600   0.7457  -0.8691   0.01    0.0
2005/04/02 00:43:30.000  -3976219.2051   3382371.4414   3652510.9574   4   6   0.9169   0.8278   1.2530  -0.7604   0.7487  -0.8734   0.01    0.0
2005/04/02 00:44:00.000  -3976219.8204   3382372.0551   3652511.3714   4   6   0.9184   0.8274   1.2622  -0.7608   0.7519  -0.8778   0.01    0.0
2005/04/02 00:44:30.000  -3976219.7985   3382372.0123   3652511.3263   4   6   0.9200   0.8271   1.2714  -0.7613   0.7551  -0.8823   0.01    0.0
2005/04/02 00:45:00.000  -3976219.4772   3382371.7382   3652511.5471   4   6   0.9216   0.8268   1.2808  -0.7619   0.7585  -0.8868   0.01    0.0
2005/04/02 00:45:30.000  -3976219.2745   3382371.5213   3652511.5312   4   6   0.9233   0.8267   1.2903  -0.7626   0.7620  -0.8915   0.01    0.0
2005/04/02 00:46:00.000  -3976219.6554   3382371.6801   3652512.1261   4   6   0.9250   0.8266   1.2998  -0.7634   0.7655  -0.8962   0.01    0.0
2005/04/02 00:46:30.000  -3976219.0068   3382371.5622   3652511.2397   4   6   0.9269   0.8265   1.3094  -0.7642   0.7692  -0.9010   0.01    0.0
2005/04/02 00:47:00.000  -3976218.9676   3382371.2317   3652511.0228   4   6   0.9288   0.8266   1.3191  -0.7652   0.7730  -0.9059   0.01    0.0
2005/04/02 00:47:30.000  -3976219.1661   3382371.4991   3652511.1307   4   6   0.9308   0.8267   1.3289  -0.7662   0.7769  -0.9109   0.01    0.0
2005/04/02 00:48:00.000  -3976219.3019   3382371.5883   3652511.7540   4   6   0.9329   0.8269   1.3388  -0.7673   0.7809  -0.9159   0.01    0.0
2005/04/02 00:48:30.000  -3976218.9039   3382371.3927   3652511.1146   4   6   0.9351   0.8272   1.3487  -0.7685   0.7850  -0.9211   0.01    0.0
2005/04/02 00:49:00.000  -3976219.2419   3382371.7773   3652511.2955   4   6   0.9373   0.8275   1.3587  -0.7698   0.7892  -0.9263   0.01    0.0
2005/04/02 00:49:30.000  -3976219.5832   3382371.8048   3652512.0089   4   6   0.9397   0.8279   1.3687  -0.7712   0.7936  -0.9315   0.01    0.0
2005/04/02 00:50:00.000  -3976219.3530   3382372.0113   3652511.1264   4   6   0.9421   0.8284   1.3788  -0.7726   0.7980  -0.9369   0.01    0.0
2005/04/02 00:50:30.000  -3976219.2548   3382371.7478   3652511.1240   4   6   0.9445   0.8290   1.3889  -0.7742   0.8025  -0.9423   0.01    0.0
2005/04/02 00:51:00.000  -3976219.1308   3382371.8623   3652511.0128   4   6   0.9471   0.8296   1.3990  -0.7758   0.8071  -0.9477   0.01    0.0
2005/04/02 00:51:30.000  -3976219.5439   3382371.4309   3652511.6131   4   6   0.9497   0.8304   1.4092  -0.7775   0.8119  -0.9532   0.01    0.0
2005/04/02 00:52:00.000  -3976219.0973   3382371.6829   3652510.9597   4   6   0.9524   0.8312   1.4193  -0.7793   0.8167  -0.9588   0.01    0.0
2005/04/02 00:52:30.000  -3976219.7397   3382371.5862   3652512.1914   4   6   0.9552   0.8321   1.4295  -0.7812   0.8216  -0.9644   0.01    0.0
2005/04/02 00:53:00.000  -3976219.0173   3382371.6948   3652511.1156   4   6   0.9581   0.8330   1.4397  -0.7832   0.8266  -0.9701   0.01    0.0
2005/04/02 00:53:30.000  -3976219.5039   3382371.7783   3652511.1826   4   6   0.9610   0.8341   1.4498  -0.7852   0.8317  -0.9758   0.01    0.0
2005/04/02 00:54:00.000  -3976218.7420   3382371.3724   3652511.0292   4   6   0.9640   0.8352   1.4599  -0.7874   0.8369  -0.9815   0.01    0.0
2005/04/02 00:54:30.000  -3976218.6548   3382371.5907   3652510.6123   4   6   0.9671   0.8364   1.4700  -0.7896   0.8421  -0.9873   0.01    0.0
2005/04/02 00:55:00.000  -3976219.3820   3382371.8061   3652511.7682   4   6   0.9702   0.8377   1.4800  -0.7919   0.8474  -0.9931   0.01    0.0
2005/04/02 00:55:30.000  -3976219.6673   3382372.0782   3652511.8102   4   6   0.9734   0.8391   1.4899  -0.7943   0.8528  -0.9989   0.01    0.0
2005/04/02 00:56:00.000  -3976219.0173   3382371.6285   3652511.3611   4   6   0.9767   0.8405   1.4998  -0.7968   0.8582  -1.0048   0.01    0.0
2005/04/02 00:56:30.000  -3976219.4459   3382371.8937   3652510.9829   4   6   0.9801   0.8420   1.5096  -0.7994   0.8637  -1.0106   0.01    0.0
2005/04/02 00:57:00.000  -3976220.5035   3382373.3601   3652514.7444   4   5   4.0886   4.3451   8.7106  -4.1903   6.1086  -5.9221   0.01    0.0
