% program   : RTKLIB ver.2.4.2
% inp file  : ../../../test/data/rinex/07590920.05o
% inp file  : ../../../test/data/rinex/30400920.05n
% inp file  : ../../../test/data/rinex/30400920.05o
% obs start : 2005/04/02 00:00:00.0 GPST (week1316 518400.0s)
% obs end   : 2005/04/02 00:59:30.0 GPST (week1316 521970.0s)
% pos mode  : kinematic
% freqs     : L1+L2
% solution  : combined
% elev mask : 10.0 deg
% dynamics  : off
% tidecorr  : off
% ionos opt : broadcast
% tropo opt : saastamoinen
% ephemeris : broadcast
% amb res   : continuous
% val thres : 3.0
% antenna1  : *                     ( 0.0000  0.0000  0.0000)
% antenna2  : *                     ( 0.0000  0.0000  0.0000)
% ref pos   : 35.132057068 139.624306577   73.9077
%
% (lat/lon/height=WGS84/ellipsoidal,Q=1:fix,2:float,3:sbas,4:dgps,5:single,6:ppp,ns=# of satellites)
%  GPST                  latitude(deg) longitude(deg)  height(m)   Q  ns   sdn(m)   sde(m)   sdu(m)  sdne(m)  sdeu(m)  sdun(m) age(s)  ratio
2005/04/02 00:00:00.000   35.160865956  139.613842998    68.3784   1   7   0.0041   0.0031   0.0096   0.0015  -0.0033  -0.0039   0.00   24.9
2005/04/02 00:00:30.000   35.160865950  139.613843027    68.3717   1   7   0.0041   0.0030   0.0096   0.0016  -0.0032  -0.0039   0.00   41.6
2005/04/02 00:01:00.000   35.160865937  139.613843023    68.3731   1   7   0.0041   0.0032   0.0096   0.0015  -0.0034  -0.0038   0.00   41.3
2005/04/02 00:01:30.000   35.160865926  139.613843004    68.3840   1   7   0.0041   0.0030   0.0095   0.0015  -0.0034  -0.0038   0.00   53.6
2005/04/02 00:02:00.000   35.160865972  139.613843055    68.3810   1   7   0.0039   0.0031   0.0096   0.0013  -0.0033  -0.0038   0.00   65.0
2005/04/02 00:02:30.000   35.160865963  139.613843040    68.3787   1   7   0.0040   0.0032   0.0096   0.0018  -0.0031  -0.0038   0.00   68.7
2005/04/02 00:03:00.000   35.160865941  139.613843019    68.3916   1   7   0.0041   0.0033   0.0095   0.0017  -0.0030  -0.0038   0.00   78.6
2005/04/02 00:03:30.000   35.160865924  139.613842998    68.3960   1   7   0.0039   0.0030   0.0095   0.0012  -0.0033  -0.0037   0.00   70.9
2005/04/02 00:04:00.000   35.160865958  139.613842990    68.3941   1   7   0.0040   0.0031   0.0095   0.0014  -0.0031  -0.0038   0.00   69.1
2005/04/02 00:04:30.000   35.160865970  139.613843069    68.3780   1   7   0.0041   0.0031   0.0095   0.0013  -0.0032  -0.0037   0.00   66.3
2005/04/02 00:05:00.000   35.160866002  139.613843022    68.3837   1   7   0.0041   0.0031   0.0094   0.0018  -0.0031  -0.0037   0.00   69.8
2005/04/02 00:05:30.000   35.160866014  139.613842984    68.3898   1   7   0.0040   0.0031   0.0095   0.0016  -0.0031  -0.0036   0.00   86.4
2005/04/02 00:06:00.000   35.160866021  139.613842999    68.3806   1   7   0.0040   0.0031   0.0094   0.0016  -0.0031  -0.0036   0.00   83.6
2005/04/02 00:06:30.000   35.160866000  139.613843001    68.3818   1   7   0.0041   0.0032   0.0094   0.0015  -0.0032  -0.0035   0.00   86.8
2005/04/02 00:07:00.000   35.160865967  139.613842968    68.3874   1   7   0.0041   0.0029   0.0094   0.0016  -0.0031  -0.0035   0.00   88.4
2005/04/02 00:07:30.000   35.160865968  139.613842966    68.3893   1   7   0.0041   0.0030   0.0094   0.0016  -0.0030  -0.0035   0.00   89.1
2005/04/02 00:08:00.000   35.160865977  139.613842995    68.3840   1   7   0.0041   0.0031   0.0094   0.0014  -0.0030  -0.0035   0.00   95.1
2005/04/02 00:08:30.000   35.160865955  139.613842962    68.3827   1   7   0.0039   0.0030   0.0094   0.0015  -0.0030  -0.0035   0.00  101.2
2005/04/02 00:09:00.000   35.160865934  139.613843001    68.3840   1   7   0.0041   0.0032   0.0093   0.0016  -0.0030  -0.0034   0.00  107.1
2005/04/02 00:09:30.000   35.160865976  139.613843073    68.3587   1   7   0.0041   0.0032   0.0094   0.0016  -0.0029  -0.0034   0.00  108.7
2005/04/02 00:10:00.000   35.160865969  139.613843033    68.3794   1   7   0.0042   0.0031   0.0093   0.0015  -0.0029  -0.0034   0.00  110.3
2005/04/02 00:10:30.000   35.160865961  139.613842999    68.3779   1   7   0.0040   0.0029   0.0093   0.0014  -0.0030  -0.0033   0.00  123.1
2005/04/02 00:11:00.000   35.160865976  139.613843026    68.3764   1   7   0.0040   0.0028   0.0093   0.0012  -0.0030  -0.0032   0.00  128.5
2005/04/02 00:11:30.000   35.160866005  139.613843053    68.3720   1   7   0.0040   0.0029   0.0093   0.0015  -0.0029  -0.0033   0.00  132.5
2005/04/02 00:12:00.000   35.160865980  139.613843031    68.3864   1   7   0.0042   0.0029   0.0092   0.0015  -0.0028  -0.0032   0.00  144.4
2005/04/02 00:12:30.000   35.160866001  139.613843054    68.3760   1   7   0.0041   0.0029   0.0092   0.0016  -0.0029  -0.0031   0.00  158.7
2005/04/02 00:13:00.000   35.160866005  139.613843030    68.3851   1   7   0.0040   0.0031   0.0092   0.0015  -0.0028  -0.0031   0.00  162.7
2005/04/02 00:13:30.000   35.160866003  139.613842991    68.3821   1   7   0.0041   0.0028   0.0092   0.0016  -0.0028  -0.0031   0.00  173.3
2005/04/02 00:14:00.000   35.160865983  139.613842988    68.3934   1   7   0.0041   0.0029   0.0092   0.0014  -0.0029  -0.0030   0.00  185.7
2005/04/02 00:14:30.000   35.160866004  139.613843023    68.3832   1   7   0.0042   0.0029   0.0091   0.0015  -0.0029  -0.0030   0.00  186.1
2005/04/02 00:15:00.000   35.160865963  139.613843038    68.3868   1   7   0.0042   0.0029   0.0092   0.0013  -0.0027  -0.0029   0.00  175.8
2005/04/02 00:15:30.000   35.160865970  139.613843019    68.3840   1   7   0.0042   0.0032   0.0091   0.0015  -0.0027  -0.0029   0.00  166.3
2005/04/02 00:16:00.000   35.160865973  139.613843044    68.3792   1   7   0.0040   0.0030   0.0092   0.0013  -0.0026  -0.0029   0.00  156.9
2005/04/02 00:16:30.000   35.160865966  139.613843033    68.3854   1   7   0.0041   0.0029   0.0091   0.0015  -0.0027  -0.0028   0.00  147.3
2005/04/02 00:17:00.000   35.160865973  139.613843028    68.3875   1   7   0.0042   0.0030   0.0091   0.0014  -0.0026  -0.0029   0.00  146.7
2005/04/02 00:17:30.000   35.160865939  139.613843031    68.3868   1   7   0.0042   0.0031   0.0091   0.0013  -0.0026  -0.0027   0.00  142.4
2005/04/02 00:18:00.000   35.160865983  139.613843060    68.3916   1   7   0.0042   0.0030   0.0091   0.0014  -0.0025  -0.0028   0.00  143.5
2005/04/02 00:18:30.000   35.160865970  139.613843051    68.3781   1   7   0.0042   0.0029   0.0091   0.0014  -0.0026  -0.0027   0.00  142.6
2005/04/02 00:19:00.000   35.160865947  139.613843061    68.3900   1   7   0.0042   0.0031   0.0090   0.0015  -0.0026  -0.0026   0.00  141.3
2005/04/02 00:19:30.000   35.160865950  139.613843053    68.3901   1   7   0.0043   0.0031   0.0090   0.0013  -0.0026  -0.0025   0.00  141.8
2005/04/02 00:20:00.000   35.160865963  139.613843043    68.3980   1   7   0.0042   0.0028   0.0091   0.0012  -0.0025  -0.0024   0.00  138.1
2005/04/02 00:20:30.000   35.160865980  139.613843041    68.3924   1   7   0.0042   0.0030   0.0090   0.0014  -0.0025  -0.0024   0.00  132.8
2005/04/02 00:20:59.999   35.160866000  139.613843063    68.3885   1   7   0.0043   0.0031   0.0090   0.0015  -0.0026  -0.0024   0.00  129.4
2005/04/02 00:21:30.000   35.160866027  139.613843030    68.3960   1   7   0.0043   0.0029   0.0090   0.0014  -0.0025  -0.0023   0.00  122.6
2005/04/02 00:22:00.000   35.160865986  139.613843014    68.4031   1   7   0.0042   0.0029   0.0090   0.0014  -0.0025  -0.0023   0.00  123.2
2005/04/02 00:22:30.000   35.160865978  139.613843008    68.3952   1   7   0.0043   0.0029   0.0090   0.0015  -0.0024  -0.0021   0.00  117.6
2005/04/02 00:23:00.000   35.160866004  139.613843037    68.4006   1   7   0.0042   0.0028   0.0090   0.0010  -0.0024  -0.0022   0.00  109.7
2005/04/02 00:23:30.000   35.160865989  139.613843024    68.4020   1   7   0.0042   0.0030   0.0090   0.0015  -0.0024  -0.0021   0.00  102.2
2005/04/02 00:24:00.000   35.160866036  139.613843089    68.3905   1   7   0.0043   0.0031   0.0090   0.0014  -0.0023  -0.0020   0.00   90.6
2005/04/02 00:24:30.000   35.160866027  139.613843081    68.4016   1   7   0.0044   0.0028   0.0090   0.0014  -0.0022  -0.0020   0.00   81.6
2005/04/02 00:25:00.000   35.160865997  139.613843044    68.4010   1   7   0.0043   0.0029   0.0090   0.0015  -0.0022  -0.0018   0.00   75.7
2005/04/02 00:25:30.000   35.160866000  139.613843054    68.4063   1   7   0.0043   0.0030   0.0090   0.0015  -0.0022  -0.0019   0.00   67.9
2005/04/02 00:26:00.000   35.160866013  139.613843083    68.4010   1   7   0.0043   0.0031   0.0090   0.0012  -0.0021  -0.0016   0.00   60.7
2005/04/02 00:26:30.000   35.160865972  139.613843102    68.3937   1   7   0.0044   0.0029   0.0091   0.0014  -0.0022  -0.0014   0.00   55.2
2005/04/02 00:27:00.000   35.160866021  139.613843084    68.4105   1   7   0.0044   0.0031   0.0090   0.0016  -0.0021  -0.0015   0.00   48.8
2005/04/02 00:27:30.000   35.160865999  139.613843072    68.4135   1   7   0.0043   0.0028   0.0090   0.0014  -0.0022  -0.0013   0.00   44.5
2005/04/02 00:28:00.000   35.160866017  139.613843055    68.4049   1   7   0.0061   0.0043   0.0128   0.0017  -0.0028  -0.0014   0.00   40.9
2005/04/02 00:28:30.000   35.160866078  139.613842339    68.4091   2   7   0.0108   0.0303   0.0212  -0.0155   0.0208  -0.0119   0.00    1.3
2005/04/02 00:29:00.000   35.160866091  139.613842383    68.4042   2   6   0.0108   0.0303   0.0212  -0.0156   0.0207  -0.0119   0.00    1.2
2005/04/02 00:29:30.000   35.160866090  139.613842375    68.4064   2   7   0.0108   0.0302   0.0212  -0.0156   0.0207  -0.0119   0.00    1.4
2005/04/02 00:30:00.000   35.160865973  139.613843055    68.3853   1   6   0.0068   0.0045   0.0143   0.0021  -0.0016   0.0035   0.00  226.9
2005/04/02 00:30:30.000   35.160865939  139.613843040    68.3788   1   6   0.0064   0.0041   0.0143   0.0026  -0.0020   0.0039   0.00  245.9
2005/04/02 00:31:00.000   35.160865930  139.613843060    68.3872   1   6   0.0071   0.0045   0.0143   0.0025  -0.0015   0.0038   0.00  259.0
2005/04/02 00:31:30.000   35.160865937  139.613843028    68.3794   1   6   0.0069   0.0043   0.0143   0.0020  -0.0013   0.0038   0.00  266.8
2005/04/02 00:32:00.000   35.160865995  139.613843085    68.3683   1   6   0.0066   0.0042   0.0143   0.0026  -0.0018   0.0042   0.00  272.4
2005/04/02 00:32:30.000   35.160865970  139.613843039    68.3820   1   6   0.0049   0.0030   0.0101   0.0018  -0.0012   0.0031   0.00   55.7
2005/04/02 00:33:00.000   35.160866016  139.613843109    68.4017   1   6   0.0314   0.0170   0.0498   0.0148   0.0140   0.0198 -30.00   55.6
2005/04/02 00:33:30.000   35.160865991  139.613843067    68.3881   1   6   0.0050   0.0029   0.0102   0.0016  -0.0010   0.0031   0.00   56.5
2005/04/02 00:34:00.000   35.160866061  139.613842992    68.3972   1   6   0.0317   0.0170   0.0498   0.0150   0.0144   0.0199 -30.00   56.0
2005/04/02 00:34:30.000   35.160866005  139.613843031    68.3817   1   6   0.0050   0.0030   0.0102   0.0018  -0.0011   0.0034   0.00   56.6
2005/04/02 00:35:00.000   35.160865951  139.613842953    68.3842   1   6   0.0319   0.0171   0.0498   0.0152   0.0149   0.0200 -30.00   55.9
2005/04/02 00:35:30.000   35.160865968  139.613843031    68.3705   1   6   0.0051   0.0029   0.0103   0.0017  -0.0004   0.0033   0.00   57.0
2005/04/02 00:36:00.000   35.160865986  139.613843077    68.3817   1   6   0.0321   0.0172   0.0497   0.0154   0.0153   0.0202 -29.99   56.6
2005/04/02 00:36:30.000   35.160865978  139.613843052    68.3763   1   6   0.0070   0.0040   0.0143   0.0024   0.0012   0.0049 -29.99   56.2
2005/04/02 00:37:00.000   35.160865976  139.613843019    68.3852   1   6   0.0071   0.0044   0.0143   0.0019   0.0008   0.0050 -29.99   55.7
2005/04/02 00:37:30.000   35.160865955  139.613843010    68.3832   1   6   0.0072   0.0042   0.0143   0.0023   0.0009   0.0052 -29.99   55.6
2005/04/02 00:38:00.000   35.160865950  139.613843026    68.3839   1   6   0.0072   0.0043   0.0143   0.0026   0.0009   0.0053 -29.99   55.4
2005/04/02 00:38:30.000   35.160865948  139.613843045    68.3864   1   6   0.0072   0.0042   0.0144   0.0023   0.0013   0.0054 -29.99   55.3
2005/04/02 00:39:00.000   35.160865932  139.613842999    68.3823   1   6   0.0073   0.0040   0.0144   0.0025   0.0008   0.0055 -29.99   54.8
2005/04/02 00:39:30.000   35.160865914  139.613842998    68.3817   1   6   0.0071   0.0039   0.0145   0.0028   0.0012   0.0056 -29.99   54.3
2005/04/02 00:40:00.000   35.160865978  139.613843006    68.3814   1   6   0.0074   0.0042   0.0145   0.0027   0.0015   0.0057 -29.99   53.5
2005/04/02 00:40:30.000   35.160865990  139.613843053    68.3866   1   6   0.0073   0.0043   0.0145   0.0025   0.0012   0.0058 -29.99   53.2
2005/04/02 00:41:00.000   35.160865946  139.613843039    68.3768   1   6   0.0074   0.0040   0.0146   0.0025   0.0011   0.0059 -29.99   53.0
2005/04/02 00:41:30.000   35.160865962  139.613843017    68.3801   1   6   0.0075   0.0043   0.0146   0.0027   0.0014   0.0060 -29.99   52.7
2005/04/02 00:42:00.000   35.160865899  139.613843001    68.3859   1   6   0.0075   0.0040   0.0147   0.0024   0.0015   0.0061 -29.99   52.2
2005/04/02 00:42:30.000   35.160865893  139.613843026    68.3827   1   6   0.0078   0.0041   0.0147   0.0028   0.0012   0.0061 -29.99   51.6
2005/04/02 00:43:00.000   35.160865889  139.613842996    68.3791   1   6   0.0075   0.0040   0.0148   0.0024   0.0020   0.0062 -29.99   51.4
2005/04/02 00:43:30.000   35.160865860  139.613842971    68.3762   1   6   0.0076   0.0043   0.0148   0.0028   0.0018   0.0064 -29.99   51.6
2005/04/02 00:44:00.000   35.160865911  139.613843012    68.3810   1   6   0.0078   0.0044   0.0148   0.0026   0.0015   0.0065 -29.99   51.6
2005/04/02 00:44:30.000   35.160865949  139.613842990    68.3913   1   6   0.0078   0.0042   0.0149   0.0025   0.0019   0.0065 -29.99   51.0
2005/04/02 00:45:00.000   35.160865959  139.613843034    68.3850   1   6   0.0078   0.0041   0.0150   0.0025   0.0019   0.0066 -29.99   50.9
2005/04/02 00:45:30.000   35.160865961  139.613843008    68.3733   1   6   0.0078   0.0042   0.0150   0.0026   0.0022   0.0067 -29.99   50.5
2005/04/02 00:46:00.000   35.160866001  139.613842999    68.3788   1   6   0.0079   0.0042   0.0151   0.0023   0.0021   0.0068 -29.99   49.9
2005/04/02 00:46:30.000   35.160866010  139.613843030    68.3730   1   6   0.0080   0.0044   0.0152   0.0023   0.0025   0.0068 -29.99   49.0
2005/04/02 00:47:00.000   35.160866004  139.613842968    68.3728   1   6   0.0080   0.0044   0.0152   0.0023   0.0025   0.0069 -29.99   49.5
2005/04/02 00:47:30.000   35.160865993  139.613842955    68.3845   1   6   0.0080   0.0041   0.0153   0.0027   0.0021   0.0070 -29.99   49.4
2005/04/02 00:48:00.000   35.160865968  139.613842939    68.3851   1   6   0.0079   0.0037   0.0153   0.0029   0.0019   0.0072 -29.99   49.2
2005/04/02 00:48:30.000   35.160865944  139.613842961    68.3734   1   6   0.0081   0.0042   0.0154   0.0028   0.0022   0.0073 -29.99   48.7
2005/04/02 00:49:00.000   35.160866030  139.613843007    68.3873   1   6   0.0082   0.0043   0.0155   0.0023   0.0026   0.0073 -29.99   48.3
2005/04/02 00:49:30.000   35.160865955  139.613842953    68.3796   1   6   0.0081   0.0040   0.0155   0.0027   0.0021   0.0075 -29.99   47.6
2005/04/02 00:50:00.000   35.160865978  139.613842969    68.3792   1   6   0.0084   0.0044   0.0156   0.0024   0.0027   0.0074 -29.99   47.2
2005/04/02 00:50:30.000   35.160865949  139.613842954    68.3783   1   6   0.0083   0.0041   0.0156   0.0026   0.0025   0.0075 -29.99   47.3
2005/04/02 00:51:00.000   35.160865973  139.613842976    68.3856   1   6   0.0085   0.0041   0.0157   0.0024   0.0026   0.0076 -29.99   47.0
2005/04/02 00:51:30.000   35.160865900  139.613843005    68.3818   1   6   0.0084   0.0041   0.0157   0.0027   0.0024   0.0077 -29.99   46.3
2005/04/02 00:52:00.000   35.160865904  139.613843030    68.3788   1   6   0.0087   0.0047   0.0159   0.0018   0.0030   0.0076 -29.99   45.3
2005/04/02 00:52:30.000   35.160865871  139.613843004    68.3695   1   6   0.0085   0.0041   0.0159   0.0026   0.0026   0.0079 -29.99   45.1
2005/04/02 00:53:00.000   35.160865897  139.613843038    68.3700   1   6   0.0087   0.0044   0.0166   0.0024   0.0027   0.0083   0.01   20.7
2005/04/02 00:53:30.000   35.160865950  139.613843022    68.3790   1   7   0.0080   0.0040   0.0139   0.0019  -0.0017   0.0063   0.01   19.4
2005/04/02 00:54:00.000   35.160865980  139.613843011    68.3947   1   8   0.0084   0.0039   0.0128   0.0015   0.0018   0.0061   0.01   17.3
2005/04/02 00:54:30.000   35.160865961  139.613843005    68.3879   1   8   0.0082   0.0042   0.0127   0.0011   0.0016   0.0063   0.01   17.3
2005/04/02 00:55:00.000   35.160865980  139.613843014    68.3812   1   8   0.0081   0.0040   0.0128   0.0018   0.0020   0.0062   0.01   16.7
2005/04/02 00:55:30.000   35.160866012  139.613843028    68.3934   1   8   0.0079   0.0042   0.0128   0.0022   0.0016   0.0064   0.01   15.1
2005/04/02 00:56:00.000   35.160865913  139.613843002    68.3886   1   8   0.0084   0.0040   0.0128   0.0014   0.0022   0.0061   0.01   14.2
2005/04/02 00:56:30.000   35.160865990  139.613842977    68.3879   1   8   0.0084   0.0042   0.0126  -0.0008   0.0007   0.0064   0.01   12.1
2005/04/02 00:57:00.000   35.160865962  139.613842973    68.3889   1   8   0.0083   0.0041   0.0127   0.0010   0.0013   0.0064   0.01   11.5
2005/04/02 00:57:30.000   35.160866018  139.613843036    68.3865   1   8   0.0082   0.0042   0.0127   0.0014   0.0013   0.0064   0.01   11.7
2005/04/02 00:58:00.000   35.160866024  139.613842985    68.3728   1   8   0.0083   0.0041   0.0127   0.0015   0.0014   0.0064   0.01   12.4
2005/04/02 00:58:30.000   35.160865989  139.613842988    68.3783   1   8   0.0081   0.0038   0.0128   0.0017   0.0016   0.0064   0.01   12.8
2005/04/02 00:59:00.000   35.160866041  139.613842992    68.3857   1   8   0.0083   0.0039   0.0127   0.0013   0.0011   0.0065   0.01    8.5
2005/04/02 00:59:30.000   35.160866041  139.613843012    68.3825   1   8   0.0083   0.0040   0.0127   0.0012   0.0014   0.0064   0.01    4.6
