% program   : rnx2rtkp ver.2.4.2
% inp file  : ../../../test/data/rinex/07590920.05o
% inp file  : ../../../test/data/rinex/30400920.05n
% obs start : 2005/04/02 00:00:00.0 GPST (week1316 518400.0s)
% obs end   : 2005/04/02 00:59:30.0 GPST (week1316 521970.0s)
% ref pos   : 35.132057068  139.624306577    73.9077
%
% (lat/lon/height=WGS84/ellipsoidal,Q=1:fix,2:float,3:sbas,4:dgps,5:single,6:ppp,ns=# of satellites)
%  GPST                  latitude(deg) longitude(deg)  height(m)   Q  ns   sdn(m)   sde(m)   sdu(m)  sdne(m)  sdeu(m)  sdun(m) age(s)  ratio
2005/04/02 00:00:00.000   35.160874723  139.613828338    70.5181   5   7   2.9983   2.4321   6.6568   1.1028  -2.8037  -2.1170   0.00    0.0
2005/04/02 00:00:30.000   35.160875103  139.613830759    70.1361   5   7   3.0057   2.4306   6.6553   1.1028  -2.7948  -2.1183   0.00    0.0
2005/04/02 00:01:00.000   35.160874130  139.613831998    69.9105   5   7   3.0131   2.4291   6.6533   1.1027  -2.7857  -2.1195   0.00    0.0
2005/04/02 00:01:30.000   35.160871385  139.613830780    70.6352   5   7   3.0207   2.4276   6.6509   1.1026  -2.7764  -2.1206   0.00    0.0
2005/04/02 00:02:00.000   35.160870602  139.613831505    69.6329   5   7   3.0282   2.4261   6.6480   1.1025  -2.7669  -2.1217   0.00    0.0
2005/04/02 00:02:30.000   35.160873032  139.613828145    70.7417   5   7   3.0359   2.4246   6.6447   1.1023  -2.7572  -2.1226   0.00    0.0
2005/04/02 00:03:00.000   35.160874018  139.613832185    70.5180   5   7   3.0435   2.4232   6.6410   1.1022  -2.7472  -2.1235   0.00    0.0
2005/04/02 00:03:30.000   35.160873302  139.613834744    70.0357   5   7   3.0513   2.4218   6.6368   1.1020  -2.7370  -2.1242   0.00    0.0
2005/04/02 00:04:00.000   35.160871490  139.613831436    70.8992   5   7   3.0591   2.4203   6.6323   1.1017  -2.7267  -2.1249   0.00    0.0
2005/04/02 00:04:30.000   35.160875477  139.613830843    70.3514   5   7   3.0669   2.4189   6.6274   1.1015  -2.7161  -2.1255   0.00    0.0
2005/04/02 00:05:00.000   35.160878109  139.613833533    70.3069   5   7   3.0749   2.4175   6.6222   1.1012  -2.7053  -2.1261   0.00    0.0
2005/04/02 00:05:30.000   35.160872239  139.613831679    69.8723   5   7   3.0828   2.4162   6.6165   1.1009  -2.6944  -2.1265   0.00    0.0
2005/04/02 00:06:00.000   35.160875563  139.613831439    69.8601   5   7   3.0909   2.4148   6.6106   1.1005  -2.6833  -2.1269   0.00    0.0
2005/04/02 00:06:30.000   35.160870918  139.613832992    70.6125   5   7   3.0990   2.4135   6.6043   1.1002  -2.6720  -2.1273   0.00    0.0
2005/04/02 00:07:00.000   35.160871915  139.613834336    70.2568   5   7   3.1071   2.4123   6.5977   1.0998  -2.6605  -2.1275   0.00    0.0
2005/04/02 00:07:30.000   35.160870389  139.613833531    70.5081   5   7   3.1154   2.4110   6.5907   1.0994  -2.6488  -2.1277   0.00    0.0
2005/04/02 00:08:00.000   35.160875564  139.613832058    70.5887   5   7   3.1237   2.4098   6.5835   1.0990  -2.6370  -2.1279   0.00    0.0
2005/04/02 00:08:30.000   35.160874500  139.613834381    70.0167   5   7   3.1320   2.4086   6.5760   1.0985  -2.6251  -2.1279   0.00    0.0
2005/04/02 00:09:00.000   35.160872554  139.613834572    70.2591   5   7   3.1404   2.4074   6.5682   1.0980  -2.6130  -2.1280   0.00    0.0
2005/04/02 00:09:30.000   35.160872391  139.613833350    70.0411   5   7   3.1489   2.4063   6.5602   1.0975  -2.6007  -2.1280   0.00    0.0
2005/04/02 00:10:00.000   35.160873508  139.613833206    69.9824   5   7   3.1574   2.4052   6.5520   1.0970  -2.5883  -2.1279   0.00    0.0
2005/04/02 00:10:30.000   35.160874626  139.613832447    70.0566   5   7   3.1660   2.4042   6.5435   1.0965  -2.5757  -2.1278   0.00    0.0
2005/04/02 00:11:00.000   35.160871596  139.613833990    69.6721   5   7   3.1746   2.4032   6.5347   1.0959  -2.5631  -2.1276   0.00    0.0
2005/04/02 00:11:30.000   35.160873991  139.613834170    69.2115   5   7   3.1834   2.4022   6.5258   1.0953  -2.5502  -2.1274   0.00    0.0
2005/04/02 00:12:00.000   35.160870364  139.613832680    71.0616   5   7   3.1921   2.4013   6.5167   1.0947  -2.5373  -2.1272   0.00    0.0
2005/04/02 00:12:30.000   35.160869432  139.613835285    70.0575   5   7   3.2010   2.4004   6.5074   1.0941  -2.5242  -2.1269   0.00    0.0
2005/04/02 00:13:00.000   35.160874571  139.613829695    70.1559   5   7   3.2099   2.3996   6.4979   1.0934  -2.5111  -2.1266   0.00    0.0
2005/04/02 00:13:30.000   35.160873704  139.613833404    69.4907   5   7   3.2189   2.3988   6.4883   1.0928  -2.4978  -2.1263   0.00    0.0
2005/04/02 00:14:00.000   35.160869369  139.613834621    69.3117   5   7   3.2279   2.3980   6.4785   1.0921  -2.4844  -2.1260   0.00    0.0
2005/04/02 00:14:30.000   35.160871876  139.613833798    69.6692   5   7   3.2370   2.3973   6.4686   1.0914  -2.4709  -2.1256   0.00    0.0
2005/04/02 00:15:00.000   35.160872353  139.613830898    70.2083   5   7   3.2461   2.3967   6.4586   1.0907  -2.4573  -2.1253   0.00    0.0
2005/04/02 00:15:30.000   35.160870900  139.613833660    69.9245   5   7   3.2554   2.3961   6.4485   1.0899  -2.4436  -2.1249   0.00    0.0
2005/04/02 00:16:00.000   35.160870685  139.613831781    69.7601   5   7   3.2646   2.3956   6.4383   1.0892  -2.4298  -2.1245   0.00    0.0
2005/04/02 00:16:30.000   35.160869963  139.613833210    70.2609   5   7   3.2740   2.3951   6.4280   1.0884  -2.4159  -2.1242   0.00    0.0
2005/04/02 00:17:00.000   35.160871593  139.613830572    70.4183   5   7   3.2834   2.3946   6.4176   1.0876  -2.4019  -2.1238   0.00    0.0
2005/04/02 00:17:30.000   35.160870757  139.613833760    69.6647   5   7   3.2929   2.3943   6.4072   1.0868  -2.3878  -2.1234   0.00    0.0
2005/04/02 00:18:00.000   35.160876479  139.613834481    70.7331   5   6   3.7505   2.4882   7.5267   1.5444  -1.7157   1.5952   0.00    0.0
2005/04/02 00:18:30.000   35.160873808  139.613836541    70.8222   5   6   3.7694   2.4890   7.5421   1.5509  -1.6821   1.6481   0.00    0.0
2005/04/02 00:19:00.000   35.160876328  139.613832950    70.3230   5   6   3.7886   2.4899   7.5577   1.5575  -1.6476   1.7002   0.00    0.0
2005/04/02 00:19:30.000   35.160874258  139.613835348    70.4226   5   6   3.8080   2.4909   7.5733   1.5643  -1.6122   1.7514   0.00    0.0
2005/04/02 00:20:00.000   35.160874489  139.613834300    71.2049   5   6   3.8277   2.4920   7.5890   1.5713  -1.5756   1.8019   0.00    0.0
2005/04/02 00:20:30.000   35.160872128  139.613833992    70.7689   5   6   3.8476   2.4933   7.6048   1.5785  -1.5379   1.8517   0.00    0.0
2005/04/02 00:20:59.999   35.160873421  139.613832666    71.1510   5   6   3.8677   2.4946   7.6207   1.5859  -1.4989   1.9009   0.00    0.0
2005/04/02 00:21:30.000   35.160869492  139.613835584    70.6821   5   6   3.8881   2.4961   7.6367   1.5934  -1.4587   1.9495   0.00    0.0
2005/04/02 00:22:00.000   35.160873478  139.613835857    70.8393   5   6   3.9087   2.4976   7.6528   1.6012  -1.4169   1.9976   0.00    0.0
2005/04/02 00:22:30.000   35.160871186  139.613832611    70.3131   5   6   3.9296   2.4993   7.6691   1.6091  -1.3736   2.0451   0.00    0.0
2005/04/02 00:23:00.000   35.160873711  139.613836078    69.2978   5   6   3.9507   2.5011   7.6854   1.6172  -1.3286   2.0921   0.00    0.0
2005/04/02 00:23:30.000   35.160876050  139.613836436    70.7137   5   6   3.9721   2.5031   7.7019   1.6254  -1.2817   2.1387   0.00    0.0
2005/04/02 00:24:00.000   35.160870823  139.613833037    70.2748   5   6   3.9937   2.5051   7.7185   1.6339  -1.2327   2.1849   0.00    0.0
2005/04/02 00:24:30.000   35.160873743  139.613836848    70.3728   5   6   4.0155   2.5072   7.7352   1.6425  -1.1812   2.2307   0.00    0.0
2005/04/02 00:25:00.000   35.160874306  139.613833190    69.2676   5   6   4.0376   2.5095   7.7521   1.6513  -1.1271   2.2761   0.00    0.0
2005/04/02 00:25:30.000   35.160873287  139.613834494    70.3505   5   6   4.0599   2.5119   7.7691   1.6602  -1.0699   2.3211   0.00    0.0
2005/04/02 00:26:00.000   35.160873752  139.613835032    69.4831   5   6   4.0824   2.5144   7.7862   1.6694  -1.0090   2.3657   0.00    0.0
2005/04/02 00:26:30.000   35.160872401  139.613835543    70.2505   5   6   4.1051   2.5170   7.8034   1.6787  -0.9438   2.4100   0.00    0.0
2005/04/02 00:27:00.000   35.160875170  139.613835732    69.5198   5   6   4.1280   2.5197   7.8208   1.6881  -0.8733   2.4539   0.00    0.0
2005/04/02 00:27:30.000   35.160874937  139.613836945    69.9821   5   6   4.1512   2.5226   7.8383   1.6977  -0.7961   2.4975   0.00    0.0
2005/04/02 00:28:00.000   35.160874274  139.613838261    70.4850   5   6   4.1746   2.5255   7.8560   1.7075  -0.7100   2.5408   0.00    0.0
2005/04/02 00:28:30.000   35.160873514  139.613833669    70.1381   5   6   4.1981   2.5286   7.8737   1.7174  -0.6114   2.5838   0.00    0.0
2005/04/02 00:29:00.000   35.160874351  139.613835949    70.2515   5   6   4.2219   2.5318   7.8916   1.7274  -0.4926   2.6264   0.00    0.0
2005/04/02 00:29:30.000   35.160873640  139.613835772    68.3794   5   6   4.2458   2.5351   7.9097   1.7376  -0.3330   2.6687   0.00    0.0
2005/04/02 00:30:00.000   35.160873937  139.613835116    69.7485   5   6   4.2699   2.5385   7.9278   1.7479   0.1470   2.7107   0.00    0.0
2005/04/02 00:30:30.000   35.160874743  139.613839390    70.5806   5   6   4.2942   2.5420   7.9461   1.7584   0.3934   2.7524   0.00    0.0
2005/04/02 00:31:00.000   35.160874184  139.613836572    70.0183   5   6   4.3187   2.5456   7.9645   1.7689   0.5372   2.7937   0.00    0.0
2005/04/02 00:31:30.000   35.160873624  139.613837851    70.1687   5   6   4.3433   2.5494   7.9830   1.7796   0.6505   2.8347   0.00    0.0
2005/04/02 00:32:00.000   35.160874142  139.613837174    70.5069   5   6   4.3680   2.5532   8.0016   1.7904   0.7471   2.8754   0.00    0.0
2005/04/02 00:32:30.000   35.160871576  139.613834346    69.9297   5   6   4.3929   2.5572   8.0203   1.8012   0.8330   2.9157   0.00    0.0
2005/04/02 00:33:00.000   35.160873696  139.613837541    70.0282   5   6   4.4179   2.5612   8.0392   1.8122   0.9111   2.9557   0.00    0.0
2005/04/02 00:33:30.000   35.160873845  139.613836742    69.5062   5   6   4.4430   2.5654   8.0581   1.8232   0.9833   2.9953   0.00    0.0
2005/04/02 00:34:00.000   35.160874948  139.613838746    70.7507   5   6   4.4682   2.5697   8.0771   1.8344   1.0508   3.0345   0.00    0.0
2005/04/02 00:34:30.000   35.160875531  139.613836672    69.5515   5   6   4.4935   2.5740   8.0961   1.8455   1.1144   3.0733   0.00    0.0
2005/04/02 00:35:00.000   35.160875124  139.613836871    70.5472   5   6   4.5189   2.5785   8.1153   1.8568   1.1748   3.1118   0.00    0.0
2005/04/02 00:35:30.000   35.160874210  139.613837348    70.1313   5   6   4.5443   2.5831   8.1345   1.8680   1.2324   3.1498   0.00    0.0
2005/04/02 00:36:00.000   35.160875075  139.613840929    70.2635   5   6   4.5698   2.5877   8.1538   1.8793   1.2875   3.1874   0.00    0.0
2005/04/02 00:36:30.000   35.160876262  139.613837164    69.5121   5   6   4.5953   2.5925   8.1731   1.8906   1.3405   3.2246   0.00    0.0
2005/04/02 00:37:00.000   35.160872415  139.613837428    69.6421   5   6   4.6208   2.5973   8.1924   1.9019   1.3916   3.2613   0.00    0.0
2005/04/02 00:37:30.000   35.160875593  139.613840328    70.4911   5   6   4.6463   2.6022   8.2117   1.9133   1.4410   3.2975   0.00    0.0
2005/04/02 00:38:00.000   35.160872237  139.613836438    70.0668   5   6   4.6717   2.6073   8.2311   1.9246   1.4887   3.3333   0.00    0.0
2005/04/02 00:38:30.000   35.160874772  139.613839819    70.2922   5   6   4.6972   2.6124   8.2504   1.9358   1.5351   3.3685   0.00    0.0
2005/04/02 00:39:00.000   35.160872706  139.613838137    69.4391   5   6   4.7225   2.6175   8.2698   1.9471   1.5801   3.4031   0.00    0.0
2005/04/02 00:39:30.000   35.160875065  139.613839694    70.2751   5   6   4.7478   2.6228   8.2891   1.9582   1.6238   3.4372   0.00    0.0
2005/04/02 00:40:00.000   35.160876520  139.613839140    70.1414   5   6   4.7730   2.6281   8.3083   1.9693   1.6664   3.4707   0.00    0.0
2005/04/02 00:40:30.000   35.160877281  139.613839202    70.0777   5   6   4.7980   2.6335   8.3275   1.9803   1.7079   3.5036   0.00    0.0
2005/04/02 00:41:00.000   35.160873638  139.613838492    69.6627   5   6   4.8229   2.6390   8.3466   1.9913   1.7484   3.5359   0.00    0.0
2005/04/02 00:41:30.000   35.160871213  139.613835640    69.4604   5   6   4.8477   2.6446   8.3657   2.0020   1.7879   3.5675   0.00    0.0
2005/04/02 00:42:00.000   35.160871944  139.613837012    69.8989   5   6   4.8722   2.6502   8.3846   2.0127   1.8264   3.5984   0.00    0.0
2005/04/02 00:42:30.000   35.160872705  139.613837602    69.2699   5   6   4.8965   2.6558   8.4034   2.0232   1.8641   3.6286   0.00    0.0
2005/04/02 00:43:00.000   35.160871698  139.613837843    69.4233   5   6   4.9206   2.6616   8.4220   2.0336   1.9009   3.6580   0.00    0.0
2005/04/02 00:43:30.000   35.160873606  139.613842292    69.2770   5   6   4.9445   2.6673   8.4405   2.0437   1.9368   3.6867   0.00    0.0
2005/04/02 00:44:00.000   35.160869956  139.613841778    69.7949   5   6   4.9680   2.6731   8.4588   2.0537   1.9720   3.7145   0.00    0.0
2005/04/02 00:44:30.000   35.160871207  139.613839384    69.8840   5   6   4.9912   2.6790   8.4769   2.0634   2.0064   3.7415   0.00    0.0
2005/04/02 00:45:00.000   35.160872038  139.613842218    69.4421   5   6   5.0141   2.6849   8.4948   2.0729   2.0400   3.7677   0.00    0.0
2005/04/02 00:45:30.000   35.160875861  139.613839274    69.3436   5   6   5.0367   2.6908   8.5125   2.0822   2.0728   3.7929   0.00    0.0
2005/04/02 00:46:00.000   35.160875872  139.613840940    69.7921   5   6   5.0588   2.6968   8.5299   2.0912   2.1049   3.8172   0.00    0.0
2005/04/02 00:46:30.000   35.160874935  139.613838882    69.2496   5   6   5.0806   2.7028   8.5470   2.0999   2.1363   3.8406   0.00    0.0
2005/04/02 00:47:00.000   35.160872569  139.613840322    68.7813   5   6   5.1019   2.7088   8.5639   2.1082   2.1670   3.8629   0.00    0.0
2005/04/02 00:47:30.000   35.160871023  139.613837827    69.7412   5   6   5.1228   2.7149   8.5804   2.1163   2.1970   3.8843   0.00    0.0
2005/04/02 00:48:00.000   35.160872486  139.613840268    68.9052   5   6   5.1431   2.7209   8.5966   2.1240   2.2264   3.9045   0.00    0.0
2005/04/02 00:48:30.000   35.160877041  139.613840266    69.8596   5   6   5.1630   2.7270   8.6125   2.1313   2.2550   3.9237   0.00    0.0
2005/04/02 00:49:00.000   35.160873784  139.613838410    69.2589   5   6   5.1823   2.7331   8.6281   2.1383   2.2830   3.9417   0.00    0.0
2005/04/02 00:49:30.000   35.160874061  139.613839737    69.6755   5   6   5.2011   2.7392   8.6432   2.1449   2.3103   3.9586   0.00    0.0
2005/04/02 00:50:00.000   35.160870606  139.613837740    69.2388   5   6   5.2193   2.7453   8.6580   2.1510   2.3369   3.9743   0.00    0.0
2005/04/02 00:50:30.000   35.160869592  139.613838865    69.4845   5   6   5.2368   2.7514   8.6724   2.1567   2.3629   3.9888   0.00    0.0
2005/04/02 00:51:00.000   35.160869715  139.613837056    69.1623   5   6   5.2538   2.7575   8.6864   2.1620   2.3883   4.0020   0.00    0.0
2005/04/02 00:51:30.000   35.160874666  139.613839892    69.0989   5   6   5.2701   2.7636   8.7000   2.1667   2.4130   4.0139   0.00    0.0
2005/04/02 00:52:00.000   35.160873247  139.613837008    68.8654   5   6   5.2858   2.7696   8.7131   2.1710   2.4372   4.0246   0.00    0.0
2005/04/02 00:52:30.000   35.160875219  139.613842470    68.9516   5   6   5.3008   2.7757   8.7257   2.1748   2.4606   4.0338   0.00    0.0
2005/04/02 00:53:00.000   35.160872487  139.613837691    68.5004   5   6   5.3150   2.7817   8.7380   2.1781   2.4835   4.0418   0.00    0.0
2005/04/02 00:53:30.000   35.160872903  139.613840658    68.4385   5   6   5.3286   2.7877   8.7497   2.1808   2.5058   4.0483   0.00    0.0
2005/04/02 00:54:00.000   35.160872185  139.613839562    69.1206   5   6   5.3414   2.7937   8.7610   2.1829   2.5274   4.0534   0.00    0.0
2005/04/02 00:54:30.000   35.160872218  139.613837413    68.7311   5   6   5.3535   2.7997   8.7718   2.1845   2.5485   4.0571   0.00    0.0
2005/04/02 00:55:00.000   35.160871220  139.613840996    69.4061   5   6   5.3649   2.8057   8.7822   2.1856   2.5690   4.0593   0.00    0.0
2005/04/02 00:55:30.000   35.160870079  139.613837969    68.7680   5   6   5.3754   2.8116   8.7920   2.1860   2.5889   4.0600   0.00    0.0
2005/04/02 00:56:00.000   35.160869288  139.613838631    68.1347   5   6   5.3852   2.8175   8.8014   2.1858   2.6082   4.0592   0.00    0.0
2005/04/02 00:56:30.000   35.160865154  139.613836767    68.5533   5   6   5.3943   2.8233   8.8104   2.1850   2.6270   4.0569   0.00    0.0
2005/04/02 00:57:00.000   35.160922801  139.613825320    84.1724   5   5  27.1753   5.7094  69.1945 -11.2831 -18.2578  42.9447   0.00    0.0
