% program   : RTKLIB ver.2.4.2
% inp file  : ../../../test/data/rinex/07590920.05o
% inp file  : ../../../test/data/rinex/30400920.05n
% inp file  : ../../../test/data/rinex/30400920.05o
% obs start : 2005/04/02 00:00:00.0 GPST (week1316 518400.0s)
% obs end   : 2005/04/02 00:59:30.0 GPST (week1316 521970.0s)
% pos mode  : kinematic
% freqs     : L1+L2
% solution  : forward
% elev mask : 15.0 deg
% dynamics  : off
% tidecorr  : off
% ionos opt : broadcast
% tropo opt : saastamoinen
% ephemeris : broadcast
% amb res   : fix and hold
% val thres : 3.0
% antenna1  : *                     ( 0.0000  0.0000  0.0000)
% antenna2  : *                     ( 0.0000  0.0000  0.0000)
% ref pos   : 350755.40544 1393727.50368   73.9077
%
% (lat/lon/height=WGS84/geodetic,Q=1:fix,2:float,3:sbas,4:dgps,5:single,6:ppp,ns=# of satellites)
%  GPST                          latitude(d'")   longitude(d'")  height(m)   Q  ns   sdn(m)   sde(m)   sdu(m)  sdne(m)  sdeu(m)  sdue(m) age(s)  ratio
2005/04/02 00:00:00.000257662   35 09 39.11744  139 36 49.83479    31.9009   1   7   0.0058   0.0044   0.0136   0.0022  -0.0047  -0.0055   0.00   24.9
2005/04/02 00:00:30.000215821   35 09 39.11742  139 36 49.83490    31.8942   1   7   0.0057   0.0045   0.0136   0.0022  -0.0046  -0.0055   0.00   41.6
2005/04/02 00:01:00.000173980   35 09 39.11737  139 36 49.83488    31.8956   1   7   0.0059   0.0044   0.0135   0.0025  -0.0047  -0.0053   0.00   41.3
2005/04/02 00:01:30.000132137   35 09 39.11734  139 36 49.83481    31.9065   1   7   0.0058   0.0043   0.0135   0.0020  -0.0045  -0.0055   0.00   53.6
2005/04/02 00:02:00.000090297   35 09 39.11750  139 36 49.83500    31.9035   1   7   0.0059   0.0043   0.0135   0.0021  -0.0046  -0.0054   0.00   65.0
2005/04/02 00:02:30.000048451   35 09 39.11747  139 36 49.83494    31.9012   1   7   0.0058   0.0047   0.0135   0.0025  -0.0043  -0.0054   0.00   68.7
2005/04/02 00:03:00.000006608   35 09 39.11739  139 36 49.83487    31.9141   1   7   0.0058   0.0044   0.0135   0.0022  -0.0045  -0.0053   0.00   78.6
2005/04/02 00:03:29.999964766   35 09 39.11733  139 36 49.83479    31.9184   1   7   0.0058   0.0046   0.0134   0.0024  -0.0044  -0.0053   0.00   70.9
2005/04/02 00:03:59.999922921   35 09 39.11745  139 36 49.83476    31.9166   1   7   0.0061   0.0044   0.0134   0.0022  -0.0046  -0.0052   0.00   69.1
2005/04/02 00:04:29.999881077   35 09 39.11749  139 36 49.83505    31.9005   1   7   0.0057   0.0043   0.0135   0.0022  -0.0046  -0.0050   0.00   66.3
2005/04/02 00:04:59.999839233   35 09 39.11761  139 36 49.83488    31.9062   1   7   0.0056   0.0041   0.0134   0.0021  -0.0044  -0.0051   0.00  450.7
2005/04/02 00:05:29.999797388   35 09 39.11765  139 36 49.83474    31.9123   1   7   0.0058   0.0043   0.0134   0.0022  -0.0045  -0.0050   0.00  709.6
2005/04/02 00:05:59.999755541   35 09 39.11768  139 36 49.83479    31.9031   1   7   0.0055   0.0044   0.0134   0.0024  -0.0042  -0.0052   0.00  898.8
2005/04/02 00:06:29.999713691   35 09 39.11760  139 36 49.83480    31.9043   1   7   0.0059   0.0044   0.0133   0.0019  -0.0044  -0.0051   0.00  999.9
2005/04/02 00:06:59.999671843   35 09 39.11748  139 36 49.83469    31.9098   1   7   0.0057   0.0044   0.0133   0.0018  -0.0044  -0.0050   0.00  999.9
2005/04/02 00:07:29.999629992   35 09 39.11749  139 36 49.83468    31.9118   1   7   0.0057   0.0039   0.0133   0.0020  -0.0045  -0.0050   0.00  999.9
2005/04/02 00:07:59.999588140   35 09 39.11752  139 36 49.83478    31.9065   1   7   0.0057   0.0044   0.0132   0.0023  -0.0042  -0.0049   0.00  999.9
2005/04/02 00:08:29.999546289   35 09 39.11744  139 36 49.83466    31.9052   1   7   0.0056   0.0042   0.0133   0.0024  -0.0043  -0.0047   0.00  999.9
2005/04/02 00:08:59.999504435   35 09 39.11736  139 36 49.83481    31.9065   1   7   0.0057   0.0039   0.0132   0.0020  -0.0044  -0.0049   0.00  999.9
2005/04/02 00:09:30.000462578   35 09 39.11751  139 36 49.83506    31.8812   1   7   0.0058   0.0039   0.0133   0.0020  -0.0043  -0.0047   0.00  999.9
2005/04/02 00:10:00.000420720   35 09 39.11749  139 36 49.83492    31.9019   1   7   0.0058   0.0045   0.0131   0.0025  -0.0043  -0.0047   0.00  999.9
2005/04/02 00:10:30.000378860   35 09 39.11746  139 36 49.83480    31.9004   1   7   0.0059   0.0041   0.0131   0.0022  -0.0043  -0.0047   0.00  999.9
2005/04/02 00:11:00.000337001   35 09 39.11751  139 36 49.83489    31.8989   1   7   0.0059   0.0042   0.0131   0.0021  -0.0041  -0.0046   0.00  999.9
2005/04/02 00:11:30.000295140   35 09 39.11762  139 36 49.83499    31.8945   1   7   0.0057   0.0048   0.0131   0.0022  -0.0040  -0.0047   0.00  999.9
2005/04/02 00:12:00.000253273   35 09 39.11753  139 36 49.83491    31.9089   1   7   0.0060   0.0043   0.0130   0.0025  -0.0041  -0.0045   0.00  999.9
2005/04/02 00:12:30.000211410   35 09 39.11760  139 36 49.83499    31.8985   1   7   0.0059   0.0044   0.0131   0.0021  -0.0041  -0.0044   0.00  999.9
2005/04/02 00:13:00.000169542   35 09 39.11762  139 36 49.83491    31.9076   1   7   0.0056   0.0045   0.0131   0.0023  -0.0039  -0.0043   0.00  999.9
2005/04/02 00:13:30.000127676   35 09 39.11761  139 36 49.83477    31.9046   1   7   0.0057   0.0038   0.0130   0.0020  -0.0039  -0.0045   0.00  999.9
2005/04/02 00:14:00.000085806   35 09 39.11754  139 36 49.83476    31.9159   1   7   0.0059   0.0046   0.0130   0.0020  -0.0038  -0.0044   0.00  999.9
2005/04/02 00:14:30.000043933   35 09 39.11762  139 36 49.83488    31.9057   1   7   0.0058   0.0043   0.0129   0.0021  -0.0040  -0.0042   0.00  999.9
2005/04/02 00:15:00.000002059   35 09 39.11747  139 36 49.83494    31.9093   1   7   0.0056   0.0036   0.0130   0.0019  -0.0040  -0.0042   0.00  999.9
2005/04/02 00:15:29.999960186   35 09 39.11749  139 36 49.83487    31.9065   1   7   0.0060   0.0045   0.0129   0.0023  -0.0038  -0.0041   0.00  999.9
2005/04/02 00:15:59.999918312   35 09 39.11750  139 36 49.83496    31.9017   1   7   0.0060   0.0045   0.0129   0.0025  -0.0038  -0.0038   0.00  999.9
2005/04/02 00:16:29.999876436   35 09 39.11748  139 36 49.83492    31.9079   1   7   0.0056   0.0038   0.0129   0.0018  -0.0038  -0.0042   0.00  999.9
2005/04/02 00:16:59.999834557   35 09 39.11750  139 36 49.83490    31.9100   1   7   0.0060   0.0043   0.0128   0.0022  -0.0039  -0.0040   0.00  999.9
2005/04/02 00:17:29.999792677   35 09 39.11738  139 36 49.83491    31.9093   1   7   0.0060   0.0042   0.0129   0.0020  -0.0039  -0.0038   0.00  999.9
2005/04/02 00:17:59.999750787   35 09 39.11750  139 36 49.83499    31.9099   1   6   0.0060   0.0042   0.0141   0.0021  -0.0030  -0.0024   0.00  999.9
2005/04/02 00:18:29.999708895   35 09 39.11747  139 36 49.83497    31.8998   1   6   0.0062   0.0047   0.0142   0.0023  -0.0026  -0.0025   0.00  999.9
2005/04/02 00:18:59.999667001   35 09 39.11741  139 36 49.83502    31.9129   1   6   0.0062   0.0044   0.0141   0.0024  -0.0029  -0.0020   0.00  999.9
2005/04/02 00:19:29.999625102   35 09 39.11736  139 36 49.83495    31.9058   1   6   0.0062   0.0039   0.0142   0.0022  -0.0028  -0.0016   0.00  999.9
2005/04/02 00:19:59.999583197   35 09 39.11738  139 36 49.83490    31.9116   1   6   0.0064   0.0043   0.0142   0.0022  -0.0026  -0.0020   0.00  999.9
2005/04/02 00:20:29.999541297   35 09 39.11742  139 36 49.83488    31.9032   1   6   0.0063   0.0039   0.0142   0.0019  -0.0026  -0.0017   0.00  999.9
2005/04/02 00:20:59.999499396   35 09 39.11753  139 36 49.83499    31.9038   1   6   0.0061   0.0040   0.0140   0.0025  -0.0029  -0.0016   0.00  999.9
2005/04/02 00:21:30.000457497   35 09 39.11756  139 36 49.83483    31.9041   1   6   0.0060   0.0045   0.0142   0.0016  -0.0026   0.0004   0.00  999.9
2005/04/02 00:22:00.000415600   35 09 39.11746  139 36 49.83480    31.9159   1   6   0.0062   0.0044   0.0142   0.0021  -0.0027   0.0014   0.00  999.9
2005/04/02 00:22:30.000373706   35 09 39.11741  139 36 49.83477    31.9055   1   6   0.0063   0.0041   0.0141   0.0024  -0.0026   0.0012   0.00  999.9
2005/04/02 00:23:00.000331813   35 09 39.11745  139 36 49.83484    31.9062   1   6   0.0063   0.0040   0.0142   0.0024  -0.0024   0.0014   0.00  999.9
2005/04/02 00:23:30.000289913   35 09 39.11743  139 36 49.83481    31.9106   1   6   0.0063   0.0043   0.0142   0.0022  -0.0024   0.0018   0.00  999.9
2005/04/02 00:24:00.000248017   35 09 39.11756  139 36 49.83503    31.8952   1   6   0.0065   0.0041   0.0142   0.0024  -0.0025   0.0017   0.00  999.9
2005/04/02 00:24:30.000206119   35 09 39.11753  139 36 49.83500    31.9074   1   6   0.0062   0.0039   0.0141   0.0022  -0.0027   0.0025   0.00  999.9
2005/04/02 00:25:00.000164224   35 09 39.11744  139 36 49.83488    31.9099   1   6   0.0061   0.0041   0.0141   0.0023  -0.0026   0.0023   0.00  999.9
2005/04/02 00:25:30.000122323   35 09 39.11742  139 36 49.83491    31.9109   1   6   0.0065   0.0038   0.0142   0.0027  -0.0022   0.0022   0.00  999.9
2005/04/02 00:26:00.000080426   35 09 39.11745  139 36 49.83500    31.9045   1   6   0.0064   0.0044   0.0142   0.0021  -0.0020   0.0027   0.00  999.9
2005/04/02 00:26:30.000038525   35 09 39.11741  139 36 49.83512    31.9074   1   6   0.0066   0.0042   0.0142   0.0025  -0.0021   0.0026   0.00  999.9
2005/04/02 00:26:59.999996625   35 09 39.11744  139 36 49.83499    31.9099   1   6   0.0062   0.0038   0.0142   0.0019  -0.0022   0.0030   0.00  999.9
2005/04/02 00:27:29.999954722   35 09 39.11739  139 36 49.83496    31.9171   1   6   0.0065   0.0043   0.0142   0.0024  -0.0021   0.0031   0.00  999.9
2005/04/02 00:27:59.999912818   35 09 39.11745  139 36 49.83490    31.9089   1   6   0.0065   0.0045   0.0142   0.0024  -0.0020   0.0031   0.00  999.9
2005/04/02 00:28:29.999870915   35 09 39.11740  139 36 49.83483    31.9085   1   6   0.0068   0.0038   0.0142   0.0023  -0.0021   0.0031   0.00  999.9
2005/04/02 00:28:59.999829008   35 09 39.11743  139 36 49.83488    31.9034   1   6   0.0066   0.0044   0.0143   0.0016  -0.0016   0.0034   0.00  999.9
2005/04/02 00:29:29.999787107   35 09 39.11737  139 36 49.83488    31.9075   1   6   0.0066   0.0042   0.0142   0.0023  -0.0019   0.0035   0.00  999.9
2005/04/02 00:29:59.999745195   35 09 39.11750  139 36 49.83500    31.9081   1   6   0.0069   0.0044   0.0143   0.0004  -0.0011   0.0033   0.00  999.9
2005/04/02 00:30:29.999703284   35 09 39.11738  139 36 49.83494    31.9013   1   6   0.0067   0.0045   0.0143   0.0023  -0.0017   0.0038   0.00  999.9
2005/04/02 00:30:59.999661375   35 09 39.11735  139 36 49.83502    31.9097   1   6   0.0068   0.0045   0.0144   0.0022  -0.0009   0.0039   0.00  999.9
2005/04/02 00:31:29.999619460   35 09 39.11737  139 36 49.83490    31.9019   1   6   0.0067   0.0042   0.0143   0.0029  -0.0018   0.0041   0.00  999.9
2005/04/02 00:31:59.999577544   35 09 39.11758  139 36 49.83511    31.8907   1   6   0.0072   0.0043   0.0143   0.0021  -0.0017   0.0041   0.00  999.9
2005/04/02 00:32:29.999535630   35 09 39.11749  139 36 49.83494    31.9045   1   6   0.0073   0.0047   0.0144   0.0016  -0.0002   0.0040   0.00  999.9
2005/04/02 00:33:00.000493712   35 09 39.11793  139 36 49.83544    31.9378   1   6   0.0445   0.0240   0.0705   0.0209   0.0198   0.0280 -30.00  999.9
2005/04/02 00:33:30.000451796   35 09 39.11757  139 36 49.83504    31.9106   1   6   0.0069   0.0042   0.0144   0.0027  -0.0015   0.0045   0.00  999.9
2005/04/02 00:34:00.000409875   35 09 39.11803  139 36 49.83479    31.9216   1   6   0.0448   0.0241   0.0704   0.0212   0.0204   0.0282 -30.00  999.9
2005/04/02 00:34:30.000367960   35 09 39.11762  139 36 49.83491    31.9042   1   6   0.0070   0.0040   0.0144   0.0023  -0.0009   0.0047   0.00  999.9
2005/04/02 00:35:00.000326037   35 09 39.11719  139 36 49.83438    31.9015   1   6   0.0451   0.0242   0.0704   0.0215   0.0211   0.0284 -30.00  999.9
2005/04/02 00:35:30.000284116   35 09 39.11749  139 36 49.83491    31.8930   1   6   0.0070   0.0040   0.0145   0.0029  -0.0012   0.0049   0.00  999.9
2005/04/02 00:36:00.000242194   35 09 39.11744  139 36 49.83507    31.8957   1   6   0.0454   0.0244   0.0703   0.0218   0.0217   0.0285 -29.99  999.9
2005/04/02 00:36:30.000200271   35 09 39.11758  139 36 49.83434    31.9357   1   6   0.0456   0.0245   0.0703   0.0219   0.0220   0.0285 -29.99  999.9
2005/04/02 00:37:00.000158346   35 09 39.11716  139 36 49.83406    31.8950   1   6   0.0457   0.0245   0.0703   0.0220   0.0222   0.0286 -29.99  999.9
2005/04/02 00:37:30.000116417   35 09 39.11806  139 36 49.83365    31.9607   1   6   0.0458   0.0246   0.0702   0.0221   0.0225   0.0286 -29.99  999.9
2005/04/02 00:38:00.000074493   35 09 39.11783  139 36 49.83374    31.9726   1   6   0.0460   0.0247   0.0702   0.0222   0.0228   0.0287 -29.99  999.9
2005/04/02 00:38:30.000032573   35 09 39.11819  139 36 49.83410    31.9966   1   6   0.0461   0.0247   0.0702   0.0223   0.0230   0.0287 -29.99  999.9
2005/04/02 00:38:59.999990658   35 09 39.11803  139 36 49.83409    31.9353   1   6   0.0462   0.0248   0.0701   0.0225   0.0233   0.0287 -29.99  999.9
2005/04/02 00:39:29.999948739   35 09 39.11695  139 36 49.83351    31.9222   1   6   0.0464   0.0249   0.0701   0.0226   0.0235   0.0287 -29.99  999.9
2005/04/02 00:39:59.999906823   35 09 39.11760  139 36 49.83445    31.9259   1   6   0.0465   0.0250   0.0700   0.0227   0.0238   0.0287 -29.99  999.9
2005/04/02 00:40:29.999864907   35 09 39.11823  139 36 49.83498    31.9242   1   6   0.0466   0.0250   0.0700   0.0228   0.0240   0.0287 -29.99  999.9
2005/04/02 00:40:59.999822988   35 09 39.11914  139 36 49.83499    31.9431   1   6   0.0467   0.0251   0.0699   0.0229   0.0243   0.0287 -29.99  999.9
2005/04/02 00:41:29.999781065   35 09 39.11824  139 36 49.83440    31.9655   1   6   0.0468   0.0252   0.0699   0.0230   0.0245   0.0286 -29.99  999.9
2005/04/02 00:41:59.999739138   35 09 39.11599  139 36 49.83336    31.8742   1   6   0.0469   0.0253   0.0698   0.0230   0.0247   0.0286 -29.99  999.9
2005/04/02 00:42:29.999697211   35 09 39.11676  139 36 49.83431    31.9476   1   6   0.0470   0.0253   0.0698   0.0231   0.0249   0.0285 -29.99  999.9
2005/04/02 00:42:59.999655280   35 09 39.11691  139 36 49.83420    31.9157   1   6   0.0471   0.0254   0.0697   0.0232   0.0251   0.0284 -29.99  999.9
2005/04/02 00:43:29.999613345   35 09 39.11694  139 36 49.83354    31.8826   1   6   0.0472   0.0255   0.0697   0.0233   0.0253   0.0284 -29.99  999.9
2005/04/02 00:43:59.999571404   35 09 39.11728  139 36 49.83370    31.9200   1   6   0.0473   0.0256   0.0696   0.0233   0.0255   0.0283 -29.99  999.9
2005/04/02 00:44:29.999529458   35 09 39.11695  139 36 49.83438    31.9445   1   6   0.0473   0.0256   0.0696   0.0234   0.0257   0.0282 -29.99  999.9
2005/04/02 00:45:00.000487512   35 09 39.11699  139 36 49.83418    31.9522   1   6   0.0474   0.0257   0.0695   0.0235   0.0259   0.0280 -29.99  999.9
2005/04/02 00:45:30.000445561   35 09 39.11724  139 36 49.83462    31.9393   1   6   0.0475   0.0258   0.0694   0.0235   0.0260   0.0279 -29.99  999.9
2005/04/02 00:46:00.000403604   35 09 39.11870  139 36 49.83443    31.9673   1   6   0.0475   0.0258   0.0694   0.0236   0.0262   0.0278 -29.99  999.9
2005/04/02 00:46:30.000361646   35 09 39.11937  139 36 49.83593    31.9894   1   6   0.0476   0.0259   0.0693   0.0236   0.0264   0.0276 -29.99  999.9
2005/04/02 00:47:00.000319685   35 09 39.11930  139 36 49.83502    31.9959   1   6   0.0476   0.0260   0.0692   0.0236   0.0265   0.0275 -29.99  999.9
2005/04/02 00:47:30.000277716   35 09 39.11848  139 36 49.83384    31.9700   1   6   0.0477   0.0261   0.0692   0.0237   0.0267   0.0273 -29.99  999.9
2005/04/02 00:48:00.000235749   35 09 39.11827  139 36 49.83376    31.9309   1   6   0.0477   0.0261   0.0691   0.0237   0.0269   0.0271 -29.99  999.9
2005/04/02 00:48:30.000193772   35 09 39.11941  139 36 49.83571    31.9708   1   6   0.0477   0.0262   0.0690   0.0237   0.0270   0.0269 -29.99  999.9
2005/04/02 00:49:00.000151799   35 09 39.12099  139 36 49.83568    31.9725   1   6   0.0478   0.0262   0.0690   0.0237   0.0271   0.0267 -29.99  999.9
2005/04/02 00:49:30.000109818   35 09 39.11691  139 36 49.83306    31.9231   1   6   0.0478   0.0263   0.0689   0.0237   0.0273   0.0265 -29.99  999.9
2005/04/02 00:50:00.000067835   35 09 39.11803  139 36 49.83370    31.9218   1   6   0.0478   0.0264   0.0688   0.0237   0.0274   0.0262 -29.99  999.9
2005/04/02 00:50:30.000025845   35 09 39.11646  139 36 49.83225    31.9235   1   6   0.0478   0.0264   0.0688   0.0237   0.0275   0.0260 -29.99  999.9
2005/04/02 00:50:59.999983852   35 09 39.11834  139 36 49.83391    31.9378   1   6   0.0478   0.0265   0.0687   0.0237   0.0277   0.0257 -29.99  999.9
2005/04/02 00:51:29.999941855   35 09 39.11864  139 36 49.83524    31.9973   1   6   0.0478   0.0266   0.0686   0.0237   0.0278   0.0254 -29.99  999.9
2005/04/02 00:51:59.999899853   35 09 39.11747  139 36 49.83456    31.9591   1   6   0.0478   0.0266   0.0685   0.0237   0.0279   0.0251 -29.99  999.9
2005/04/02 00:52:29.999857848   35 09 39.11818  139 36 49.83413    31.9385   1   6   0.0478   0.0267   0.0685   0.0236   0.0280   0.0248 -29.99  999.9
2005/04/02 00:52:59.999815839   35 09 39.11798  139 36 49.83415    31.9400   1   6   0.0478   0.0267   0.0684   0.0236   0.0281   0.0245 -29.99  999.9
2005/04/02 00:53:29.999773825   35 09 39.11626  139 36 49.83250    31.9388   1   6   0.0478   0.0268   0.0683   0.0236   0.0282   0.0242 -29.99  999.9
2005/04/02 00:53:59.999731804   35 09 39.11668  139 36 49.83312    31.9233   1   6   0.0478   0.0268   0.0682   0.0235   0.0283   0.0238 -29.99  999.9
2005/04/02 00:54:29.999689781   35 09 39.11885  139 36 49.83417    31.9542   1   6   0.0477   0.0269   0.0682   0.0235   0.0284   0.0234 -29.99  999.9
2005/04/02 00:54:59.999647753   35 09 39.11967  139 36 49.83547    31.9966   1   6   0.0477   0.0269   0.0681   0.0234   0.0285   0.0231 -29.99  999.9
2005/04/02 00:55:29.999605721   35 09 39.11788  139 36 49.83452    32.0210   1   6   0.0477   0.0270   0.0680   0.0233   0.0286   0.0227 -29.99  999.9
2005/04/02 00:55:59.999563685   35 09 39.11794  139 36 49.83414    31.9847   1   6   0.0476   0.0270   0.0680   0.0233   0.0287   0.0223 -29.99  999.9
2005/04/02 00:56:29.999521640   35 09 39.11737  139 36 49.83478    31.8527   1   5   0.2466   0.0556   0.6227  -0.1058  -0.1709   0.3876 -29.99  999.9
2005/04/02 00:57:00.000479541   35 09 39.11764  139 36 49.83536    31.9040   1   5   0.2684   0.0580   0.6763  -0.1140  -0.1834   0.4222 -29.99  999.9
