% program   : rnx2rtkp ver.2.4.2
% inp file  : ../../../test/data/rinex/07590920.05o
% inp file  : ../../../test/data/rinex/30400920.05n
% inp file  : ../../../test/data/rinex/30400920.05o
% obs start : 2005/04/02 00:00:00.0 GPST (week1316 518400.0s)
% obs end   : 2005/04/02 00:59:30.0 GPST (week1316 521970.0s)
% ref pos   : -3978241.9580   3382840.2340   3649900.8530
%
% (x/y/z-ecef=WGS84,Q=1:fix,2:float,3:sbas,4:dgps,5:single,6:ppp,ns=# of satellites)
%  GPST                      x-ecef(m)      y-ecef(m)      z-ecef(m)   Q  ns   sdx(m)   sdy(m)   sdz(m)  sdxy(m)  sdyz(m)  sdzx(m) age(s)  ratio
2005/04/02 00:57:00.000  -3976219.1921   3382371.5920   3652511.1447   1   5   0.2748   0.2994   0.6063  -0.2853   0.4234  -0.4055 -29.99    6.3
2005/04/02 00:56:30.000  -3976220.0268   3382372.6443   3652513.2223   2   5   2.5862   2.7591   5.4698  -2.6518   3.8504  -3.7253 -29.99    3.0
2005/04/02 00:56:00.000  -3976219.0467   3382371.6034   3652510.9716   2   6   0.7318   0.7025   1.3181  -0.6694   0.8662  -0.8944 -29.99    1.0
2005/04/02 00:55:30.000  -3976219.3092   3382371.8197   3652511.4697   2   6   0.5668   0.5280   0.9626  -0.5005   0.6146  -0.6530 -29.99    1.5
2005/04/02 00:55:00.000  -3976219.3976   3382371.8102   3652511.7172   2   6   0.4818   0.4431   0.7881  -0.4179   0.4960  -0.5356 -29.99    1.3
2005/04/02 00:54:30.000  -3976219.3076   3382371.8492   3652511.5860   2   6   0.4260   0.3895   0.6762  -0.3656   0.4227  -0.4610 -29.99    1.9
2005/04/02 00:54:00.000  -3976219.2001   3382371.8172   3652511.4048   2   6   0.3851   0.3515   0.5948  -0.3283   0.3713  -0.4073 -29.99    2.0
2005/04/02 00:53:30.000  -3976219.1606   3382371.7770   3652511.2638   2   6   0.3532   0.3225   0.5314  -0.2997   0.3323  -0.3659 -29.99    2.4
2005/04/02 00:53:00.000  -3976219.1692   3382371.7370   3652511.2779   2   6   0.3273   0.2994   0.4797  -0.2768   0.3013  -0.3323 -29.99    2.3
2005/04/02 00:52:30.000  -3976219.1992   3382371.7064   3652511.3015   2   6   0.3057   0.2804   0.4365  -0.2579   0.2759  -0.3045 -29.99    2.4
2005/04/02 00:52:00.000  -3976219.2139   3382371.7227   3652511.2311   2   6   0.2874   0.2645   0.3997  -0.2419   0.2546  -0.2808 -29.99    2.4
2005/04/02 00:51:30.000  -3976219.1253   3382371.5008   3652510.9796   1   6   0.0501   0.0386   0.0608  -0.0351   0.0138  -0.0402 -29.99    3.2
2005/04/02 00:51:00.000  -3976219.0705   3382371.4973   3652510.9384   1   6   0.0500   0.0386   0.0609  -0.0350   0.0141  -0.0403 -29.99    3.0
2005/04/02 00:50:30.000  -3976219.1926   3382371.7449   3652511.1406   2   6   0.2455   0.2284   0.3156  -0.2058   0.2068  -0.2273 -29.99    2.4
2005/04/02 00:50:00.000  -3976219.2002   3382371.7045   3652511.1899   2   6   0.2346   0.2191   0.2940  -0.1964   0.1947  -0.2136 -29.99    2.4
2005/04/02 00:49:30.000  -3976219.2119   3382371.7292   3652511.1740   2   6   0.2248   0.2107   0.2748  -0.1880   0.1839  -0.2014 -29.99    2.4
2005/04/02 00:49:00.000  -3976219.2155   3382371.6331   3652511.2987   2   6   0.2160   0.2032   0.2577  -0.1805   0.1743  -0.1905 -29.99    2.4
2005/04/02 00:48:30.000  -3976219.2286   3382371.6377   3652511.2712   2   6   0.2080   0.1963   0.2423  -0.1736   0.1657  -0.1808 -29.99    2.2
2005/04/02 00:48:00.000  -3976219.1895   3382371.6615   3652511.2479   2   6   0.2007   0.1900   0.2285  -0.1673   0.1579  -0.1720 -29.99    1.9
2005/04/02 00:47:30.000  -3976219.2302   3382371.6981   3652511.3146   2   6   0.1940   0.1842   0.2161  -0.1616   0.1509  -0.1641 -29.99    1.5
2005/04/02 00:47:00.000  -3976219.2417   3382371.6346   3652511.3684   2   6   0.1878   0.1789   0.2049  -0.1562   0.1445  -0.1569 -29.99    1.2
2005/04/02 00:46:30.000  -3976219.2169   3382371.5939   3652511.3461   2   6   0.1821   0.1739   0.1948  -0.1513   0.1387  -0.1503 -29.99    1.2
2005/04/02 00:46:00.000  -3976219.1854   3382371.6132   3652511.2937   2   6   0.1768   0.1692   0.1855  -0.1467   0.1333  -0.1443 -29.99    1.2
2005/04/02 00:45:30.000  -3976219.1886   3382371.6001   3652511.2218   2   6   0.1719   0.1649   0.1771  -0.1424   0.1284  -0.1388 -29.99    1.3
2005/04/02 00:45:00.000  -3976219.1881   3382371.5947   3652511.2131   2   6   0.1673   0.1608   0.1695  -0.1384   0.1239  -0.1337 -29.99    1.3
2005/04/02 00:44:30.000  -3976219.2042   3382371.6126   3652511.1913   2   6   0.1630   0.1570   0.1625  -0.1346   0.1197  -0.1291 -29.99    1.3
2005/04/02 00:44:00.000  -3976219.1991   3382371.6255   3652511.1971   2   6   0.1589   0.1533   0.1560  -0.1311   0.1158  -0.1248 -29.99    1.2
2005/04/02 00:43:30.000  -3976219.1945   3382371.6195   3652511.1891   2   6   0.1550   0.1499   0.1501  -0.1277   0.1121  -0.1208 -29.99    1.0
2005/04/02 00:43:00.000  -3976219.2398   3382371.6418   3652511.2105   2   6   0.1514   0.1466   0.1447  -0.1245   0.1087  -0.1171 -29.99    1.1
2005/04/02 00:42:30.000  -3976219.2659   3382371.6719   3652511.2265   2   6   0.1480   0.1435   0.1397  -0.1214   0.1056  -0.1136 -29.99    1.1
2005/04/02 00:42:00.000  -3976219.2295   3382371.6824   3652511.1610   2   6   0.1447   0.1405   0.1351  -0.1185   0.1026  -0.1104 -29.99    1.2
2005/04/02 00:41:30.000  -3976219.2636   3382371.6799   3652511.2689   2   6   0.1417   0.1377   0.1308  -0.1158   0.0998  -0.1074 -29.99    1.3
2005/04/02 00:41:00.000  -3976219.2473   3382371.6452   3652511.2839   2   6   0.1387   0.1350   0.1269  -0.1131   0.0972  -0.1046 -29.99    1.4
2005/04/02 00:40:30.000  -3976219.2554   3382371.6542   3652511.2448   2   6   0.1359   0.1324   0.1232  -0.1106   0.0947  -0.1019 -29.99    1.4
2005/04/02 00:40:00.000  -3976219.2464   3382371.6695   3652511.2215   2   6   0.1332   0.1299   0.1198  -0.1082   0.0923  -0.0994 -29.99    1.4
2005/04/02 00:39:30.000  -3976219.2352   3382371.6943   3652511.2004   2   6   0.1307   0.1275   0.1166  -0.1059   0.0901  -0.0970 -29.99    1.4
2005/04/02 00:39:00.000  -3976219.2413   3382371.6876   3652511.2441   2   6   0.1282   0.1252   0.1136  -0.1036   0.0880  -0.0948 -29.99    1.6
2005/04/02 00:38:30.000  -3976219.2886   3382371.7287   3652511.2838   2   6   0.1259   0.1229   0.1108  -0.1015   0.0860  -0.0927 -29.99    1.7
2005/04/02 00:38:00.000  -3976219.2652   3382371.7144   3652511.2454   2   6   0.1236   0.1208   0.1082  -0.0994   0.0841  -0.0907 -29.99    1.6
2005/04/02 00:37:30.000  -3976219.2653   3382371.7145   3652511.2480   2   6   0.1215   0.1187   0.1058  -0.0974   0.0823  -0.0888 -29.99    1.7
2005/04/02 00:37:00.000  -3976219.2456   3382371.6896   3652511.1843   2   6   0.1194   0.1167   0.1035  -0.0955   0.0805  -0.0870 -29.99    1.7
2005/04/02 00:36:30.000  -3976219.2748   3382371.7113   3652511.2358   2   6   0.1174   0.1148   0.1013  -0.0937   0.0789  -0.0853 -29.99    2.0
2005/04/02 00:36:00.000  -3976219.2623   3382371.7204   3652511.2093   2   6   0.1154   0.1129   0.0993  -0.0919   0.0773  -0.0836 -29.99    2.2
2005/04/02 00:35:30.000  -3976219.1804   3382371.5971   3652511.1354   1   6   0.0093   0.0084   0.0112  -0.0076   0.0071  -0.0081   0.00    9.6
2005/04/02 00:35:00.000  -3976219.1792   3382371.6444   3652511.1304   1   6   0.0471   0.0400   0.0613  -0.0359   0.0241  -0.0408 -30.00    9.7
2005/04/02 00:34:30.000  -3976219.1856   3382371.6015   3652511.1451   1   6   0.0093   0.0084   0.0111  -0.0077   0.0071  -0.0080   0.00   13.0
2005/04/02 00:34:00.000  -3976219.2199   3382371.6484   3652511.2275   1   6   0.0469   0.0402   0.0611  -0.0360   0.0247  -0.0407 -30.00   12.9
2005/04/02 00:33:30.000  -3976219.1924   3382371.6029   3652511.1475   1   6   0.0090   0.0085   0.0109  -0.0076   0.0071  -0.0080   0.00   16.6
2005/04/02 00:33:00.000  -3976219.1993   3382371.6370   3652511.1523   1   6   0.0467   0.0403   0.0608  -0.0361   0.0252  -0.0406 -30.00   16.6
2005/04/02 00:32:30.000  -3976219.1880   3382371.6026   3652511.1421   1   6   0.0089   0.0085   0.0108  -0.0077   0.0070  -0.0080   0.00   20.6
2005/04/02 00:32:00.000  -3976219.1809   3382371.5910   3652511.1365   1   6   0.0089   0.0085   0.0107  -0.0078   0.0071  -0.0080   0.00   24.6
2005/04/02 00:31:30.000  -3976219.1873   3382371.6032   3652511.1377   1   6   0.0090   0.0086   0.0107  -0.0077   0.0071  -0.0079   0.00   27.7
2005/04/02 00:31:00.000  -3976219.1945   3382371.6055   3652511.1415   1   6   0.0089   0.0085   0.0105  -0.0078   0.0071  -0.0080   0.00   30.9
2005/04/02 00:30:30.000  -3976219.1875   3382371.6021   3652511.1375   1   6   0.0092   0.0086   0.0105  -0.0077   0.0070  -0.0079   0.00   33.0
2005/04/02 00:30:00.000  -3976219.1910   3382371.6032   3652511.1445   1   6   0.0091   0.0086   0.0105  -0.0078   0.0070  -0.0079   0.00   34.1
2005/04/02 00:29:30.000  -3976219.1904   3382371.6066   3652511.1409   1   6   0.0092   0.0086   0.0105  -0.0077   0.0070  -0.0078   0.00   35.5
2005/04/02 00:29:00.000  -3976219.1871   3382371.6040   3652511.1398   1   6   0.0092   0.0087   0.0104  -0.0078   0.0070  -0.0077   0.00   38.8
2005/04/02 00:28:30.000  -3976219.1898   3382371.6079   3652511.1421   1   6   0.0090   0.0087   0.0103  -0.0076   0.0070  -0.0079   0.00   41.8
2005/04/02 00:28:00.000  -3976219.1906   3382371.6062   3652511.1436   1   6   0.0092   0.0088   0.0103  -0.0077   0.0070  -0.0078   0.00   44.3
2005/04/02 00:27:30.000  -3976219.1976   3382371.6099   3652511.1469   1   6   0.0091   0.0087   0.0101  -0.0078   0.0069  -0.0079   0.00   45.4
2005/04/02 00:27:00.000  -3976219.1929   3382371.6050   3652511.1439   1   6   0.0092   0.0088   0.0102  -0.0077   0.0070  -0.0078   0.00   52.0
2005/04/02 00:26:30.000  -3976219.1938   3382371.6016   3652511.1417   1   6   0.0091   0.0086   0.0101  -0.0079   0.0071  -0.0079   0.00   57.3
2005/04/02 00:26:00.000  -3976219.1896   3382371.6019   3652511.1411   1   6   0.0092   0.0087   0.0100  -0.0079   0.0070  -0.0077   0.00   61.2
2005/04/02 00:25:30.000  -3976219.1924   3382371.6074   3652511.1440   1   6   0.0092   0.0089   0.0099  -0.0079   0.0069  -0.0077   0.00   65.6
2005/04/02 00:25:00.000  -3976219.1911   3382371.6071   3652511.1440   1   6   0.0091   0.0088   0.0099  -0.0079   0.0071  -0.0077   0.00   67.9
2005/04/02 00:24:30.000  -3976219.1903   3382371.6025   3652511.1447   1   6   0.0092   0.0089   0.0099  -0.0079   0.0069  -0.0077   0.00   72.2
2005/04/02 00:24:00.000  -3976219.1828   3382371.5951   3652511.1384   1   6   0.0091   0.0089   0.0098  -0.0079   0.0070  -0.0076   0.00   75.1
2005/04/02 00:23:30.000  -3976219.1906   3382371.6090   3652511.1440   1   6   0.0091   0.0090   0.0099  -0.0079   0.0069  -0.0077   0.00   77.7
2005/04/02 00:23:00.000  -3976219.1880   3382371.6058   3652511.1421   1   6   0.0090   0.0089   0.0096  -0.0080   0.0072  -0.0076   0.00   82.3
2005/04/02 00:22:30.000  -3976219.1869   3382371.6074   3652511.1406   1   6   0.0092   0.0091   0.0097  -0.0079   0.0069  -0.0077   0.00   85.8
2005/04/02 00:22:00.000  -3976219.1932   3382371.6118   3652511.1478   1   6   0.0091   0.0089   0.0096  -0.0081   0.0070  -0.0076   0.00   90.7
2005/04/02 00:21:30.000  -3976219.1850   3382371.6036   3652511.1437   1   6   0.0090   0.0091   0.0096  -0.0080   0.0069  -0.0076   0.00   92.5
2005/04/02 00:20:59.999  -3976219.1878   3382371.6008   3652511.1427   1   6   0.0092   0.0090   0.0094  -0.0081   0.0070  -0.0076   0.00   91.9
2005/04/02 00:20:30.000  -3976219.1872   3382371.6037   3652511.1396   1   6   0.0093   0.0091   0.0094  -0.0079   0.0072  -0.0078   0.00   90.3
2005/04/02 00:20:00.000  -3976219.1933   3382371.6084   3652511.1434   1   6   0.0092   0.0092   0.0096  -0.0082   0.0068  -0.0075   0.00   89.7
2005/04/02 00:19:30.000  -3976219.1908   3382371.6046   3652511.1394   1   6   0.0093   0.0092   0.0094  -0.0079   0.0070  -0.0076   0.00   89.0
2005/04/02 00:19:00.000  -3976219.1956   3382371.6064   3652511.1449   1   6   0.0092   0.0092   0.0094  -0.0082   0.0070  -0.0075   0.00   88.7
2005/04/02 00:18:30.000  -3976219.1859   3382371.5996   3652511.1390   1   6   0.0093   0.0092   0.0093  -0.0081   0.0072  -0.0076   0.00   89.2
2005/04/02 00:18:00.000  -3976219.1921   3382371.6044   3652511.1454   1   6   0.0094   0.0093   0.0093  -0.0081   0.0070  -0.0076   0.00   90.1
2005/04/02 00:17:30.000  -3976219.1920   3382371.6069   3652511.1421   1   7   0.0085   0.0090   0.0081  -0.0078   0.0064  -0.0062   0.00    5.1
2005/04/02 00:17:00.000  -3976219.1906   3382371.6061   3652511.1456   1   7   0.0086   0.0090   0.0080  -0.0078   0.0064  -0.0063   0.00    9.3
2005/04/02 00:16:30.000  -3976219.1899   3382371.6049   3652511.1437   1   7   0.0085   0.0091   0.0079  -0.0078   0.0066  -0.0064   0.00   12.7
2005/04/02 00:16:00.000  -3976219.1864   3382371.6006   3652511.1408   1   7   0.0085   0.0092   0.0080  -0.0078   0.0064  -0.0063   0.00   15.8
2005/04/02 00:15:30.000  -3976219.1881   3382371.6051   3652511.1433   1   7   0.0086   0.0092   0.0079  -0.0079   0.0064  -0.0063   0.00   19.0
2005/04/02 00:15:00.000  -3976219.1913   3382371.6054   3652511.1443   1   7   0.0087   0.0093   0.0080  -0.0078   0.0064  -0.0065   0.00   21.0
2005/04/02 00:14:30.000  -3976219.1861   3382371.6029   3652511.1460   1   7   0.0086   0.0092   0.0078  -0.0080   0.0063  -0.0062   0.00   23.6
2005/04/02 00:14:00.000  -3976219.1914   3382371.6116   3652511.1499   1   7   0.0087   0.0093   0.0079  -0.0079   0.0064  -0.0063   0.00   27.2
2005/04/02 00:13:30.000  -3976219.1836   3382371.6045   3652511.1452   1   7   0.0088   0.0092   0.0077  -0.0079   0.0065  -0.0064   0.00   30.9
2005/04/02 00:13:00.000  -3976219.1877   3382371.6033   3652511.1471   1   7   0.0087   0.0093   0.0078  -0.0080   0.0064  -0.0064   0.00   34.9
2005/04/02 00:12:30.000  -3976219.1836   3382371.5970   3652511.1415   1   7   0.0087   0.0094   0.0080  -0.0080   0.0063  -0.0065   0.00   38.4
2005/04/02 00:12:00.000  -3976219.1898   3382371.6050   3652511.1456   1   7   0.0087   0.0094   0.0078  -0.0080   0.0064  -0.0065   0.00   41.1
2005/04/02 00:11:30.000  -3976219.1809   3382371.5949   3652511.1395   1   7   0.0088   0.0093   0.0078  -0.0081   0.0065  -0.0063   0.00   46.9
2005/04/02 00:11:00.000  -3976219.1835   3382371.6003   3652511.1395   1   7   0.0088   0.0093   0.0077  -0.0082   0.0064  -0.0063   0.00   54.7
2005/04/02 00:10:30.000  -3976219.1835   3382371.6035   3652511.1390   1   7   0.0085   0.0094   0.0076  -0.0081   0.0066  -0.0063   0.00   60.2
2005/04/02 00:10:00.000  -3976219.1861   3382371.6017   3652511.1406   1   7   0.0088   0.0094   0.0076  -0.0082   0.0066  -0.0065   0.00   67.4
2005/04/02 00:09:30.000  -3976219.1752   3382371.5876   3652511.1293   1   7   0.0088   0.0094   0.0077  -0.0082   0.0066  -0.0064   0.00   70.6
2005/04/02 00:09:00.000  -3976219.1888   3382371.6077   3652511.1400   1   7   0.0088   0.0095   0.0077  -0.0082   0.0066  -0.0065   0.00   75.9
2005/04/02 00:08:30.000  -3976219.1846   3382371.6089   3652511.1412   1   7   0.0089   0.0096   0.0075  -0.0082   0.0066  -0.0065   0.00   86.7
2005/04/02 00:08:00.000  -3976219.1864   3382371.6064   3652511.1440   1   7   0.0090   0.0096   0.0076  -0.0082   0.0066  -0.0063   0.00   96.5
2005/04/02 00:07:30.000  -3976219.1883   3382371.6116   3652511.1462   1   7   0.0090   0.0097   0.0077  -0.0082   0.0066  -0.0064   0.00   99.6
2005/04/02 00:07:00.000  -3976219.1873   3382371.6105   3652511.1450   1   7   0.0088   0.0096   0.0076  -0.0083   0.0067  -0.0064   0.00  103.7
2005/04/02 00:06:30.000  -3976219.1842   3382371.6039   3652511.1448   1   7   0.0089   0.0097   0.0077  -0.0083   0.0067  -0.0065   0.00  106.6
2005/04/02 00:06:00.000  -3976219.1823   3382371.6025   3652511.1460   1   7   0.0091   0.0096   0.0071  -0.0084   0.0066  -0.0065   0.00  109.0
2005/04/02 00:05:30.000  -3976219.1875   3382371.6087   3652511.1507   1   7   0.0089   0.0097   0.0076  -0.0084   0.0067  -0.0064   0.00  108.5
2005/04/02 00:05:00.000  -3976219.1866   3382371.6034   3652511.1461   1   7   0.0088   0.0098   0.0076  -0.0084   0.0066  -0.0063   0.00  109.1
2005/04/02 00:04:30.000  -3976219.1873   3382371.5984   3652511.1399   1   7   0.0090   0.0097   0.0073  -0.0084   0.0069  -0.0065   0.00  116.1
2005/04/02 00:04:00.000  -3976219.1932   3382371.6129   3652511.1481   1   7   0.0091   0.0097   0.0076  -0.0085   0.0066  -0.0062   0.00  124.8
2005/04/02 00:03:30.000  -3976219.1966   3382371.6147   3652511.1460   1   7   0.0091   0.0098   0.0077  -0.0085   0.0067  -0.0065   0.00  139.2
2005/04/02 00:03:00.000  -3976219.1943   3382371.6103   3652511.1451   1   7   0.0091   0.0098   0.0074  -0.0086   0.0067  -0.0064   0.00  147.8
2005/04/02 00:02:30.000  -3976219.1863   3382371.6011   3652511.1397   1   7   0.0088   0.0098   0.0073  -0.0086   0.0066  -0.0064   0.00  151.6
2005/04/02 00:02:00.000  -3976219.1883   3382371.6009   3652511.1418   1   7   0.0090   0.0099   0.0073  -0.0086   0.0069  -0.0063   0.00  156.9
2005/04/02 00:01:30.000  -3976219.1893   3382371.6079   3652511.1394   1   7   0.0092   0.0099   0.0075  -0.0085   0.0067  -0.0065   0.00  166.0
2005/04/02 00:01:00.000  -3976219.1832   3382371.6004   3652511.1341   1   7   0.0090   0.0100   0.0075  -0.0086   0.0068  -0.0064   0.00  171.2
2005/04/02 00:00:30.000  -3976219.1819   3382371.5988   3652511.1344   1   7   0.0091   0.0099   0.0076  -0.0086   0.0066  -0.0064   0.00  176.5
2005/04/02 00:00:00.000  -3976219.1840   3382371.6041   3652511.1389   1   7   0.0091   0.0100   0.0074  -0.0086   0.0067  -0.0063   0.00  179.2
