% program   : rnx2rtkp ver.2.4.2
% inp file  : ../../../test/data/rinex/07590920.05o
% inp file  : ../../../test/data/rinex/30400920.05n
% inp file  : ../../../test/data/rinex/30400920.05o
% obs start : 2005/04/02 00:00:00.0 GPST (week1316 518400.0s)
% obs end   : 2005/04/02 00:59:30.0 GPST (week1316 521970.0s)
% ref pos   : -3978241.9580   3382840.2340   3649900.8530
%
% (x/y/z-ecef=WGS84,Q=1:fix,2:float,3:sbas,4:dgps,5:single,6:ppp,ns=# of satellites)
%  GPST                      x-ecef(m)      y-ecef(m)      z-ecef(m)   Q  ns   sdx(m)   sdy(m)   sdz(m)  sdxy(m)  sdyz(m)  sdzx(m) age(s)  ratio
2005/04/02 00:00:00.000  -3976219.2318   3382372.3615   3652511.4737   2   7   1.2616   1.3930   1.0375  -1.1952   0.9442  -0.8912   0.00    2.4
2005/04/02 00:00:30.000  -3976219.1799   3382371.5995   3652511.1358   1   7   0.0128   0.0141   0.0105  -0.0121   0.0096  -0.0091   0.00    6.2
2005/04/02 00:01:00.000  -3976219.1852   3382371.6058   3652511.1392   1   7   0.0128   0.0141   0.0105  -0.0121   0.0096  -0.0091   0.00   12.2
2005/04/02 00:01:30.000  -3976219.1931   3382371.6142   3652511.1438   1   7   0.0128   0.0141   0.0106  -0.0121   0.0095  -0.0091   0.00   12.4
2005/04/02 00:02:00.000  -3976219.1877   3382371.6040   3652511.1445   1   7   0.0128   0.0140   0.0106  -0.0121   0.0095  -0.0091   0.00   11.3
2005/04/02 00:02:30.000  -3976219.1886   3382371.6053   3652511.1436   1   7   0.0128   0.0140   0.0105  -0.0120   0.0095  -0.0091   0.00   10.9
2005/04/02 00:03:00.000  -3976219.1902   3382371.6091   3652511.1444   1   7   0.0128   0.0140   0.0107  -0.0120   0.0095  -0.0091   0.00   16.2
2005/04/02 00:03:30.000  -3976219.1947   3382371.6150   3652511.1472   1   7   0.0127   0.0139   0.0107  -0.0119   0.0095  -0.0091   0.00   24.3
2005/04/02 00:04:00.000  -3976219.1914   3382371.6131   3652511.1506   1   7   0.0127   0.0139   0.0106  -0.0119   0.0095  -0.0090   0.00   26.0
2005/04/02 00:04:30.000  -3976219.1872   3382371.6015   3652511.1434   1   7   0.0126   0.0138   0.0106  -0.0119   0.0094  -0.0090   0.00   26.2
2005/04/02 00:05:00.000  -3976219.1835   3382371.6043   3652511.1494   1   7   0.0127   0.0138   0.0106  -0.0119   0.0094  -0.0090   0.00   39.1
2005/04/02 00:05:30.000  -3976219.1935   3382371.6145   3652511.1574   1   7   0.0126   0.0138   0.0107  -0.0119   0.0094  -0.0090   0.00   70.2
2005/04/02 00:06:00.000  -3976219.1848   3382371.6072   3652511.1485   1   7   0.0126   0.0137   0.0107  -0.0118   0.0094  -0.0090   0.00   67.2
2005/04/02 00:06:30.000  -3976219.1873   3382371.6067   3652511.1502   1   7   0.0125   0.0137   0.0108  -0.0118   0.0094  -0.0090   0.00  105.9
2005/04/02 00:07:00.000  -3976219.1887   3382371.6120   3652511.1487   1   7   0.0126   0.0136   0.0107  -0.0118   0.0094  -0.0090   0.00  105.2
2005/04/02 00:07:30.000  -3976219.1858   3382371.6077   3652511.1486   1   7   0.0125   0.0136   0.0107  -0.0117   0.0093  -0.0090   0.00   90.2
2005/04/02 00:08:00.000  -3976219.1871   3382371.6071   3652511.1455   1   7   0.0125   0.0136   0.0108  -0.0117   0.0093  -0.0090   0.00   98.9
2005/04/02 00:08:30.000  -3976219.1882   3382371.6133   3652511.1446   1   7   0.0124   0.0135   0.0108  -0.0116   0.0093  -0.0090   0.00  134.9
2005/04/02 00:09:00.000  -3976219.1897   3382371.6104   3652511.1410   1   7   0.0124   0.0135   0.0108  -0.0116   0.0093  -0.0090   0.00  139.9
2005/04/02 00:09:30.000  -3976219.1808   3382371.5976   3652511.1344   1   7   0.0124   0.0134   0.0108  -0.0116   0.0093  -0.0090   0.00   89.1
2005/04/02 00:10:00.000  -3976219.1880   3382371.6068   3652511.1436   1   7   0.0124   0.0134   0.0108  -0.0115   0.0092  -0.0089   0.00   79.3
2005/04/02 00:10:30.000  -3976219.1816   3382371.6038   3652511.1416   1   7   0.0124   0.0134   0.0109  -0.0115   0.0092  -0.0090   0.00  106.8
2005/04/02 00:11:00.000  -3976219.1862   3382371.6054   3652511.1414   1   7   0.0124   0.0133   0.0109  -0.0115   0.0092  -0.0089   0.00  129.2
2005/04/02 00:11:30.000  -3976219.1821   3382371.5998   3652511.1409   1   7   0.0123   0.0132   0.0110  -0.0115   0.0092  -0.0090   0.00  135.3
2005/04/02 00:12:00.000  -3976219.1912   3382371.6086   3652511.1479   1   7   0.0123   0.0132   0.0110  -0.0114   0.0092  -0.0090   0.00  162.5
2005/04/02 00:12:30.000  -3976219.1810   3382371.5966   3652511.1416   1   7   0.0124   0.0132   0.0110  -0.0113   0.0091  -0.0089   0.00  172.1
2005/04/02 00:13:00.000  -3976219.1875   3382371.6057   3652511.1485   1   7   0.0122   0.0131   0.0110  -0.0113   0.0091  -0.0090   0.00  132.7
2005/04/02 00:13:30.000  -3976219.1848   3382371.6073   3652511.1473   1   7   0.0122   0.0131   0.0110  -0.0112   0.0091  -0.0089   0.00  121.2
2005/04/02 00:14:00.000  -3976219.1920   3382371.6144   3652511.1519   1   7   0.0122   0.0130   0.0111  -0.0113   0.0091  -0.0090   0.00  124.7
2005/04/02 00:14:30.000  -3976219.1874   3382371.6068   3652511.1496   1   7   0.0122   0.0130   0.0111  -0.0112   0.0091  -0.0089   0.00  111.5
2005/04/02 00:15:00.000  -3976219.1899   3382371.6079   3652511.1454   1   7   0.0122   0.0130   0.0111  -0.0112   0.0091  -0.0090   0.00   99.5
2005/04/02 00:15:30.000  -3976219.1893   3382371.6089   3652511.1456   1   7   0.0122   0.0129   0.0112  -0.0111   0.0090  -0.0090   0.00   99.3
2005/04/02 00:16:00.000  -3976219.1865   3382371.6040   3652511.1434   1   7   0.0121   0.0128   0.0112  -0.0111   0.0091  -0.0090   0.00   91.8
2005/04/02 00:16:30.000  -3976219.1923   3382371.6084   3652511.1498   1   7   0.0121   0.0129   0.0113  -0.0111   0.0089  -0.0090   0.00   89.7
2005/04/02 00:17:00.000  -3976219.1899   3382371.6074   3652511.1470   1   7   0.0121   0.0128   0.0112  -0.0110   0.0090  -0.0089   0.00   92.1
2005/04/02 00:17:30.000  -3976219.1911   3382371.6061   3652511.1439   1   7   0.0121   0.0128   0.0113  -0.0110   0.0089  -0.0090   0.00   96.6
2005/04/02 00:18:00.000  -3976219.1925   3382371.6077   3652511.1475   1   6   0.0131   0.0130   0.0132  -0.0116   0.0099  -0.0107   0.00  107.9
2005/04/02 00:18:30.000  -3976219.1908   3382371.6051   3652511.1453   1   6   0.0130   0.0130   0.0132  -0.0115   0.0099  -0.0107   0.00   95.9
2005/04/02 00:19:00.000  -3976219.1964   3382371.6096   3652511.1490   1   6   0.0131   0.0129   0.0133  -0.0115   0.0099  -0.0107   0.00   83.0
2005/04/02 00:19:30.000  -3976219.1884   3382371.6039   3652511.1422   1   6   0.0130   0.0129   0.0133  -0.0115   0.0099  -0.0107   0.00   80.0
2005/04/02 00:20:00.000  -3976219.1959   3382371.6133   3652511.1500   1   6   0.0130   0.0128   0.0134  -0.0115   0.0099  -0.0107   0.00   70.7
2005/04/02 00:20:30.000  -3976219.1872   3382371.6065   3652511.1436   1   6   0.0130   0.0128   0.0134  -0.0115   0.0099  -0.0107   0.00   54.1
2005/04/02 00:20:59.999  -3976219.1912   3382371.6064   3652511.1470   1   6   0.0130   0.0128   0.0135  -0.0114   0.0099  -0.0107   0.00   48.8
2005/04/02 00:21:30.000  -3976219.1871   3382371.6074   3652511.1486   1   6   0.0130   0.0128   0.0136  -0.0114   0.0098  -0.0107   0.00   43.6
2005/04/02 00:22:00.000  -3976219.1929   3382371.6125   3652511.1502   1   6   0.0130   0.0127   0.0136  -0.0114   0.0098  -0.0108   0.00   49.6
2005/04/02 00:22:30.000  -3976219.1915   3382371.6122   3652511.1462   1   6   0.0129   0.0127   0.0137  -0.0113   0.0099  -0.0108   0.00   45.8
2005/04/02 00:23:00.000  -3976219.1874   3382371.6064   3652511.1441   1   6   0.0129   0.0126   0.0137  -0.0113   0.0099  -0.0108   0.00   54.4
2005/04/02 00:23:30.000  -3976219.1924   3382371.6102   3652511.1510   1   6   0.0129   0.0126   0.0138  -0.0113   0.0099  -0.0109   0.00   49.2
2005/04/02 00:24:00.000  -3976219.1824   3382371.5973   3652511.1419   1   6   0.0129   0.0126   0.0139  -0.0113   0.0099  -0.0109   0.00   50.6
2005/04/02 00:24:30.000  -3976219.1881   3382371.6022   3652511.1458   1   6   0.0129   0.0126   0.0140  -0.0112   0.0099  -0.0109   0.00   52.4
2005/04/02 00:25:00.000  -3976219.1865   3382371.6044   3652511.1427   1   6   0.0129   0.0125   0.0141  -0.0112   0.0099  -0.0109   0.00   50.4
2005/04/02 00:25:30.000  -3976219.1886   3382371.6053   3652511.1470   1   6   0.0129   0.0125   0.0141  -0.0111   0.0099  -0.0109   0.00   52.1
2005/04/02 00:26:00.000  -3976219.1903   3382371.6043   3652511.1444   1   6   0.0129   0.0124   0.0142  -0.0111   0.0099  -0.0110   0.00   54.2
2005/04/02 00:26:30.000  -3976219.1937   3382371.6026   3652511.1446   1   6   0.0129   0.0124   0.0143  -0.0111   0.0099  -0.0110   0.00   64.2
2005/04/02 00:27:00.000  -3976219.1919   3382371.6071   3652511.1478   1   6   0.0128   0.0124   0.0143  -0.0111   0.0099  -0.0110   0.00   67.1
2005/04/02 00:27:30.000  -3976219.1930   3382371.6069   3652511.1477   1   6   0.0128   0.0124   0.0144  -0.0111   0.0099  -0.0110   0.00   75.8
2005/04/02 00:28:00.000  -3976219.1912   3382371.6082   3652511.1488   1   6   0.0128   0.0123   0.0145  -0.0111   0.0099  -0.0110   0.00   92.8
2005/04/02 00:28:30.000  -3976219.1891   3382371.6067   3652511.1459   1   6   0.0128   0.0123   0.0146  -0.0110   0.0099  -0.0111   0.00   98.1
2005/04/02 00:29:00.000  -3976219.1878   3382371.6047   3652511.1433   1   6   0.0128   0.0122   0.0146  -0.0110   0.0099  -0.0111   0.00  106.0
2005/04/02 00:29:30.000  -3976219.1881   3382371.6047   3652511.1414   1   6   0.0129   0.0122   0.0147  -0.0110   0.0099  -0.0112   0.00   99.1
2005/04/02 00:30:00.000  -3976219.1942   3382371.6086   3652511.1540   1   6   0.0128   0.0122   0.0148  -0.0110   0.0099  -0.0112   0.00   91.5
2005/04/02 00:30:30.000  -3976219.1891   3382371.6049   3652511.1454   1   6   0.0129   0.0122   0.0149  -0.0109   0.0100  -0.0112   0.00   96.8
2005/04/02 00:31:00.000  -3976219.1949   3382371.6065   3652511.1479   1   6   0.0128   0.0121   0.0150  -0.0109   0.0099  -0.0112   0.00  102.4
2005/04/02 00:31:30.000  -3976219.1874   3382371.6034   3652511.1425   1   6   0.0128   0.0121   0.0151  -0.0109   0.0099  -0.0112   0.00  102.6
2005/04/02 00:32:00.000  -3976219.1860   3382371.5970   3652511.1470   1   6   0.0129   0.0121   0.0152  -0.0109   0.0100  -0.0113   0.00  107.7
2005/04/02 00:32:30.000  -3976219.1857   3382371.6013   3652511.1458   1   6   0.0127   0.0121   0.0153  -0.0109   0.0100  -0.0113   0.00  106.2
2005/04/02 00:33:00.000  -3976219.1947   3382371.6094   3652511.1445   1   6   0.0128   0.0120   0.0154  -0.0109   0.0100  -0.0114   0.00  105.7
2005/04/02 00:33:30.000  -3976219.1907   3382371.6024   3652511.1473   1   6   0.0128   0.0120   0.0155  -0.0108   0.0100  -0.0113   0.00  102.4
2005/04/02 00:34:00.000  -3976219.1906   3382371.6090   3652511.1511   1   6   0.0128   0.0120   0.0155  -0.0108   0.0100  -0.0115   0.00  111.8
2005/04/02 00:34:30.000  -3976219.1852   3382371.5997   3652511.1436   1   6   0.0128   0.0119   0.0157  -0.0109   0.0100  -0.0115   0.00  108.2
2005/04/02 00:35:00.000  -3976219.1911   3382371.6073   3652511.1506   1   6   0.0129   0.0119   0.0158  -0.0108   0.0101  -0.0114   0.00  104.8
2005/04/02 00:35:30.000  -3976219.1815   3382371.5971   3652511.1416   1   6   0.0128   0.0119   0.0159  -0.0108   0.0101  -0.0115   0.00  112.5
2005/04/02 00:36:00.000  -3976219.1934   3382371.6027   3652511.1534   1   6   0.0128   0.0119   0.0160  -0.0108   0.0101  -0.0115   0.00  134.3
2005/04/02 00:36:30.000  -3976219.1850   3382371.5983   3652511.1433   1   6   0.0128   0.0119   0.0161  -0.0107   0.0102  -0.0116   0.01  137.4
2005/04/02 00:37:00.000  -3976219.1880   3382371.6040   3652511.1483   1   6   0.0128   0.0119   0.0162  -0.0107   0.0102  -0.0117   0.01  132.5
2005/04/02 00:37:30.000  -3976219.1894   3382371.6053   3652511.1439   1   6   0.0128   0.0118   0.0163  -0.0108   0.0102  -0.0117   0.01  144.1
2005/04/02 00:38:00.000  -3976219.1917   3382371.6064   3652511.1456   1   6   0.0129   0.0119   0.0164  -0.0107   0.0102  -0.0118   0.01  146.4
2005/04/02 00:38:30.000  -3976219.1923   3382371.6047   3652511.1447   1   6   0.0130   0.0118   0.0165  -0.0107   0.0103  -0.0118   0.01  163.4
2005/04/02 00:39:00.000  -3976219.1903   3382371.6096   3652511.1427   1   6   0.0128   0.0118   0.0166  -0.0107   0.0103  -0.0119   0.01  166.3
2005/04/02 00:39:30.000  -3976219.1865   3382371.6055   3652511.1393   1   6   0.0128   0.0118   0.0168  -0.0108   0.0103  -0.0119   0.01  178.2
2005/04/02 00:40:00.000  -3976219.1873   3382371.6058   3652511.1497   1   6   0.0129   0.0118   0.0169  -0.0107   0.0103  -0.0120   0.01  177.8
2005/04/02 00:40:30.000  -3976219.1909   3382371.6034   3652511.1499   1   6   0.0130   0.0118   0.0170  -0.0107   0.0104  -0.0120   0.01  182.3
2005/04/02 00:41:00.000  -3976219.1888   3382371.6033   3652511.1405   1   6   0.0128   0.0117   0.0171  -0.0108   0.0104  -0.0121   0.01  194.3
2005/04/02 00:41:30.000  -3976219.1860   3382371.6017   3652511.1442   1   6   0.0129   0.0117   0.0172  -0.0108   0.0104  -0.0121   0.01  186.9
2005/04/02 00:42:00.000  -3976219.1970   3382371.6142   3652511.1456   1   6   0.0130   0.0118   0.0174  -0.0107   0.0105  -0.0122   0.01  193.5
2005/04/02 00:42:30.000  -3976219.1917   3382371.6080   3652511.1400   1   6   0.0130   0.0117   0.0175  -0.0108   0.0105  -0.0122   0.01  187.2
2005/04/02 00:43:00.000  -3976219.1908   3382371.6091   3652511.1388   1   6   0.0130   0.0117   0.0176  -0.0107   0.0106  -0.0123   0.01  174.7
2005/04/02 00:43:30.000  -3976219.1870   3382371.6090   3652511.1342   1   6   0.0130   0.0117   0.0178  -0.0108   0.0106  -0.0123   0.01  193.9
2005/04/02 00:44:00.000  -3976219.1873   3382371.6055   3652511.1377   1   6   0.0130   0.0117   0.0179  -0.0108   0.0106  -0.0124   0.01  203.1
2005/04/02 00:44:30.000  -3976219.1913   3382371.6113   3652511.1475   1   6   0.0131   0.0117   0.0180  -0.0108   0.0107  -0.0125   0.01  214.3
2005/04/02 00:45:00.000  -3976219.1894   3382371.6031   3652511.1428   1   6   0.0130   0.0117   0.0181  -0.0108   0.0107  -0.0126   0.01  220.4
2005/04/02 00:45:30.000  -3976219.1834   3382371.6025   3652511.1445   1   6   0.0131   0.0117   0.0183  -0.0108   0.0108  -0.0126   0.01  224.0
2005/04/02 00:46:00.000  -3976219.1831   3382371.6038   3652511.1470   1   6   0.0130   0.0117   0.0184  -0.0108   0.0109  -0.0127   0.01  219.2
2005/04/02 00:46:30.000  -3976219.1796   3382371.5983   3652511.1441   1   6   0.0132   0.0117   0.0185  -0.0108   0.0109  -0.0127   0.01  206.7
2005/04/02 00:47:00.000  -3976219.1775   3382371.6037   3652511.1430   1   6   0.0131   0.0117   0.0187  -0.0108   0.0110  -0.0128   0.01  189.8
2005/04/02 00:47:30.000  -3976219.1840   3382371.6085   3652511.1489   1   6   0.0131   0.0117   0.0188  -0.0109   0.0110  -0.0129   0.01  193.1
2005/04/02 00:48:00.000  -3976219.1818   3382371.6099   3652511.1433   1   6   0.0132   0.0117   0.0190  -0.0109   0.0111  -0.0130   0.01  191.6
2005/04/02 00:48:30.000  -3976219.1815   3382371.6068   3652511.1410   1   6   0.0132   0.0117   0.0191  -0.0109   0.0111  -0.0131   0.01  210.5
2005/04/02 00:49:00.000  -3976219.1889   3382371.6071   3652511.1542   1   6   0.0132   0.0117   0.0192  -0.0109   0.0112  -0.0132   0.01  208.5
2005/04/02 00:49:30.000  -3976219.1849   3382371.6088   3652511.1440   1   6   0.0133   0.0117   0.0194  -0.0110   0.0112  -0.0132   0.01  193.4
2005/04/02 00:50:00.000  -3976219.1825   3382371.6046   3652511.1415   1   6   0.0134   0.0117   0.0195  -0.0110   0.0113  -0.0132   0.01  182.5
2005/04/02 00:50:30.000  -3976219.1781   3382371.6032   3652511.1378   1   6   0.0133   0.0117   0.0197  -0.0109   0.0114  -0.0133   0.01  185.0
2005/04/02 00:51:00.000  -3976219.1859   3382371.6064   3652511.1445   1   6   0.0134   0.0117   0.0198  -0.0110   0.0114  -0.0134   0.01  194.5
2005/04/02 00:51:30.000  -3976219.1837   3382371.6023   3652511.1315   1   6   0.0134   0.0117   0.0200  -0.0110   0.0115  -0.0135   0.01  200.0
2005/04/02 00:52:00.000  -3976219.1878   3382371.6031   3652511.1388   1   6   0.0135   0.0117   0.0201  -0.0111   0.0116  -0.0136   0.01  202.1
2005/04/02 00:52:30.000  -3976219.1831   3382371.6013   3652511.1303   1   6   0.0135   0.0118   0.0202  -0.0110   0.0117  -0.0137   0.01  205.8
2005/04/02 00:53:00.000  -3976219.1816   3382371.5993   3652511.1307   1   6   0.0136   0.0118   0.0204  -0.0111   0.0117  -0.0137   0.01  201.2
2005/04/02 00:53:30.000  -3976219.1844   3382371.6017   3652511.1370   1   6   0.0136   0.0118   0.0205  -0.0111   0.0118  -0.0138   0.01  200.7
2005/04/02 00:54:00.000  -3976219.1890   3382371.6042   3652511.1437   1   6   0.0137   0.0118   0.0207  -0.0111   0.0119  -0.0139   0.01  185.0
2005/04/02 00:54:30.000  -3976219.1846   3382371.6029   3652511.1433   1   6   0.0137   0.0118   0.0208  -0.0112   0.0119  -0.0140   0.01  170.8
2005/04/02 00:55:00.000  -3976219.1815   3382371.5994   3652511.1421   1   6   0.0137   0.0119   0.0210  -0.0112   0.0120  -0.0141   0.01  175.2
2005/04/02 00:55:30.000  -3976219.1876   3382371.6019   3652511.1509   1   6   0.0138   0.0119   0.0211  -0.0112   0.0121  -0.0141   0.01  178.3
2005/04/02 00:56:00.000  -3976219.1917   3382371.6084   3652511.1450   1   6   0.0139   0.0119   0.0212  -0.0113   0.0121  -0.0142   0.01  161.4
2005/04/02 00:56:30.000  -3976219.1825   3382371.6065   3652511.1416   1   6   0.0138   0.0119   0.0214  -0.0113   0.0122  -0.0143   0.01  150.3
2005/04/02 00:57:00.000  -3976219.2277   3382371.6502   3652511.2304   1   5   0.0617   0.0655   0.1315  -0.0633   0.0923  -0.0895   0.01  138.0
