% program   : rnx2rtkp ver.2.4.2
% inp file  : ../../../test/data/rinex/07590920.05o
% inp file  : ../../../test/data/rinex/30400920.05n
% inp file  : ../../../test/data/rinex/30400920.05o
% obs start : 2005/04/02 00:00:00.0 GPST (week1316 518400.0s)
% obs end   : 2005/04/02 00:59:30.0 GPST (week1316 521970.0s)
% ref pos   : -3978241.9580   3382840.2340   3649900.8530
%
% (x/y/z-ecef=WGS84,Q=1:fix,2:float,3:sbas,4:dgps,5:single,6:ppp,ns=# of satellites)
%  GPST                      x-ecef(m)      y-ecef(m)      z-ecef(m)   Q  ns   sdx(m)   sdy(m)   sdz(m)  sdxy(m)  sdyz(m)  sdzx(m) age(s)  ratio
2005/04/02 00:00:00.000  -3976219.1840   3382371.6041   3652511.1389   1   7   0.0091   0.0100   0.0074  -0.0086   0.0068  -0.0064   0.00   24.9
2005/04/02 00:00:30.000  -3976219.1827   3382371.6013   3652511.1364   1   7   0.0064   0.0071   0.0053  -0.0061   0.0048  -0.0045   0.00   43.1
2005/04/02 00:01:00.000  -3976219.1826   3382371.6008   3652511.1355   1   7   0.0052   0.0058   0.0043  -0.0050   0.0039  -0.0037   0.00   41.6
2005/04/02 00:01:30.000  -3976219.1840   3382371.6023   3652511.1362   1   7   0.0045   0.0050   0.0037  -0.0043   0.0034  -0.0032   0.00   52.3
2005/04/02 00:02:00.000  -3976219.1847   3382371.6019   3652511.1372   1   7   0.0041   0.0045   0.0033  -0.0038   0.0030  -0.0029   0.00   66.4
2005/04/02 00:02:30.000  -3976219.1848   3382371.6016   3652511.1374   1   7   0.0037   0.0041   0.0030  -0.0035   0.0028  -0.0026   0.00   72.0
2005/04/02 00:03:00.000  -3976219.1860   3382371.6027   3652511.1384   1   7   0.0034   0.0038   0.0028  -0.0032   0.0026  -0.0024   0.00   85.8
2005/04/02 00:03:30.000  -3976219.1872   3382371.6041   3652511.1393   1   7   0.0032   0.0035   0.0026  -0.0030   0.0024  -0.0023   0.00   79.2
2005/04/02 00:04:00.000  -3976219.1877   3382371.6050   3652511.1401   1   7   0.0030   0.0033   0.0025  -0.0028   0.0023  -0.0021   0.00   78.6
2005/04/02 00:04:30.000  -3976219.1875   3382371.6042   3652511.1400   1   7   0.0029   0.0031   0.0024  -0.0027   0.0021  -0.0020   0.00   71.9
2005/04/02 00:05:00.000  -3976219.1873   3382371.6040   3652511.1405   1   7   0.0027   0.0030   0.0023  -0.0026   0.0020  -0.0019   0.00   77.9
2005/04/02 00:05:30.000  -3976219.1873   3382371.6044   3652511.1412   1   7   0.0026   0.0029   0.0022  -0.0025   0.0019  -0.0019   0.00   88.9
2005/04/02 00:06:00.000  -3976219.1868   3382371.6042   3652511.1415   1   7   0.0025   0.0027   0.0021  -0.0024   0.0019  -0.0018   0.00   90.8
2005/04/02 00:06:30.000  -3976219.1865   3382371.6041   3652511.1417   1   7   0.0024   0.0026   0.0020  -0.0023   0.0018  -0.0017   0.00   94.9
2005/04/02 00:07:00.000  -3976219.1865   3382371.6044   3652511.1419   1   7   0.0023   0.0026   0.0020  -0.0022   0.0017  -0.0017   0.00   99.7
2005/04/02 00:07:30.000  -3976219.1865   3382371.6049   3652511.1421   1   7   0.0023   0.0025   0.0019  -0.0021   0.0017  -0.0016   0.00  103.6
2005/04/02 00:08:00.000  -3976219.1865   3382371.6049   3652511.1421   1   7   0.0022   0.0024   0.0018  -0.0021   0.0016  -0.0016   0.00  112.8
2005/04/02 00:08:30.000  -3976219.1863   3382371.6051   3652511.1421   1   7   0.0021   0.0023   0.0018  -0.0020   0.0016  -0.0015   0.00  119.4
2005/04/02 00:09:00.000  -3976219.1864   3382371.6052   3652511.1419   1   7   0.0021   0.0023   0.0017  -0.0019   0.0015  -0.0015   0.00  127.9
2005/04/02 00:09:30.000  -3976219.1858   3382371.6042   3652511.1412   1   7   0.0020   0.0022   0.0017  -0.0019   0.0015  -0.0014   0.00  129.7
2005/04/02 00:10:00.000  -3976219.1857   3382371.6040   3652511.1412   1   7   0.0020   0.0022   0.0017  -0.0019   0.0015  -0.0014   0.00  135.2
2005/04/02 00:10:30.000  -3976219.1856   3382371.6040   3652511.1410   1   7   0.0019   0.0021   0.0016  -0.0018   0.0014  -0.0014   0.00  146.7
2005/04/02 00:11:00.000  -3976219.1854   3382371.6038   3652511.1409   1   7   0.0019   0.0021   0.0016  -0.0018   0.0014  -0.0013   0.00  154.6
2005/04/02 00:11:30.000  -3976219.1852   3382371.6033   3652511.1409   1   7   0.0018   0.0020   0.0016  -0.0017   0.0014  -0.0013   0.00  160.2
2005/04/02 00:12:00.000  -3976219.1853   3382371.6034   3652511.1410   1   7   0.0018   0.0020   0.0015  -0.0017   0.0013  -0.0013   0.00  171.2
2005/04/02 00:12:30.000  -3976219.1852   3382371.6031   3652511.1410   1   7   0.0018   0.0019   0.0015  -0.0017   0.0013  -0.0013   0.00  179.3
2005/04/02 00:13:00.000  -3976219.1853   3382371.6030   3652511.1412   1   7   0.0017   0.0019   0.0015  -0.0016   0.0013  -0.0012   0.00  185.2
2005/04/02 00:13:30.000  -3976219.1852   3382371.6031   3652511.1413   1   7   0.0017   0.0019   0.0015  -0.0016   0.0013  -0.0012   0.00  192.0
2005/04/02 00:14:00.000  -3976219.1854   3382371.6034   3652511.1416   1   7   0.0017   0.0018   0.0015  -0.0016   0.0013  -0.0012   0.00  202.7
2005/04/02 00:14:30.000  -3976219.1854   3382371.6033   3652511.1417   1   7   0.0017   0.0018   0.0014  -0.0015   0.0012  -0.0012   0.00  201.1
2005/04/02 00:15:00.000  -3976219.1855   3382371.6034   3652511.1417   1   7   0.0016   0.0018   0.0014  -0.0015   0.0012  -0.0012   0.00  196.4
2005/04/02 00:15:30.000  -3976219.1856   3382371.6034   3652511.1418   1   7   0.0016   0.0017   0.0014  -0.0015   0.0012  -0.0012   0.00  190.5
2005/04/02 00:16:00.000  -3976219.1856   3382371.6033   3652511.1417   1   7   0.0016   0.0017   0.0014  -0.0015   0.0012  -0.0011   0.00  183.4
2005/04/02 00:16:30.000  -3976219.1857   3382371.6033   3652511.1417   1   7   0.0016   0.0017   0.0014  -0.0014   0.0012  -0.0011   0.00  175.2
2005/04/02 00:17:00.000  -3976219.1858   3382371.6034   3652511.1418   1   7   0.0015   0.0017   0.0013  -0.0014   0.0011  -0.0011   0.00  178.7
2005/04/02 00:17:30.000  -3976219.1860   3382371.6035   3652511.1418   1   7   0.0015   0.0016   0.0013  -0.0014   0.0011  -0.0011   0.00  179.5
2005/04/02 00:18:00.000  -3976219.1861   3382371.6035   3652511.1419   1   6   0.0015   0.0016   0.0013  -0.0014   0.0011  -0.0011   0.00  177.6
2005/04/02 00:18:30.000  -3976219.1861   3382371.6033   3652511.1418   1   6   0.0015   0.0016   0.0013  -0.0014   0.0011  -0.0011   0.00  175.7
2005/04/02 00:19:00.000  -3976219.1863   3382371.6034   3652511.1418   1   6   0.0015   0.0016   0.0013  -0.0014   0.0011  -0.0011   0.00  175.3
2005/04/02 00:19:30.000  -3976219.1864   3382371.6034   3652511.1417   1   6   0.0015   0.0016   0.0013  -0.0013   0.0011  -0.0011   0.00  175.0
2005/04/02 00:20:00.000  -3976219.1866   3382371.6035   3652511.1417   1   6   0.0014   0.0015   0.0013  -0.0013   0.0011  -0.0010   0.00  171.2
2005/04/02 00:20:30.000  -3976219.1867   3382371.6036   3652511.1418   1   6   0.0015   0.0015   0.0014  -0.0014   0.0011  -0.0012   0.00   96.7
2005/04/02 00:20:59.999  -3976219.1867   3382371.6035   3652511.1418   1   6   0.0015   0.0015   0.0014  -0.0013   0.0011  -0.0012   0.00   95.9
2005/04/02 00:21:30.000  -3976219.1866   3382371.6034   3652511.1418   1   6   0.0015   0.0015   0.0014  -0.0013   0.0011  -0.0012   0.00  100.1
2005/04/02 00:22:00.000  -3976219.1868   3382371.6036   3652511.1419   1   6   0.0015   0.0015   0.0014  -0.0013   0.0011  -0.0012   0.00  110.2
2005/04/02 00:22:30.000  -3976219.1868   3382371.6037   3652511.1419   1   6   0.0015   0.0015   0.0014  -0.0013   0.0011  -0.0012   0.00  117.2
2005/04/02 00:23:00.000  -3976219.1868   3382371.6038   3652511.1419   1   6   0.0014   0.0015   0.0014  -0.0013   0.0011  -0.0011   0.00  126.9
2005/04/02 00:23:30.000  -3976219.1869   3382371.6039   3652511.1420   1   6   0.0014   0.0014   0.0014  -0.0013   0.0011  -0.0011   0.00  134.3
2005/04/02 00:24:00.000  -3976219.1867   3382371.6037   3652511.1419   1   6   0.0014   0.0014   0.0014  -0.0013   0.0011  -0.0011   0.00  137.2
2005/04/02 00:24:30.000  -3976219.1868   3382371.6036   3652511.1419   1   6   0.0014   0.0014   0.0014  -0.0013   0.0011  -0.0011   0.00  143.2
2005/04/02 00:25:00.000  -3976219.1869   3382371.6037   3652511.1419   1   6   0.0014   0.0014   0.0014  -0.0012   0.0010  -0.0011   0.00  149.5
2005/04/02 00:25:30.000  -3976219.1870   3382371.6038   3652511.1420   1   6   0.0014   0.0014   0.0014  -0.0012   0.0010  -0.0011   0.00  155.8
2005/04/02 00:26:00.000  -3976219.1871   3382371.6037   3652511.1419   1   6   0.0014   0.0014   0.0014  -0.0012   0.0010  -0.0011   0.00  160.5
2005/04/02 00:26:30.000  -3976219.1872   3382371.6037   3652511.1419   1   6   0.0014   0.0014   0.0014  -0.0012   0.0010  -0.0011   0.00  167.2
2005/04/02 00:27:00.000  -3976219.1873   3382371.6037   3652511.1420   1   6   0.0014   0.0014   0.0013  -0.0012   0.0010  -0.0011   0.00  177.6
2005/04/02 00:27:30.000  -3976219.1875   3382371.6038   3652511.1421   1   6   0.0013   0.0013   0.0013  -0.0012   0.0010  -0.0011   0.00  181.2
2005/04/02 00:28:00.000  -3976219.1876   3382371.6039   3652511.1421   1   6   0.0013   0.0013   0.0013  -0.0012   0.0010  -0.0011   0.00  191.3
2005/04/02 00:28:30.000  -3976219.1876   3382371.6039   3652511.1421   1   6   0.0013   0.0013   0.0013  -0.0012   0.0010  -0.0011   0.00  203.6
2005/04/02 00:29:00.000  -3976219.1876   3382371.6039   3652511.1420   1   6   0.0013   0.0013   0.0013  -0.0012   0.0010  -0.0011   0.00  213.5
2005/04/02 00:29:30.000  -3976219.1877   3382371.6040   3652511.1420   1   6   0.0013   0.0013   0.0013  -0.0012   0.0010  -0.0011   0.00  211.2
2005/04/02 00:30:00.000  -3976219.1877   3382371.6040   3652511.1421   1   6   0.0013   0.0013   0.0013  -0.0011   0.0010  -0.0011   0.00  201.6
2005/04/02 00:30:30.000  -3976219.1877   3382371.6039   3652511.1420   1   6   0.0013   0.0013   0.0013  -0.0011   0.0010  -0.0010   0.00  192.1
2005/04/02 00:31:00.000  -3976219.1879   3382371.6040   3652511.1420   1   6   0.0013   0.0013   0.0013  -0.0011   0.0010  -0.0010   0.00  183.8
2005/04/02 00:31:30.000  -3976219.1879   3382371.6039   3652511.1419   1   6   0.0013   0.0013   0.0013  -0.0011   0.0010  -0.0010   0.00  180.1
2005/04/02 00:32:00.000  -3976219.1877   3382371.6036   3652511.1418   1   6   0.0013   0.0013   0.0013  -0.0011   0.0009  -0.0010   0.00  176.4
2005/04/02 00:32:30.000  -3976219.1877   3382371.6036   3652511.1418   1   6   0.0013   0.0012   0.0013  -0.0011   0.0009  -0.0010   0.00  175.0
2005/04/02 00:33:00.000  -3976219.1878   3382371.6037   3652511.1418   1   6   0.0013   0.0012   0.0013  -0.0011   0.0009  -0.0010   0.00  176.9
2005/04/02 00:33:30.000  -3976219.1878   3382371.6036   3652511.1419   1   6   0.0012   0.0012   0.0013  -0.0011   0.0009  -0.0010   0.00  184.2
2005/04/02 00:34:00.000  -3976219.1879   3382371.6037   3652511.1420   1   6   0.0012   0.0012   0.0013  -0.0011   0.0009  -0.0010   0.00  203.6
2005/04/02 00:34:30.000  -3976219.1878   3382371.6037   3652511.1420   1   6   0.0012   0.0012   0.0013  -0.0011   0.0009  -0.0010   0.00  223.3
2005/04/02 00:35:00.000  -3976219.1879   3382371.6037   3652511.1421   1   6   0.0012   0.0012   0.0013  -0.0011   0.0009  -0.0010   0.00  237.8
2005/04/02 00:35:30.000  -3976219.1877   3382371.6035   3652511.1420   1   6   0.0012   0.0012   0.0013  -0.0011   0.0009  -0.0010   0.00  244.8
2005/04/02 00:36:00.000  -3976219.1878   3382371.6035   3652511.1421   1   6   0.0012   0.0012   0.0013  -0.0011   0.0009  -0.0010   0.00  249.3
2005/04/02 00:36:30.000  -3976219.1877   3382371.6033   3652511.1420   1   6   0.0012   0.0012   0.0013  -0.0010   0.0009  -0.0010   0.01  250.8
2005/04/02 00:37:00.000  -3976219.1877   3382371.6034   3652511.1420   1   6   0.0012   0.0012   0.0013  -0.0010   0.0009  -0.0010   0.01  257.8
2005/04/02 00:37:30.000  -3976219.1877   3382371.6033   3652511.1420   1   6   0.0012   0.0012   0.0013  -0.0010   0.0009  -0.0010   0.01  259.0
2005/04/02 00:38:00.000  -3976219.1877   3382371.6033   3652511.1419   1   6   0.0012   0.0012   0.0013  -0.0010   0.0009  -0.0010   0.01  259.2
2005/04/02 00:38:30.000  -3976219.1877   3382371.6033   3652511.1419   1   6   0.0012   0.0012   0.0013  -0.0010   0.0009  -0.0010   0.01  256.4
2005/04/02 00:39:00.000  -3976219.1877   3382371.6033   3652511.1418   1   6   0.0012   0.0011   0.0013  -0.0010   0.0009  -0.0010   0.01  254.2
2005/04/02 00:39:30.000  -3976219.1877   3382371.6034   3652511.1417   1   6   0.0012   0.0011   0.0013  -0.0010   0.0009  -0.0010   0.01  258.6
2005/04/02 00:40:00.000  -3976219.1876   3382371.6034   3652511.1417   1   6   0.0012   0.0011   0.0013  -0.0010   0.0009  -0.0010   0.01  264.3
2005/04/02 00:40:30.000  -3976219.1877   3382371.6033   3652511.1418   1   6   0.0012   0.0011   0.0013  -0.0010   0.0009  -0.0010   0.01  269.0
2005/04/02 00:41:00.000  -3976219.1876   3382371.6033   3652511.1417   1   6   0.0012   0.0011   0.0013  -0.0010   0.0009  -0.0010   0.01  265.0
2005/04/02 00:41:30.000  -3976219.1876   3382371.6032   3652511.1416   1   6   0.0012   0.0011   0.0013  -0.0010   0.0009  -0.0010   0.01  265.4
2005/04/02 00:42:00.000  -3976219.1877   3382371.6034   3652511.1416   1   6   0.0012   0.0011   0.0013  -0.0010   0.0009  -0.0010   0.01  266.4
2005/04/02 00:42:30.000  -3976219.1877   3382371.6034   3652511.1415   1   6   0.0012   0.0011   0.0013  -0.0010   0.0009  -0.0010   0.01  262.5
2005/04/02 00:43:00.000  -3976219.1878   3382371.6035   3652511.1414   1   6   0.0011   0.0011   0.0013  -0.0010   0.0009  -0.0010   0.01  261.1
2005/04/02 00:43:30.000  -3976219.1878   3382371.6036   3652511.1413   1   6   0.0011   0.0011   0.0013  -0.0010   0.0008  -0.0010   0.01  255.5
2005/04/02 00:44:00.000  -3976219.1878   3382371.6036   3652511.1413   1   6   0.0011   0.0011   0.0013  -0.0010   0.0008  -0.0010   0.01  251.0
2005/04/02 00:44:30.000  -3976219.1878   3382371.6037   3652511.1413   1   6   0.0011   0.0011   0.0013  -0.0010   0.0008  -0.0010   0.01  255.8
2005/04/02 00:45:00.000  -3976219.1878   3382371.6037   3652511.1413   1   6   0.0011   0.0011   0.0013  -0.0010   0.0008  -0.0010   0.01  260.3
2005/04/02 00:45:30.000  -3976219.1877   3382371.6036   3652511.1412   1   6   0.0011   0.0011   0.0013  -0.0010   0.0008  -0.0010   0.01  262.6
2005/04/02 00:46:00.000  -3976219.1876   3382371.6036   3652511.1412   1   6   0.0011   0.0011   0.0013  -0.0010   0.0008  -0.0010   0.01  268.0
2005/04/02 00:46:30.000  -3976219.1874   3382371.6034   3652511.1411   1   6   0.0011   0.0011   0.0013  -0.0010   0.0008  -0.0010   0.01  275.8
2005/04/02 00:47:00.000  -3976219.1872   3382371.6033   3652511.1410   1   6   0.0011   0.0011   0.0013  -0.0009   0.0008  -0.0010   0.01  284.0
2005/04/02 00:47:30.000  -3976219.1871   3382371.6034   3652511.1410   1   6   0.0011   0.0011   0.0013  -0.0009   0.0008  -0.0010   0.01  292.4
2005/04/02 00:48:00.000  -3976219.1871   3382371.6035   3652511.1410   1   6   0.0011   0.0011   0.0013  -0.0009   0.0008  -0.0009   0.01  300.4
2005/04/02 00:48:30.000  -3976219.1870   3382371.6035   3652511.1409   1   6   0.0011   0.0011   0.0013  -0.0009   0.0008  -0.0009   0.01  298.1
2005/04/02 00:49:00.000  -3976219.1869   3382371.6035   3652511.1409   1   6   0.0011   0.0010   0.0013  -0.0009   0.0008  -0.0009   0.01  301.2
2005/04/02 00:49:30.000  -3976219.1868   3382371.6035   3652511.1409   1   6   0.0011   0.0010   0.0013  -0.0009   0.0008  -0.0009   0.01  302.6
2005/04/02 00:50:00.000  -3976219.1868   3382371.6035   3652511.1408   1   6   0.0011   0.0010   0.0013  -0.0009   0.0008  -0.0009   0.01  306.4
2005/04/02 00:50:30.000  -3976219.1867   3382371.6035   3652511.1408   1   6   0.0011   0.0010   0.0013  -0.0009   0.0008  -0.0009   0.01  309.2
2005/04/02 00:51:00.000  -3976219.1867   3382371.6036   3652511.1408   1   6   0.0011   0.0010   0.0013  -0.0009   0.0008  -0.0009   0.01  314.7
2005/04/02 00:51:30.000  -3976219.1867   3382371.6037   3652511.1407   1   6   0.0011   0.0010   0.0013  -0.0009   0.0008  -0.0009   0.01  317.6
2005/04/02 00:52:00.000  -3976219.1867   3382371.6036   3652511.1406   1   6   0.0011   0.0010   0.0013  -0.0009   0.0008  -0.0009   0.01  318.8
2005/04/02 00:52:30.000  -3976219.1867   3382371.6036   3652511.1405   1   6   0.0011   0.0010   0.0013  -0.0009   0.0008  -0.0009   0.01  312.1
2005/04/02 00:53:00.000  -3976219.1867   3382371.6036   3652511.1404   1   6   0.0011   0.0010   0.0013  -0.0009   0.0008  -0.0009   0.01  314.2
2005/04/02 00:53:30.000  -3976219.1867   3382371.6036   3652511.1403   1   6   0.0011   0.0010   0.0013  -0.0009   0.0008  -0.0009   0.01  321.2
2005/04/02 00:54:00.000  -3976219.1867   3382371.6036   3652511.1404   1   6   0.0011   0.0010   0.0013  -0.0009   0.0008  -0.0009   0.01  331.7
2005/04/02 00:54:30.000  -3976219.1867   3382371.6036   3652511.1404   1   6   0.0011   0.0010   0.0013  -0.0009   0.0008  -0.0009   0.01  337.7
2005/04/02 00:55:00.000  -3976219.1867   3382371.6036   3652511.1404   1   6   0.0011   0.0010   0.0013  -0.0009   0.0008  -0.0009   0.01  348.1
2005/04/02 00:55:30.000  -3976219.1867   3382371.6036   3652511.1405   1   6   0.0011   0.0010   0.0013  -0.0009   0.0008  -0.0009   0.01  364.9
2005/04/02 00:56:00.000  -3976219.1868   3382371.6037   3652511.1406   1   6   0.0011   0.0010   0.0013  -0.0009   0.0008  -0.0009   0.01  370.0
2005/04/02 00:56:30.000  -3976219.1868   3382371.6037   3652511.1406   1   6   0.0011   0.0010   0.0013  -0.0009   0.0008  -0.0009   0.01  377.6
2005/04/02 00:57:00.000  -3976219.1867   3382371.6038   3652511.1405   1   5   0.0011   0.0010   0.0013  -0.0009   0.0008  -0.0009   0.01  379.6
