% program   : RTKLIB ver.2.4.2
% inp file  : Uslo3610.06O
% inp file  : Uslo3610.06N
% inp file  : Geo135_00b4_1407_03.sbs
% obs start : 2006/12/27 00:00:30.0 GPST (week1407 259230.0s)
% obs end   : 2006/12/27 23:59:30.0 GPST (week1407 345570.0s)
% pos mode  : single
% elev mask : 0.0 deg
% ionos opt : sbas
% tropo opt : sbas
% ephemeris : broadcast+sbas
% navi sys  : gps sbas
%
% (lat/lon/height=WGS84/ellipsoidal,Q=1:fix,2:float,3:sbas,4:dgps,5:single,6:ppp,ns=# of satellites)
%  GPST                  latitude(deg) longitude(deg)  height(m)   Q  ns   sdn(m)   sde(m)   sdu(m)  sdne(m)  sdeu(m)  sdun(m) age(s)  ratio
2006/12/27 00:04:30.000   35.311789409 -120.661114248   130.5055   3   4   4.8000   8.4851  14.3066   6.1500  10.9443   7.9773   0.00    0.0
2006/12/27 00:05:00.000   35.311801621 -120.661094315   133.7363   3   6   1.2378   1.5231   2.8337  -0.9384   1.6502  -1.1510   0.00    0.0
2006/12/27 00:05:30.000   35.311800681 -120.661092179   134.2661   3   6   0.9924   0.8777   2.1377   0.2160   0.6420   0.2580   0.00    0.0
2006/12/27 00:06:00.000   35.311804315 -120.661091580   134.1689   3   8   0.9151   0.8393   2.1119  -0.2350   0.6768   0.3886   0.00    0.0
2006/12/27 00:06:30.000   35.311803654 -120.661092379   134.0081   3   8   0.9174   0.8392   2.1035  -0.2398   0.6732   0.3923   0.00    0.0
2006/12/27 00:07:00.000   35.311805781 -120.661094286   134.4152   3  10   0.8874   0.7682   1.6426   0.1330   0.6320   0.3026   0.00    0.0
2006/12/27 00:07:30.000   35.311806142 -120.661096938   134.3338   3  10   0.8887   0.7685   1.6393   0.1293   0.6304   0.3077   0.00    0.0
2006/12/27 00:08:00.000   35.311806352 -120.661096794   134.5180   3  10   0.8900   0.7689   1.6361   0.1255   0.6288   0.3128   0.00    0.0
2006/12/27 00:08:30.000   35.311805841 -120.661097117   134.2474   3   9   0.8921   0.7702   1.6359   0.1284   0.6303   0.3245   0.00    0.0
2006/12/27 00:09:00.000   35.311806064 -120.661096082   134.2876   3   9   0.8934   0.7706   1.6327   0.1243   0.6287   0.3289   0.00    0.0
2006/12/27 00:09:30.000   35.311804877 -120.661097021   133.9901   3  10   0.8935   0.7699   1.6259   0.1118   0.6236   0.3256   0.00    0.0
2006/12/27 00:10:00.000   35.311804462 -120.661095640   133.8842   3   9   0.8960   0.7714   1.6261   0.1155   0.6254   0.3373   0.00    0.0
2006/12/27 00:10:30.000   35.311802492 -120.661097280   133.6803   3   9   0.8974   0.7719   1.6228   0.1108   0.6237   0.3413   0.00    0.0
2006/12/27 00:11:00.000   35.311802460 -120.661094060   133.6045   3   9   0.8987   0.7723   1.6196   0.1057   0.6221   0.3451   0.00    0.0
2006/12/27 00:11:30.000   35.311801145 -120.661094847   133.6465   3   9   0.9001   0.7728   1.6163   0.1004   0.6204   0.3488   0.00    0.0
2006/12/27 00:12:00.000   35.311801493 -120.661091059   133.6145   3  10   0.8814   0.7659   1.6098  -0.1045   0.6141   0.3407   0.00    0.0
2006/12/27 00:12:30.000   35.311801535 -120.661093391   133.6263   3  10   0.8829   0.7665   1.6067  -0.1092   0.6126   0.3449   0.00    0.0
2006/12/27 00:13:00.000   35.311802338 -120.661091389   133.9871   3  10   0.8843   0.7669   1.6033  -0.1139   0.6109   0.3485   0.00    0.0
2006/12/27 00:13:30.000   35.311803358 -120.661092808   133.6867   3  10   0.8858   0.7675   1.6002  -0.1185   0.6094   0.3523   0.00    0.0
2006/12/27 00:14:00.000   35.311802780 -120.661093805   133.5970   3  10   0.8874   0.7680   1.5971  -0.1228   0.6079   0.3560   0.00    0.0
2006/12/27 00:14:30.000   35.311802951 -120.661093562   133.5760   3   9   0.8901   0.7695   1.5971  -0.1203   0.6095   0.3656   0.00    0.0
2006/12/27 00:15:00.000   35.311802022 -120.661094980   133.6200   3  10   0.8906   0.7692   1.5911  -0.1313   0.6050   0.3630   0.00    0.0
2006/12/27 00:15:30.000   35.311802864 -120.661094135   133.5424   3  10   0.8922   0.7698   1.5881  -0.1354   0.6036   0.3663   0.00    0.0
2006/12/27 00:16:00.000   35.311803372 -120.661093466   133.4091   3  10   0.8938   0.7705   1.5851  -0.1394   0.6022   0.3695   0.00    0.0
2006/12/27 00:16:30.000   35.311801885 -120.661092694   133.6625   3  10   0.8954   0.7711   1.5822  -0.1433   0.6007   0.3726   0.00    0.0
2006/12/27 00:17:00.000   35.311803013 -120.661092121   133.7456   3  10   0.8971   0.7718   1.5793  -0.1472   0.5993   0.3756   0.00    0.0
2006/12/27 00:17:30.000   35.311803150 -120.661091688   133.5926   3  10   0.8987   0.7724   1.5764  -0.1509   0.5979   0.3785   0.00    0.0
2006/12/27 00:18:00.000   35.311803332 -120.661091762   133.7914   3  10   0.9002   0.7730   1.5734  -0.1547   0.5963   0.3810   0.00    0.0
2006/12/27 00:18:30.000   35.311803920 -120.661092378   133.8050   3  10   0.9019   0.7737   1.5706  -0.1584   0.5949   0.3836   0.00    0.0
2006/12/27 00:19:00.000   35.311803824 -120.661092859   134.0718   3  10   0.9036   0.7744   1.5679  -0.1620   0.5935   0.3862   0.00    0.0
2006/12/27 00:19:30.000   35.311802994 -120.661092952   133.9029   3  10   0.9053   0.7752   1.5652  -0.1656   0.5921   0.3887   0.00    0.0
2006/12/27 00:20:00.000   35.311803972 -120.661092798   133.8372   3  10   0.9070   0.7759   1.5626  -0.1691   0.5908   0.3911   0.00    0.0
2006/12/27 00:20:30.000   35.311802200 -120.661092990   133.8222   3  10   0.8986   0.7688   1.5368  -0.2116   0.5636   0.3440   0.00    0.0
2006/12/27 00:21:00.000   35.311803859 -120.661093831   133.9081   3  10   0.9478   0.7743   1.5829  -0.1438   0.5912   0.4850   0.00    0.0
2006/12/27 00:21:30.000   35.311803630 -120.661094160   133.7244   3  10   0.9497   0.7751   1.5812  -0.1481   0.5900   0.4877   0.00    0.0
2006/12/27 00:22:00.000   35.311804101 -120.661092723   133.7576   3  10   0.9516   0.7758   1.5795  -0.1523   0.5888   0.4904   0.00    0.0
2006/12/27 00:22:30.000   35.311804167 -120.661092081   133.7144   3  10   0.9535   0.7766   1.5778  -0.1565   0.5877   0.4929   0.00    0.0
2006/12/27 00:23:00.000   35.311804710 -120.661091502   133.9541   3  10   0.9552   0.7773   1.5759  -0.1608   0.5863   0.4949   0.00    0.0
2006/12/27 00:23:30.000   35.311803980 -120.661091254   133.9479   3  10   0.9572   0.7781   1.5744  -0.1648   0.5851   0.4972   0.00    0.0
2006/12/27 00:24:00.000   35.311806177 -120.661090389   134.1178   3  10   0.9591   0.7790   1.5729  -0.1687   0.5840   0.4995   0.00    0.0
2006/12/27 00:24:30.000   35.311808215 -120.661089785   133.7643   3   9   1.1010   0.7953   1.7744   0.2326   0.4594  -0.4372   0.00    0.0
2006/12/27 00:25:00.000   35.311808642 -120.661090397   133.7479   3   9   1.1013   0.7958   1.7739   0.2268   0.4591  -0.4331   0.00    0.0
2006/12/27 00:25:30.000   35.311808885 -120.661091419   133.8456   3   9   1.1016   0.7964   1.7735   0.2208   0.4588  -0.4289   0.00    0.0
2006/12/27 00:26:00.000   35.311808381 -120.661090816   133.4994   3   9   1.1018   0.7969   1.7730   0.2146   0.4586  -0.4247   0.00    0.0
2006/12/27 00:26:30.000   35.311806013 -120.661093438   133.6238   3   9   1.1021   0.7975   1.7726   0.2083   0.4584  -0.4203   0.00    0.0
2006/12/27 00:27:00.000   35.311806458 -120.661094293   133.5366   3   9   1.1022   0.7981   1.7721   0.2018   0.4582  -0.4158   0.00    0.0
2006/12/27 00:27:30.000   35.311805048 -120.661094640   133.7201   3   9   1.1022   0.7986   1.7714   0.1948   0.4577  -0.4118   0.00    0.0
2006/12/27 00:28:00.000   35.311806871 -120.661093349   133.4921   3   9   1.1023   0.7993   1.7710   0.1877   0.4576  -0.4071   0.00    0.0
2006/12/27 00:28:30.000   35.311806546 -120.661091509   133.6871   3   9   1.1025   0.7999   1.7706   0.1804   0.4576  -0.4024   0.00    0.0
2006/12/27 00:29:00.000   35.311808114 -120.661088554   133.3536   3   9   1.1026   0.8006   1.7703   0.1727   0.4575  -0.3975   0.00    0.0
2006/12/27 00:29:30.000   35.311809987 -120.661087707   133.1911   3   9   1.1027   0.8013   1.7700   0.1646   0.4575  -0.3924   0.00    0.0
2006/12/27 00:30:00.000   35.311808954 -120.661089145   133.2289   3   9   1.1028   0.8020   1.7696   0.1562   0.4575  -0.3873   0.00    0.0
2006/12/27 00:30:30.000   35.311807392 -120.661090760   133.3320   3   9   1.1028   0.8027   1.7694   0.1472   0.4576  -0.3819   0.00    0.0
2006/12/27 00:31:00.000   35.311805331 -120.661094055   133.6060   3   9   1.1029   0.8034   1.7691   0.1377   0.4576  -0.3764   0.00    0.0
2006/12/27 00:31:30.000   35.311805927 -120.661093521   133.4739   3   9   1.1029   0.8042   1.7689   0.1274   0.4578  -0.3708   0.00    0.0
2006/12/27 00:32:00.000   35.311806397 -120.661092093   133.6780   3   9   1.1030   0.8050   1.7686   0.1164   0.4578  -0.3649   0.00    0.0
2006/12/27 00:32:30.000   35.311806582 -120.661092625   133.8464   3   9   1.1027   0.8057   1.7681   0.1036   0.4577  -0.3597   0.00    0.0
2006/12/27 00:33:00.000   35.311806207 -120.661091566   133.9725   3   9   1.1047   0.7881   1.7587  -0.1601   0.3929  -0.3644   0.00    0.0
2006/12/27 00:33:30.000   35.311805946 -120.661092828   133.8087   3   9   1.1046   0.7889   1.7594  -0.1688   0.3934  -0.3569   0.00    0.0
2006/12/27 00:34:00.000   35.311806711 -120.661091274   133.6674   3   9   1.1045   0.7897   1.7602  -0.1771   0.3938  -0.3491   0.00    0.0
2006/12/27 00:34:30.000   35.311807262 -120.661091327   133.6520   3   9   1.1044   0.7906   1.7610  -0.1850   0.3943  -0.3411   0.00    0.0
2006/12/27 00:35:00.000   35.311808325 -120.661088646   133.2340   3   9   1.1043   0.7915   1.7618  -0.1925   0.3948  -0.3328   0.00    0.0
2006/12/27 00:35:30.000   35.311809713 -120.661088279   133.2516   3   9   1.1042   0.7924   1.7627  -0.1998   0.3953  -0.3242   0.00    0.0
2006/12/27 00:36:00.000   35.311808339 -120.661092473   133.3923   3   9   1.1040   0.7933   1.7635  -0.2068   0.3958  -0.3153   0.00    0.0
2006/12/27 00:36:30.000   35.311808693 -120.661092699   133.4946   3   9   1.1038   0.7942   1.7644  -0.2134   0.3963  -0.3060   0.00    0.0
2006/12/27 00:37:00.000   35.311808188 -120.661095708   133.7033   3   9   1.1035   0.7950   1.7651  -0.2199   0.3967  -0.2971   0.00    0.0
2006/12/27 00:37:30.000   35.311806238 -120.661096997   133.7253   3   9   1.1033   0.7960   1.7661  -0.2263   0.3973  -0.2870   0.00    0.0
2006/12/27 00:38:00.000   35.311807600 -120.661095054   133.2637   3   9   1.1031   0.7969   1.7672  -0.2324   0.3979  -0.2764   0.00    0.0
2006/12/27 00:38:30.000   35.311806715 -120.661094214   133.3035   3   9   1.1029   0.7979   1.7683  -0.2383   0.3986  -0.2653   0.00    0.0
2006/12/27 00:39:00.000   35.311809832 -120.661092594   132.7193   3   9   1.1086   0.7889   1.7763  -0.2834   0.3571  -0.2151   0.00    0.0
2006/12/27 00:39:30.000   35.311808754 -120.661091830   132.9380   3   9   1.1083   0.7899   1.7780  -0.2884   0.3577  -0.1991   0.00    0.0
2006/12/27 00:40:00.000   35.311811017 -120.661090738   132.9168   3   9   1.1080   0.7909   1.7798  -0.2934   0.3583  -0.1815   0.00    0.0
2006/12/27 00:40:30.000   35.311808107 -120.661094267   133.0666   3   9   1.1077   0.7919   1.7815  -0.2982   0.3589  -0.1618   0.00    0.0
2006/12/27 00:41:00.000   35.311808568 -120.661094775   133.3670   3   9   1.1074   0.7930   1.7834  -0.3030   0.3595  -0.1391   0.00    0.0
2006/12/27 00:41:30.000   35.311808988 -120.661093039   133.1829   3   9   1.0814   0.7544   1.7440  -0.1894   0.1874   0.2793   0.00    0.0
2006/12/27 00:42:00.000   35.311808785 -120.661092500   133.6595   3   9   1.0812   0.7549   1.7459  -0.1968   0.1874   0.2897   0.00    0.0
2006/12/27 00:42:30.000   35.311807732 -120.661089861   133.0549   3   9   1.0812   0.7556   1.7480  -0.2039   0.1876   0.3003   0.00    0.0
2006/12/27 00:43:00.000   35.311807359 -120.661090095   133.2630   3   9   1.0813   0.7562   1.7503  -0.2108   0.1878   0.3107   0.00    0.0
2006/12/27 00:43:30.000   35.311809450 -120.661089302   133.2186   3   9   1.1249   0.7571   1.8166  -0.2063   0.2066   0.5013   0.00    0.0
2006/12/27 00:44:00.000   35.311807605 -120.661088602   133.2759   3   9   1.1247   0.7577   1.8194  -0.2137   0.2058   0.5079   0.00    0.0
2006/12/27 00:44:30.000   35.311807811 -120.661089438   133.6864   3   9   1.1244   0.7584   1.8222  -0.2209   0.2051   0.5144   0.00    0.0
2006/12/27 00:45:00.000   35.311806588 -120.661089108   133.5603   3   9   1.1241   0.7591   1.8250  -0.2278   0.2043   0.5209   0.00    0.0
2006/12/27 00:45:30.000   35.311807651 -120.661089542   133.8358   3   9   1.1238   0.7598   1.8279  -0.2345   0.2036   0.5273   0.00    0.0
2006/12/27 00:46:00.000   35.311805760 -120.661091149   134.1014   3   9   1.1234   0.7605   1.8308  -0.2409   0.2026   0.5338   0.00    0.0
2006/12/27 00:46:30.000   35.311805729 -120.661088669   133.7495   3   9   1.1231   0.7613   1.8337  -0.2472   0.2019   0.5401   0.00    0.0
2006/12/27 00:47:00.000   35.311805129 -120.661091222   134.0116   3   9   1.1226   0.7620   1.8366  -0.2533   0.2010   0.5463   0.00    0.0
2006/12/27 00:47:30.000   35.311804770 -120.661090155   133.7043   3   9   1.1223   0.7627   1.8396  -0.2592   0.2002   0.5526   0.00    0.0
2006/12/27 00:48:00.000   35.311803351 -120.661092085   134.1916   3   9   1.1023   0.7580   1.8198  -0.2988   0.1153   0.5017   0.00    0.0
2006/12/27 00:48:30.000   35.311803159 -120.661092928   134.1011   3   9   1.2038   0.7589   1.9948  -0.3058   0.1045   0.8070   0.00    0.0
2006/12/27 00:49:00.000   35.311805093 -120.661091555   134.2931   3   9   1.2031   0.7597   1.9994  -0.3115   0.0984   0.8121   0.00    0.0
2006/12/27 00:49:30.000   35.311804577 -120.661092208   133.9349   3   9   1.2024   0.7605   2.0039  -0.3170   0.0920   0.8171   0.00    0.0
2006/12/27 00:50:00.000   35.311805905 -120.661089829   133.5630   3   9   1.2016   0.7614   2.0084  -0.3224   0.0851   0.8219   0.00    0.0
2006/12/27 00:50:30.000   35.311804947 -120.661089978   133.7645   3   9   1.2008   0.7622   2.0128  -0.3276   0.0777   0.8266   0.00    0.0
2006/12/27 00:51:00.000   35.311805868 -120.661091712   133.8464   3   8   1.2731   0.7631   2.1476  -0.3376  -0.0307   1.0023   0.00    0.0
2006/12/27 00:51:30.000   35.311805814 -120.661091015   134.0057   3   8   1.2723   0.7640   2.1535  -0.3431  -0.0555   1.0073   0.00    0.0
2006/12/27 00:52:00.000   35.311803980 -120.661091422   133.7071   3   8   1.2714   0.7648   2.1593  -0.3485  -0.0709   1.0120   0.00    0.0
2006/12/27 00:52:30.000   35.311805416 -120.661092601   133.8673   3   8   1.2704   0.7658   2.1650  -0.3538  -0.0837   1.0166   0.00    0.0
2006/12/27 00:53:00.000   35.311803803 -120.661090445   133.7555   3   8   1.2694   0.7667   2.1705  -0.3590  -0.0947   1.0209   0.00    0.0
2006/12/27 00:53:30.000   35.311805084 -120.661093276   133.9016   3   8   1.2682   0.7677   2.1759  -0.3640  -0.1045   1.0249   0.00    0.0
2006/12/27 00:54:00.000   35.311804645 -120.661094685   134.1633   3   8   1.2669   0.7686   2.1812  -0.3689  -0.1133   1.0288   0.00    0.0
2006/12/27 00:54:30.000   35.311805371 -120.661095283   134.2483   3   8   1.2655   0.7696   2.1863  -0.3737  -0.1213   1.0324   0.00    0.0
2006/12/27 00:55:00.000   35.311806920 -120.661093686   133.8035   3   8   1.2640   0.7706   2.1912  -0.3783  -0.1287   1.0358   0.00    0.0
2006/12/27 00:55:30.000   35.311807536 -120.661092552   133.5888   3   8   1.2625   0.7716   2.1959  -0.3829  -0.1356   1.0389   0.00    0.0
2006/12/27 00:56:00.000   35.311806023 -120.661094928   133.8098   3   8   1.2608   0.7725   2.2004  -0.3872  -0.1425   1.0419   0.00    0.0
2006/12/27 00:56:30.000   35.311806969 -120.661090671   133.3580   3   8   1.2589   0.7735   2.2047  -0.3915  -0.1487   1.0446   0.00    0.0
2006/12/27 00:57:00.000   35.311805346 -120.661095725   133.7510   3   8   1.2570   0.7745   2.2090  -0.3956  -0.1543   1.0470   0.00    0.0
2006/12/27 00:57:30.000   35.311806039 -120.661093468   133.4097   3   8   1.2550   0.7755   2.2130  -0.3997  -0.1595   1.0492   0.00    0.0
2006/12/27 00:58:00.000   35.311806345 -120.661093893   133.3799   3   8   1.2529   0.7766   2.2168  -0.4036  -0.1644   1.0512   0.00    0.0
2006/12/27 00:58:30.000   35.311808244 -120.661092031   133.1342   3   8   1.2507   0.7776   2.2205  -0.4075  -0.1691   1.0529   0.00    0.0
2006/12/27 00:59:00.000   35.311808867 -120.661087701   132.6037   3   8   1.2484   0.7787   2.2239  -0.4112  -0.1734   1.0544   0.00    0.0
2006/12/27 00:59:30.000   35.311810703 -120.661089366   132.5886   3   8   1.2460   0.7798   2.2271  -0.4148  -0.1774   1.0556   0.00    0.0
2006/12/27 01:00:00.000   35.311807859 -120.661092455   133.1854   3   8   1.2435   0.7808   2.2301  -0.4184  -0.1812   1.0566   0.00    0.0
2006/12/27 01:00:30.000   35.311808792 -120.661095839   133.4907   3   8   1.2409   0.7819   2.2329  -0.4217  -0.1852   1.0574   0.00    0.0
2006/12/27 01:01:00.000   35.311807709 -120.661095959   133.7147   3   8   1.2379   0.7782   2.2038  -0.4279  -0.0612   1.0628   0.00    0.0
2006/12/27 01:01:30.000   35.311807636 -120.661096005   133.5245   3   8   1.2351   0.7793   2.2049  -0.4305  -0.0646   1.0623   0.00    0.0
2006/12/27 01:02:00.000   35.311807044 -120.661094468   133.3377   3   8   1.2323   0.7804   2.2059  -0.4332  -0.0677   1.0615   0.00    0.0
2006/12/27 01:02:30.000   35.311809068 -120.661095241   133.5351   3   8   1.2294   0.7815   2.2066  -0.4357  -0.0701   1.0605   0.00    0.0
2006/12/27 01:03:00.000   35.311808046 -120.661094424   133.6783   3   8   1.1943   0.7771   2.1555  -0.4665  -0.2209   0.9948   0.00    0.0
2006/12/27 01:03:30.000   35.311808417 -120.661097282   134.1318   3   8   1.1919   0.7782   2.1570  -0.4685  -0.2206   0.9949   0.00    0.0
2006/12/27 01:04:00.000   35.311806684 -120.661097165   134.1098   3   8   1.1895   0.7793   2.1582  -0.4704  -0.2201   0.9947   0.00    0.0
2006/12/27 01:04:30.000   35.311805262 -120.661099038   134.5119   3   8   1.1870   0.7803   2.1593  -0.4722  -0.2193   0.9942   0.00    0.0
2006/12/27 01:05:00.000   35.311805049 -120.661098286   134.6287   3   8   1.1844   0.7814   2.1601  -0.4739  -0.2184   0.9936   0.00    0.0
2006/12/27 01:05:30.000   35.311805096 -120.661099342   134.6336   3   8   1.1816   0.7824   2.1606  -0.4756  -0.2177   0.9927   0.00    0.0
2006/12/27 01:06:00.000   35.311804469 -120.661096080   134.3258   3   8   1.1788   0.7834   2.1609  -0.4772  -0.2166   0.9915   0.00    0.0
2006/12/27 01:06:30.000   35.311804070 -120.661092985   134.2943   3   8   1.1759   0.7844   2.1611  -0.4787  -0.2151   0.9901   0.00    0.0
2006/12/27 01:07:00.000   35.311805189 -120.661092139   134.2098   3   8   1.1729   0.7855   2.1610  -0.4802  -0.2134   0.9885   0.00    0.0
2006/12/27 01:07:30.000   35.311803787 -120.661091891   133.7931   3   8   1.1698   0.7866   2.1607  -0.4816  -0.2114   0.9866   0.00    0.0
2006/12/27 01:08:00.000   35.311804883 -120.661090852   133.9514   3   8   1.1666   0.7876   2.1603  -0.4829  -0.2093   0.9846   0.00    0.0
2006/12/27 01:08:30.000   35.311804201 -120.661092826   133.9315   3   8   1.1634   0.7887   2.1596  -0.4842  -0.2069   0.9823   0.00    0.0
2006/12/27 01:09:00.000   35.311805621 -120.661089146   133.3674   3   8   1.1600   0.7898   2.1587  -0.4854  -0.2043   0.9797   0.00    0.0
2006/12/27 01:09:30.000   35.311806846 -120.661091692   133.6377   3   8   1.1566   0.7908   2.1575  -0.4865  -0.2014   0.9770   0.00    0.0
2006/12/27 01:10:00.000   35.311804231 -120.661093467   134.2599   3   8   1.1532   0.7918   2.1561  -0.4876  -0.1988   0.9741   0.00    0.0
2006/12/27 01:10:30.000   35.311803725 -120.661092322   134.3330   3   8   1.1496   0.7929   2.1546  -0.4886  -0.1955   0.9710   0.00    0.0
2006/12/27 01:11:00.000   35.311803041 -120.661096769   134.4689   3   8   1.1459   0.7939   2.1527  -0.4895  -0.1921   0.9676   0.00    0.0
2006/12/27 01:11:30.000   35.311803956 -120.661096322   134.2551   3   8   1.1422   0.7950   2.1508  -0.4904  -0.1883   0.9640   0.00    0.0
2006/12/27 01:12:00.000   35.311802760 -120.661098373   134.4715   3   8   1.1385   0.7960   2.1486  -0.4913  -0.1842   0.9603   0.00    0.0
2006/12/27 01:12:30.000   35.311801535 -120.661096332   134.2053   3   8   1.1347   0.7971   2.1463  -0.4921  -0.1798   0.9564   0.00    0.0
2006/12/27 01:13:00.000   35.311805361 -120.661097465   134.1154   3   8   1.1308   0.7982   2.1438  -0.4929  -0.1750   0.9523   0.00    0.0
2006/12/27 01:13:30.000   35.311803834 -120.661098800   133.6147   3   8   1.1269   0.7992   2.1411  -0.4936  -0.1700   0.9480   0.00    0.0
2006/12/27 01:14:00.000   35.311805374 -120.661098423   134.2183   3   8   1.1230   0.8003   2.1382  -0.4943  -0.1646   0.9435   0.00    0.0
2006/12/27 01:14:30.000   35.311803961 -120.661099118   133.8163   3   8   1.1190   0.8014   2.1352  -0.4949  -0.1589   0.9389   0.00    0.0
2006/12/27 01:15:00.000   35.311804820 -120.661099757   134.3850   3   8   1.1149   0.8024   2.1319  -0.4954  -0.1535   0.9341   0.00    0.0
2006/12/27 01:15:30.000   35.311805108 -120.661099991   133.6479   3   8   1.1108   0.8034   2.1284  -0.4960  -0.1474   0.9292   0.00    0.0
2006/12/27 01:16:00.000   35.311803317 -120.661099824   133.9946   3   8   1.1066   0.8044   2.1248  -0.4964  -0.1401   0.9240   0.00    0.0
2006/12/27 01:16:30.000   35.311804287 -120.661100267   133.8569   3   8   1.1024   0.8055   2.1210  -0.4969  -0.1325   0.9188   0.00    0.0
2006/12/27 01:17:00.000   35.311804420 -120.661100463   133.2934   3   8   1.0983   0.8066   2.1172  -0.4973  -0.1242   0.9134   0.00    0.0
2006/12/27 01:17:30.000   35.311803860 -120.661101653   134.3083   3   8   1.0940   0.8076   2.1131  -0.4977  -0.1151   0.9078   0.00    0.0
2006/12/27 01:18:00.000   35.311803538 -120.661101867   133.9358   3   8   1.0898   0.8087   2.1090  -0.4981  -0.1051   0.9022   0.00    0.0
2006/12/27 01:18:30.000   35.311806231 -120.661098606   133.7669   3   8   1.0855   0.8098   2.1046  -0.4984  -0.0937   0.8964   0.00    0.0
2006/12/27 01:19:00.000   35.311803562 -120.661100675   134.4048   3   8   1.0813   0.8108   2.1002  -0.4987  -0.0806   0.8905   0.00    0.0
2006/12/27 01:19:30.000   35.311805754 -120.661098329   134.2733   3   8   1.0770   0.8119   2.0956  -0.4990  -0.0646   0.8844   0.00    0.0
2006/12/27 01:20:00.000   35.311803393 -120.661098234   134.3419   3   8   1.0727   0.8129   2.0908  -0.4992  -0.0460   0.8783   0.00    0.0
2006/12/27 01:20:30.000   35.311807083 -120.661097615   133.9873   3   9   1.0280   0.7534   1.9573  -0.3999  -0.4710   0.9847   0.00    0.0
2006/12/27 01:21:00.000   35.311805714 -120.661096996   133.9698   3   9   1.0232   0.7537   1.9542  -0.3990  -0.4679   0.9787   0.00    0.0
2006/12/27 01:21:30.000   35.311806310 -120.661096330   134.3806   3   9   1.0183   0.7541   1.9510  -0.3980  -0.4648   0.9725   0.00    0.0
2006/12/27 01:22:00.000   35.311806482 -120.661093658   133.9467   3   9   1.0135   0.7544   1.9477  -0.3969  -0.4616   0.9662   0.00    0.0
2006/12/27 01:22:30.000   35.311806162 -120.661093061   133.9468   3   9   1.0086   0.7548   1.9444  -0.3959  -0.4583   0.9599   0.00    0.0
2006/12/27 01:23:00.000   35.311806365 -120.661093633   133.6470   3   9   1.0038   0.7551   1.9409  -0.3949  -0.4549   0.9534   0.00    0.0
2006/12/27 01:23:30.000   35.311804463 -120.661094172   133.9427   3   9   0.9990   0.7555   1.9373  -0.3938  -0.4514   0.9468   0.00    0.0
2006/12/27 01:24:00.000   35.311805972 -120.661093878   133.8770   3   9   0.9941   0.7558   1.9337  -0.3927  -0.4478   0.9402   0.00    0.0
2006/12/27 01:24:30.000   35.311804872 -120.661092048   133.6800   3   9   0.9893   0.7561   1.9299  -0.3917  -0.4443   0.9334   0.00    0.0
2006/12/27 01:25:00.000   35.311804546 -120.661093244   134.2023   3   9   0.9845   0.7565   1.9261  -0.3906  -0.4406   0.9266   0.00    0.0
2006/12/27 01:25:30.000   35.311805894 -120.661090156   133.7385   3   9   0.9796   0.7568   1.9221  -0.3894  -0.4366   0.9196   0.00    0.0
2006/12/27 01:26:00.000   35.311806044 -120.661091078   133.6189   3   9   0.9749   0.7572   1.9181  -0.3883  -0.4327   0.9127   0.00    0.0
2006/12/27 01:26:30.000   35.311805879 -120.661090613   133.5826   3   9   0.9701   0.7576   1.9141  -0.3872  -0.4287   0.9056   0.00    0.0
2006/12/27 01:27:00.000   35.311806462 -120.661090275   133.5396   3   9   0.9654   0.7580   1.9100  -0.3861  -0.4245   0.8985   0.00    0.0
2006/12/27 01:27:30.000   35.311806323 -120.661091516   133.4760   3   9   0.9607   0.7584   1.9058  -0.3849  -0.4204   0.8914   0.00    0.0
2006/12/27 01:28:00.000   35.311806410 -120.661090449   133.5846   3   9   0.9560   0.7588   1.9016  -0.3838  -0.4161   0.8841   0.00    0.0
2006/12/27 01:28:30.000   35.311806614 -120.661091438   133.3749   3   9   0.9446   0.7505   1.8953  -0.3994  -0.4237   0.8711   0.00    0.0
2006/12/27 01:29:00.000   35.311807184 -120.661091441   133.2431   3   9   0.9403   0.7508   1.8912  -0.3980  -0.4186   0.8643   0.00    0.0
2006/12/27 01:29:30.000   35.311806105 -120.661094450   133.4645   3   9   0.9361   0.7511   1.8870  -0.3966  -0.4136   0.8575   0.00    0.0
2006/12/27 01:30:00.000   35.311806712 -120.661093660   133.4425   3   9   0.9317   0.7514   1.8826  -0.3951  -0.4082   0.8504   0.00    0.0
2006/12/27 01:30:30.000   35.311806455 -120.661093943   133.2398   3   9   0.9188   0.7397   1.8637  -0.3715  -0.4400   0.8608   0.00    0.0
2006/12/27 01:31:00.000   35.311805594 -120.661094128   133.4105   3   9   0.9146   0.7399   1.8595  -0.3698  -0.4350   0.8538   0.00    0.0
2006/12/27 01:31:30.000   35.311804606 -120.661091112   133.5423   3   8   0.9727   0.8247   1.9554  -0.5100   0.2001   0.7109   0.00    0.0
2006/12/27 01:32:00.000   35.311804587 -120.661089842   133.9416   3   8   0.9689   0.8257   1.9493  -0.5096   0.2079   0.7037   0.00    0.0
2006/12/27 01:32:30.000   35.311804249 -120.661091506   133.8364   3   8   0.9652   0.8267   1.9432  -0.5092   0.2154   0.6965   0.00    0.0
2006/12/27 01:33:00.000   35.311803834 -120.661090051   133.8861   3   8   0.9615   0.8276   1.9370  -0.5088   0.2226   0.6893   0.00    0.0
2006/12/27 01:33:30.000   35.311805243 -120.661090548   134.0134   3   8   0.9578   0.8286   1.9307  -0.5083   0.2295   0.6820   0.00    0.0
2006/12/27 01:34:00.000   35.311804400 -120.661090704   134.2163   3   8   0.9542   0.8295   1.9243  -0.5079   0.2352   0.6747   0.00    0.0
2006/12/27 01:34:30.000   35.311806166 -120.661090025   134.1231   3   8   0.9505   0.8305   1.9180  -0.5074   0.2416   0.6673   0.00    0.0
2006/12/27 01:35:00.000   35.311803939 -120.661091914   134.1642   3   8   0.9468   0.8314   1.9116  -0.5069   0.2479   0.6598   0.00    0.0
2006/12/27 01:35:30.000   35.311804758 -120.661090209   134.2099   3   8   0.9432   0.8324   1.9052  -0.5065   0.2538   0.6524   0.00    0.0
2006/12/27 01:36:00.000   35.311805439 -120.661090200   134.3841   3   8   0.9397   0.8334   1.8989  -0.5061   0.2595   0.6449   0.00    0.0
2006/12/27 01:36:30.000   35.311804613 -120.661091056   133.9520   3   8   0.9362   0.8344   1.8925  -0.5057   0.2650   0.6374   0.00    0.0
2006/12/27 01:37:00.000   35.311803812 -120.661091337   134.3056   3   8   0.9327   0.8354   1.8861  -0.5053   0.2704   0.6299   0.00    0.0
2006/12/27 01:37:30.000   35.311805009 -120.661090924   133.9528   3   8   0.9293   0.8364   1.8796  -0.5049   0.2755   0.6223   0.00    0.0
2006/12/27 01:38:00.000   35.311804850 -120.661092143   134.3604   3   8   0.9259   0.8375   1.8732  -0.5045   0.2805   0.6148   0.00    0.0
2006/12/27 01:38:30.000   35.311805909 -120.661093238   134.1306   3   8   0.9225   0.8385   1.8668  -0.5041   0.2853   0.6072   0.00    0.0
2006/12/27 01:39:00.000   35.311804658 -120.661090988   134.1739   3   8   0.9192   0.8393   1.8601  -0.5036   0.2892   0.5996   0.00    0.0
2006/12/27 01:39:30.000   35.311803524 -120.661091129   134.1957   3   8   0.9159   0.8403   1.8537  -0.5033   0.2936   0.5920   0.00    0.0
2006/12/27 01:40:00.000   35.311803839 -120.661092923   134.1080   3   8   0.9125   0.8413   1.8471  -0.5028   0.2982   0.5842   0.00    0.0
2006/12/27 01:40:30.000   35.311803865 -120.661091805   133.8924   3   8   0.9092   0.8423   1.8407  -0.5024   0.3024   0.5765   0.00    0.0
2006/12/27 01:41:00.000   35.311803562 -120.661094166   134.4382   3   8   0.9061   0.8434   1.8343  -0.5020   0.3065   0.5689   0.00    0.0
2006/12/27 01:41:30.000   35.311804792 -120.661091899   133.9343   3   8   0.9029   0.8444   1.8278  -0.5017   0.3105   0.5611   0.00    0.0
2006/12/27 01:42:00.000   35.311803450 -120.661094127   134.3438   3   8   0.8998   0.8455   1.8214  -0.5013   0.3143   0.5534   0.00    0.0
2006/12/27 01:42:30.000   35.311802847 -120.661091746   134.1377   3   8   0.8967   0.8465   1.8150  -0.5010   0.3180   0.5457   0.00    0.0
2006/12/27 01:43:00.000   35.311803662 -120.661093359   133.9821   3   8   0.8937   0.8476   1.8086  -0.5006   0.3216   0.5379   0.00    0.0
2006/12/27 01:43:30.000   35.311803017 -120.661093402   134.2288   3   8   0.8907   0.8487   1.8022  -0.5003   0.3251   0.5301   0.00    0.0
2006/12/27 01:44:00.000   35.311804362 -120.661093676   134.1269   3   8   0.8877   0.8495   1.7956  -0.4999   0.3277   0.5224   0.00    0.0
2006/12/27 01:44:30.000   35.311803287 -120.661091739   134.3921   3   8   0.8846   0.8505   1.7892  -0.4994   0.3310   0.5144   0.00    0.0
2006/12/27 01:45:00.000   35.311802180 -120.661092471   134.1100   3   8   0.8817   0.8515   1.7829  -0.4991   0.3342   0.5066   0.00    0.0
2006/12/27 01:45:30.000   35.311803709 -120.661092441   134.1659   3   8   0.8789   0.8526   1.7765  -0.4988   0.3372   0.4987   0.00    0.0
2006/12/27 01:46:00.000   35.311804174 -120.661093970   133.9918   3   8   0.8761   0.8537   1.7703  -0.4985   0.3401   0.4909   0.00    0.0
2006/12/27 01:46:30.000   35.311802472 -120.661093139   133.9674   3   8   0.8733   0.8548   1.7640  -0.4982   0.3430   0.4829   0.00    0.0
2006/12/27 01:47:00.000   35.311803052 -120.661094436   133.8632   3   8   0.8706   0.8559   1.7578  -0.4979   0.3457   0.4750   0.00    0.0
2006/12/27 01:47:30.000   35.311801288 -120.661093712   134.0921   3   8   0.8679   0.8570   1.7516  -0.4976   0.3484   0.4671   0.00    0.0
2006/12/27 01:48:00.000   35.311802769 -120.661093364   133.8147   3   8   0.8653   0.8581   1.7454  -0.4974   0.3509   0.4591   0.00    0.0
2006/12/27 01:48:30.000   35.311803108 -120.661093685   133.7641   3   8   0.8627   0.8589   1.7391  -0.4970   0.3526   0.4512   0.00    0.0
2006/12/27 01:49:00.000   35.311802030 -120.661091974   134.1563   3   8   0.8601   0.8600   1.7330  -0.4968   0.3549   0.4431   0.00    0.0
2006/12/27 01:49:30.000   35.311804392 -120.661091472   133.7399   3   8   0.8574   0.8610   1.7268  -0.4963   0.3574   0.4349   0.00    0.0
2006/12/27 01:50:00.000   35.311804529 -120.661092431   133.7172   3   8   0.8549   0.8622   1.7208  -0.4961   0.3596   0.4267   0.00    0.0
2006/12/27 01:50:30.000   35.311804373 -120.661093009   133.9978   3   8   0.8525   0.8633   1.7148  -0.4958   0.3617   0.4186   0.00    0.0
2006/12/27 01:51:00.000   35.311804237 -120.661091309   133.9974   3   8   0.8501   0.8644   1.7088  -0.4956   0.3638   0.4103   0.00    0.0
2006/12/27 01:51:30.000   35.311804148 -120.661092775   134.0594   3   8   0.8477   0.8655   1.7029  -0.4953   0.3658   0.4021   0.00    0.0
2006/12/27 01:52:00.000   35.311803228 -120.661091304   134.2899   3   8   0.8454   0.8667   1.6970  -0.4951   0.3676   0.3937   0.00    0.0
2006/12/27 01:52:30.000   35.311803618 -120.661091671   134.3123   3   8   0.8431   0.8678   1.6912  -0.4948   0.3695   0.3853   0.00    0.0
2006/12/27 01:53:00.000   35.311803691 -120.661091572   134.3629   3   8   0.8408   0.8689   1.6854  -0.4946   0.3712   0.3769   0.00    0.0
2006/12/27 01:53:30.000   35.311802239 -120.661090673   134.6389   3   8   0.8386   0.8698   1.6794  -0.4943   0.3721   0.3684   0.00    0.0
2006/12/27 01:54:00.000   35.311804451 -120.661091572   134.1333   3   8   0.8364   0.8709   1.6736  -0.4940   0.3736   0.3598   0.00    0.0
2006/12/27 01:54:30.000   35.311802884 -120.661090764   134.3248   3   8   0.8343   0.8720   1.6680  -0.4938   0.3752   0.3511   0.00    0.0
2006/12/27 01:55:00.000   35.311804548 -120.661090762   134.4348   3   8   0.8322   0.8732   1.6624  -0.4936   0.3766   0.3423   0.00    0.0
2006/12/27 01:55:30.000   35.311803013 -120.661090316   134.4067   3   8   0.8224   0.8722   1.6551  -0.4863   0.3813   0.3276   0.00    0.0
2006/12/27 01:56:00.000   35.311804525 -120.661090085   134.2238   3   8   0.8324   0.8712   1.6398  -0.4982   0.3687   0.3234   0.00    0.0
2006/12/27 01:56:30.000   35.311803720 -120.661090939   134.1305   3   8   0.8304   0.8723   1.6344  -0.4979   0.3700   0.3143   0.00    0.0
2006/12/27 01:57:00.000   35.311804519 -120.661089463   134.0675   3   8   0.8285   0.8735   1.6291  -0.4977   0.3712   0.3051   0.00    0.0
2006/12/27 01:57:30.000   35.311803879 -120.661090302   134.2305   3   8   0.8266   0.8747   1.6238  -0.4975   0.3724   0.2957   0.00    0.0
2006/12/27 01:58:00.000   35.311805584 -120.661089113   134.0149   3   8   0.8247   0.8755   1.6183  -0.4972   0.3726   0.2863   0.00    0.0
2006/12/27 01:58:30.000   35.311804508 -120.661089146   134.0328   3   8   0.8229   0.8767   1.6131  -0.4970   0.3736   0.2765   0.00    0.0
2006/12/27 01:59:00.000   35.311805648 -120.661088094   134.0067   3   8   0.8211   0.8779   1.6079  -0.4967   0.3746   0.2665   0.00    0.0
2006/12/27 01:59:30.000   35.311804406 -120.661087814   134.1255   3   8   0.8211   0.9481   1.6519  -0.5152   0.5321   0.2106   0.00    0.0
2006/12/27 02:00:00.000   35.311805524 -120.661089104   134.0795   3   8   0.8194   0.9494   1.6465  -0.5150   0.5320   0.1982   0.00    0.0
2006/12/27 02:00:30.000   35.311804767 -120.661086829   133.9569   3   8   0.8177   0.9506   1.6412  -0.5147   0.5319   0.1850   0.00    0.0
2006/12/27 02:01:00.000   35.311804159 -120.661088701   133.9832   3   8   0.8161   0.9518   1.6359  -0.5144   0.5317   0.1710   0.00    0.0
2006/12/27 02:01:30.000   35.311803522 -120.661086682   133.9842   3   8   0.8145   0.9530   1.6306  -0.5142   0.5315   0.1560   0.00    0.0
2006/12/27 02:02:00.000   35.311802765 -120.661089495   133.9647   3   8   0.8130   0.9542   1.6255  -0.5139   0.5313   0.1395   0.00    0.0
2006/12/27 02:02:30.000   35.311803341 -120.661088186   133.6775   3   9   0.8029   0.9553   1.6054  -0.5158   0.5271  -0.1060   0.00    0.0
2006/12/27 02:03:00.000   35.311803360 -120.661089744   133.8633   3   9   0.8016   0.9562   1.6008  -0.5155   0.5262  -0.1230   0.00    0.0
2006/12/27 02:03:30.000   35.311803091 -120.661089840   133.3178   3   9   0.8003   0.9574   1.5963  -0.5152   0.5259  -0.1383   0.00    0.0
2006/12/27 02:04:00.000   35.311804612 -120.661092164   133.6134   3   9   0.7990   0.9586   1.5919  -0.5149   0.5255  -0.1519   0.00    0.0
2006/12/27 02:04:30.000   35.311804945 -120.661093165   133.5047   3   9   0.7978   0.9598   1.5876  -0.5146   0.5251  -0.1643   0.00    0.0
2006/12/27 02:05:00.000   35.311805137 -120.661092836   133.5517   3   9   0.7967   0.9611   1.5834  -0.5144   0.5246  -0.1758   0.00    0.0
2006/12/27 02:05:30.000   35.311805427 -120.661092424   133.5009   3   9   0.7956   0.9623   1.5792  -0.5141   0.5241  -0.1866   0.00    0.0
2006/12/27 02:06:00.000   35.311805941 -120.661092021   133.5338   3   9   0.7945   0.9635   1.5750  -0.5138   0.5236  -0.1967   0.00    0.0
2006/12/27 02:06:30.000   35.311804474 -120.661092253   133.6420   3   9   0.7935   0.9648   1.5709  -0.5136   0.5230  -0.2063   0.00    0.0
2006/12/27 02:07:00.000   35.311804495 -120.661091410   133.6667   3   9   0.7925   0.9660   1.5669  -0.5133   0.5223  -0.2155   0.00    0.0
2006/12/27 02:07:30.000   35.311804434 -120.661090448   133.8134   3   9   0.7915   0.9673   1.5629  -0.5130   0.5216  -0.2243   0.00    0.0
2006/12/27 02:08:00.000   35.311806335 -120.661090493   133.5555   3   8   0.8927   0.9765   1.8229  -0.4593   0.3907  -0.6676   0.00    0.0
2006/12/27 02:08:30.000   35.311805895 -120.661088720   133.3316   3   8   0.8917   0.9775   1.8181  -0.4596   0.3917  -0.6694   0.00    0.0
2006/12/27 02:09:00.000   35.311805250 -120.661091287   133.6349   3   8   0.8771   0.9783   1.7947  -0.4643   0.3840  -0.7006   0.00    0.0
2006/12/27 02:09:30.000   35.311804995 -120.661089614   133.2948   3   8   0.8900   0.9798   1.8087  -0.4603   0.3935  -0.6729   0.00    0.0
2006/12/27 02:10:00.000   35.311804563 -120.661092315   133.9444   3   8   0.8892   0.9809   1.8041  -0.4606   0.3942  -0.6745   0.00    0.0
2006/12/27 02:10:30.000   35.311803337 -120.661090288   133.6173   3   8   0.8747   0.9817   1.7838  -0.4654   0.3869  -0.7029   0.00    0.0
2006/12/27 02:11:00.000   35.311803808 -120.661091991   133.8124   3   8   0.8739   0.9828   1.7802  -0.4657   0.3877  -0.7037   0.00    0.0
2006/12/27 02:11:30.000   35.311804775 -120.661091323   133.4717   3   8   0.8732   0.9840   1.7765  -0.4661   0.3884  -0.7044   0.00    0.0
2006/12/27 02:12:00.000   35.311804836 -120.661093025   133.5310   3   8   0.8725   0.9852   1.7729  -0.4664   0.3891  -0.7051   0.00    0.0
2006/12/27 02:12:30.000   35.311804440 -120.661092157   133.7213   3   8   0.8855   0.9866   1.7814  -0.4621   0.3964  -0.6824   0.00    0.0
2006/12/27 02:13:00.000   35.311806370 -120.661092119   133.6770   3   8   0.8846   0.9538   1.7591  -0.4560   0.4711  -0.6882   0.00    0.0
2006/12/27 02:13:30.000   35.311804396 -120.661092963   133.8698   3   8   0.8705   0.9885   1.7618  -0.4673   0.3902  -0.7071   0.00    0.0
2006/12/27 02:14:00.000   35.311805054 -120.661091367   133.5093   3   8   0.8695   0.9558   1.7392  -0.4602   0.4679  -0.7127   0.00    0.0
2006/12/27 02:14:30.000   35.311803454 -120.661091640   133.6355   3   8   0.8689   0.9570   1.7354  -0.4604   0.4687  -0.7135   0.00    0.0
2006/12/27 02:15:00.000   35.311804721 -120.661087869   133.5243   3   8   0.8683   0.9582   1.7315  -0.4606   0.4695  -0.7143   0.00    0.0
2006/12/27 02:15:30.000   35.311803687 -120.661089541   133.6210   3   8   0.8678   0.9594   1.7278  -0.4607   0.4702  -0.7151   0.00    0.0
2006/12/27 02:16:00.000   35.311804057 -120.661088484   133.6309   3   8   0.8593   0.9604   1.7195  -0.4632   0.4684  -0.7260   0.00    0.0
2006/12/27 02:16:30.000   35.311803696 -120.661089677   133.6376   3   8   0.8589   0.9617   1.7161  -0.4634   0.4691  -0.7264   0.00    0.0
2006/12/27 02:17:00.000   35.311802587 -120.661089402   133.8130   3   8   0.8584   0.9629   1.7127  -0.4636   0.4697  -0.7268   0.00    0.0
2006/12/27 02:17:30.000   35.311803812 -120.661090837   133.4314   3   8   0.8580   0.9640   1.7091  -0.4637   0.4698  -0.7272   0.00    0.0
2006/12/27 02:18:00.000   35.311802631 -120.661090255   133.8371   3   8   0.8575   0.9652   1.7057  -0.4638   0.4704  -0.7276   0.00    0.0
2006/12/27 02:18:30.000   35.311802378 -120.661091189   133.8060   3   8   0.8571   0.9665   1.7023  -0.4640   0.4708  -0.7280   0.00    0.0
2006/12/27 02:19:00.000   35.311803330 -120.661088238   133.6883   3   8   0.8568   0.9678   1.6990  -0.4642   0.4712  -0.7284   0.00    0.0
2006/12/27 02:19:30.000   35.311801546 -120.661090503   134.0777   3   8   0.8565   0.9691   1.6957  -0.4643   0.4716  -0.7289   0.00    0.0
2006/12/27 02:20:00.000   35.311804065 -120.661089302   133.6642   3   8   0.8563   0.9705   1.6925  -0.4645   0.4719  -0.7293   0.00    0.0
2006/12/27 02:20:30.000   35.311802787 -120.661088952   134.0586   3   8   0.8561   0.9718   1.6893  -0.4647   0.4721  -0.7298   0.00    0.0
2006/12/27 02:21:00.000   35.311803411 -120.661089319   134.0381   3   8   0.8925   0.9947   1.7054  -0.5178   0.4128  -0.6845   0.00    0.0
2006/12/27 02:21:30.000   35.311804790 -120.661088746   133.6313   3   8   0.8918   0.9959   1.7023  -0.5174   0.4133  -0.6853   0.00    0.0
2006/12/27 02:22:00.000   35.311803206 -120.661088271   134.0531   3   8   0.8672   0.9868   1.6884  -0.4937   0.4415  -0.7135   0.00    0.0
2006/12/27 02:22:30.000   35.311802420 -120.661087956   134.0135   3   8   0.8494   0.9771   1.6756  -0.4672   0.4710  -0.7356   0.00    0.0
2006/12/27 02:23:00.000   35.311805827 -120.661088786   133.5755   3   8   0.8493   0.9785   1.6726  -0.4673   0.4712  -0.7359   0.00    0.0
2006/12/27 02:23:30.000   35.311804978 -120.661091578   134.0550   3   8   0.8493   0.9800   1.6698  -0.4675   0.4712  -0.7363   0.00    0.0
2006/12/27 02:24:00.000   35.311804079 -120.661090720   133.9249   3   8   0.8493   0.9815   1.6669  -0.4677   0.4712  -0.7366   0.00    0.0
2006/12/27 02:24:30.000   35.311804800 -120.661090902   133.9597   3   8   0.8494   0.9830   1.6642  -0.4679   0.4711  -0.7370   0.00    0.0
2006/12/27 02:25:00.000   35.311804708 -120.661091170   133.6840   3   8   0.8541   1.0385   1.7038  -0.4985   0.5887  -0.7599   0.00    0.0
2006/12/27 02:25:30.000   35.311804464 -120.661092734   133.9456   3   8   0.8542   1.0399   1.7008  -0.4984   0.5880  -0.7600   0.00    0.0
2006/12/27 02:26:00.000   35.311804671 -120.661091475   133.9359   3   8   0.8543   1.0414   1.6978  -0.4984   0.5872  -0.7602   0.00    0.0
2006/12/27 02:26:30.000   35.311805677 -120.661092087   133.6092   3   8   0.8545   1.0428   1.6949  -0.4983   0.5863  -0.7605   0.00    0.0
2006/12/27 02:27:00.000   35.311803782 -120.661091054   134.0804   3   8   0.8548   1.0441   1.6919  -0.4981   0.5850  -0.7606   0.00    0.0
2006/12/27 02:27:30.000   35.311805055 -120.661092065   133.9067   3   8   0.8550   1.0455   1.6891  -0.4980   0.5841  -0.7610   0.00    0.0
2006/12/27 02:28:00.000   35.311804623 -120.661091837   134.1146   3   8   0.8553   1.0470   1.6862  -0.4979   0.5832  -0.7614   0.00    0.0
2006/12/27 02:28:30.000   35.311805249 -120.661092099   134.0117   3   8   0.8697   1.0566   1.6944  -0.5178   0.5604  -0.7421   0.00    0.0
2006/12/27 02:29:00.000   35.311804272 -120.661091756   134.1651   3   8   0.8699   1.0580   1.6919  -0.5174   0.5595  -0.7427   0.00    0.0
2006/12/27 02:29:30.000   35.311806394 -120.661092522   134.0539   3   8   0.8701   1.0595   1.6895  -0.5171   0.5585  -0.7434   0.00    0.0
2006/12/27 02:30:00.000   35.311806740 -120.661090765   133.9086   3   8   0.8705   1.0609   1.6872  -0.5167   0.5575  -0.7442   0.00    0.0
2006/12/27 02:30:30.000   35.311806753 -120.661091786   133.9489   3   8   0.8708   1.0624   1.6849  -0.5163   0.5565  -0.7451   0.00    0.0
2006/12/27 02:31:00.000   35.311806239 -120.661090913   133.7878   3   8   0.8713   1.0639   1.6828  -0.5159   0.5555  -0.7460   0.00    0.0
2006/12/27 02:31:30.000   35.311806686 -120.661091728   133.5786   3   8   0.8718   1.0654   1.6807  -0.5156   0.5544  -0.7470   0.00    0.0
2006/12/27 02:32:00.000   35.311806685 -120.661091177   133.3812   3   8   0.8724   1.0668   1.6786  -0.5151   0.5527  -0.7481   0.00    0.0
2006/12/27 02:32:30.000   35.311805978 -120.661091693   133.7552   3   8   0.8729   1.0683   1.6766  -0.5146   0.5517  -0.7493   0.00    0.0
2006/12/27 02:33:00.000   35.311805779 -120.661093592   133.6513   3   8   0.8737   1.0699   1.6749  -0.5143   0.5505  -0.7505   0.00    0.0
2006/12/27 02:33:30.000   35.311804510 -120.661092725   133.7184   3   8   0.8745   1.0716   1.6733  -0.5139   0.5493  -0.7519   0.00    0.0
2006/12/27 02:34:00.000   35.311805145 -120.661093683   133.6266   3   8   0.8785   1.1205   1.7077  -0.5363   0.6421  -0.7703   0.00    0.0
2006/12/27 02:34:30.000   35.311804708 -120.661093530   133.7318   3   8   0.8794   1.1219   1.7061  -0.5357   0.6404  -0.7716   0.00    0.0
2006/12/27 02:35:00.000   35.311811432 -120.661090979   132.3501   3   7   1.9243   1.1852   3.7566   0.6000  -0.9292  -2.5184   0.00    0.0
2006/12/27 02:35:30.000   35.311810202 -120.661092010   132.4377   3   7   1.9205   1.1852   3.7460   0.5923  -0.9197  -2.5118   0.00    0.0
2006/12/27 02:36:00.000   35.311809470 -120.661090870   132.7748   3   7   1.9166   1.1852   3.7353   0.5845  -0.9102  -2.5050   0.00    0.0
2006/12/27 02:36:30.000   35.311808689 -120.661091780   132.7459   3   7   1.9123   1.1852   3.7235   0.5771  -0.9014  -2.4976   0.00    0.0
2006/12/27 02:37:00.000   35.311803136 -120.661087719   134.1150   3   9   0.8898   0.8773   1.6546   0.3690  -0.3483  -0.7944   0.00    0.0
2006/12/27 02:37:30.000   35.311802358 -120.661088807   134.2229   3   9   0.8905   0.8768   1.6576   0.3681  -0.3481  -0.7973   0.00    0.0
2006/12/27 02:38:00.000   35.311803697 -120.661088850   134.2764   3   9   0.8916   0.8913   1.6706   0.3725  -0.3028  -0.7975   0.00    0.0
2006/12/27 02:38:30.000   35.311803022 -120.661088901   134.4376   3   9   0.8924   0.8908   1.6738   0.3715  -0.3028  -0.8004   0.00    0.0
2006/12/27 02:39:00.000   35.311802575 -120.661088767   134.3929   3   9   0.8933   0.8903   1.6771   0.3705  -0.3028  -0.8033   0.00    0.0
2006/12/27 02:39:30.000   35.311802351 -120.661088507   134.5162   3   9   0.8942   0.8898   1.6804   0.3696  -0.3028  -0.8062   0.00    0.0
2006/12/27 02:40:00.000   35.311801622 -120.661086875   134.7385   3   9   0.8974   0.9845   1.7528   0.4033   0.3376  -0.7898   0.00    0.0
2006/12/27 02:40:30.000   35.311802078 -120.661086845   134.6229   3   9   0.8984   0.9837   1.7568   0.4022   0.3385  -0.7927   0.00    0.0
2006/12/27 02:41:00.000   35.311802629 -120.661088015   134.4600   3   9   0.8994   0.9829   1.7608   0.4012   0.3395  -0.7956   0.00    0.0
2006/12/27 02:41:30.000   35.311802915 -120.661088064   134.3116   3   9   0.9005   0.9821   1.7649   0.4001   0.3405  -0.7984   0.00    0.0
2006/12/27 02:42:00.000   35.311803301 -120.661088052   134.3735   3   9   0.9015   0.9813   1.7687   0.3990   0.3416  -0.8014   0.00    0.0
2006/12/27 02:42:30.000   35.311803239 -120.661087644   134.2100   3   9   0.9026   0.9806   1.7729   0.3980   0.3427  -0.8042   0.00    0.0
2006/12/27 02:43:00.000   35.311804185 -120.661087491   134.3038   3   9   0.9038   0.9799   1.7772   0.3969   0.3438  -0.8069   0.00    0.0
2006/12/27 02:43:30.000   35.311804140 -120.661088223   134.1570   3   9   0.9050   0.9792   1.7815   0.3958   0.3450  -0.8097   0.00    0.0
2006/12/27 02:44:00.000   35.311805007 -120.661088430   133.9043   3   9   0.9063   0.9785   1.7859   0.3947   0.3463  -0.8123   0.00    0.0
2006/12/27 02:44:30.000   35.311804757 -120.661088104   133.9762   3   9   0.9076   0.9778   1.7904   0.3935   0.3476  -0.8150   0.00    0.0
2006/12/27 02:45:00.000   35.311805794 -120.661088359   133.5079   3   9   0.9083   0.9548   1.7760   0.3839   0.2601  -0.8226   0.00    0.0
2006/12/27 02:45:30.000   35.311804468 -120.661089700   133.8282   3   9   0.9097   0.9542   1.7804   0.3827   0.2613  -0.8252   0.00    0.0
2006/12/27 02:46:00.000   35.311806679 -120.661090252   133.6263   3   9   0.9111   0.9536   1.7849   0.3815   0.2626  -0.8278   0.00    0.0
2006/12/27 02:46:30.000   35.311806106 -120.661089657   133.5313   3   9   0.9125   0.9530   1.7895   0.3803   0.2639  -0.8303   0.00    0.0
2006/12/27 02:47:00.000   35.311806641 -120.661090290   133.9287   3   9   0.9138   0.9524   1.7936   0.3791   0.2655  -0.8330   0.00    0.0
2006/12/27 02:47:30.000   35.311806354 -120.661090255   133.7885   3   9   0.9153   0.9519   1.7983   0.3778   0.2670  -0.8354   0.00    0.0
2006/12/27 02:48:00.000   35.311805520 -120.661090186   134.1242   3   9   0.9168   0.9514   1.8031   0.3766   0.2686  -0.8378   0.00    0.0
2006/12/27 02:48:30.000   35.311806653 -120.661088918   133.9640   3   9   0.9184   0.9509   1.8080   0.3753   0.2702  -0.8401   0.00    0.0
2006/12/27 02:49:00.000   35.311806244 -120.661088916   134.0882   3   9   0.9206   0.9726   1.8343   0.3830   0.3626  -0.8369   0.00    0.0
2006/12/27 02:49:30.000   35.311806520 -120.661088774   134.1116   3   9   0.9222   0.9721   1.8397   0.3817   0.3647  -0.8390   0.00    0.0
2006/12/27 02:50:00.000   35.311806142 -120.661088704   134.1644   3   9   0.9238   0.9717   1.8453   0.3805   0.3668  -0.8410   0.00    0.0
2006/12/27 02:50:30.000   35.311806427 -120.661089143   134.0829   3   9   0.9273   0.9712   1.8614   0.3793   0.3690  -0.8362   0.00    0.0
2006/12/27 02:51:00.000   35.311804699 -120.661088036   134.3852   3   9   0.9289   0.9708   1.8668   0.3781   0.3714  -0.8385   0.00    0.0
2006/12/27 02:51:30.000   35.311804670 -120.661087897   134.1471   3   8   0.9171   0.9405   1.8289   0.3218   0.4999  -0.8001   0.00    0.0
2006/12/27 02:52:00.000   35.311803413 -120.661087856   134.0663   3   8   0.9185   0.9401   1.8337   0.3201   0.5023  -0.8022   0.00    0.0
2006/12/27 02:52:30.000   35.311804566 -120.661088564   133.9952   3   8   0.9201   0.9398   1.8391   0.3185   0.5047  -0.8039   0.00    0.0
2006/12/27 02:53:00.000   35.311802839 -120.661088446   134.1082   3   8   0.9217   0.9396   1.8446   0.3168   0.5073  -0.8055   0.00    0.0
2006/12/27 02:53:30.000   35.311804429 -120.661088602   134.1237   3   8   0.9233   0.9393   1.8503   0.3152   0.5099  -0.8071   0.00    0.0
2006/12/27 02:54:00.000   35.311802853 -120.661090151   134.1087   3   8   0.9250   0.9391   1.8560   0.3136   0.5126  -0.8085   0.00    0.0
2006/12/27 02:54:30.000   35.311804232 -120.661090208   134.0494   3   8   0.9267   0.9389   1.8618   0.3119   0.5154  -0.8099   0.00    0.0
2006/12/27 02:55:00.000   35.311802991 -120.661091644   133.8540   3   8   0.9284   0.9387   1.8678   0.3103   0.5183  -0.8112   0.00    0.0
2006/12/27 02:55:30.000   35.311804848 -120.661091300   133.8524   3   8   0.9301   0.9386   1.8738   0.3086   0.5212  -0.8124   0.00    0.0
2006/12/27 02:56:00.000   35.311805229 -120.661093279   133.6169   3   8   0.9328   0.9385   1.8850   0.3076   0.5254  -0.8101   0.00    0.0
2006/12/27 02:56:30.000   35.311807686 -120.661092334   133.6397   3   7   0.9460   0.9389   1.9576   0.3135   0.5437  -0.7639   0.00    0.0
2006/12/27 02:57:00.000   35.311806894 -120.661093518   133.5779   3   7   0.9471   0.9388   1.9614   0.3116   0.5466  -0.7673   0.00    0.0
2006/12/27 02:57:30.000   35.311808348 -120.661094746   133.6735   3   7   0.9878   0.9420   1.9861   0.3431   0.5696  -0.7172   0.00    0.0
2006/12/27 02:58:00.000   35.311807274 -120.661093832   133.4987   3   7   0.9886   0.9420   1.9903   0.3414   0.5729  -0.7203   0.00    0.0
2006/12/27 02:58:30.000   35.311809261 -120.661094039   133.4413   3   7   0.9894   0.9420   1.9944   0.3398   0.5761  -0.7233   0.00    0.0
2006/12/27 02:59:00.000   35.311807295 -120.661094334   133.4948   3   7   0.9903   0.9420   1.9985   0.3381   0.5794  -0.7264   0.00    0.0
2006/12/27 02:59:30.000   35.311807791 -120.661091749   133.5051   3   7   0.9911   0.9421   2.0025   0.3364   0.5827  -0.7294   0.00    0.0
2006/12/27 03:00:00.000   35.311807558 -120.661093584   133.5572   3   7   0.9920   0.9421   2.0065   0.3347   0.5860  -0.7323   0.00    0.0
2006/12/27 03:00:30.000   35.311807374 -120.661092193   133.7735   3   7   0.9929   0.9422   2.0104   0.3329   0.5894  -0.7353   0.00    0.0
2006/12/27 03:01:00.000   35.311807084 -120.661093151   133.2922   3   7   0.9937   0.9423   2.0141   0.3312   0.5926  -0.7382   0.00    0.0
2006/12/27 03:01:30.000   35.311805364 -120.661094156   133.7989   3   7   0.9946   0.9424   2.0179   0.3293   0.5960  -0.7410   0.00    0.0
2006/12/27 03:02:00.000   35.311805390 -120.661094436   133.4246   3   7   0.9956   0.9425   2.0217   0.3275   0.5995  -0.7438   0.00    0.0
2006/12/27 03:02:30.000   35.311804506 -120.661094306   133.6492   3   7   0.9530   0.9348   2.0171   0.2655   0.6213  -0.7098   0.00    0.0
2006/12/27 03:03:00.000   35.311806229 -120.661094308   133.5697   3   7   0.9539   0.9350   2.0203   0.2633   0.6251  -0.7115   0.00    0.0
2006/12/27 03:03:30.000   35.311804627 -120.661094424   133.5047   3   7   0.9548   0.9353   2.0234   0.2611   0.6290  -0.7131   0.00    0.0
2006/12/27 03:04:00.000   35.311804662 -120.661094968   133.4640   3   7   0.9557   0.9356   2.0265   0.2589   0.6329  -0.7147   0.00    0.0
2006/12/27 03:04:30.000   35.311804726 -120.661096502   133.6938   3   7   0.9567   0.9359   2.0295   0.2566   0.6369  -0.7162   0.00    0.0
2006/12/27 03:05:00.000   35.311804819 -120.661095585   133.5893   3   7   0.9577   0.9363   2.0325   0.2544   0.6408  -0.7177   0.00    0.0
2006/12/27 03:05:30.000   35.311805571 -120.661095711   133.5080   3   7   0.9587   0.9366   2.0354   0.2521   0.6448  -0.7190   0.00    0.0
2006/12/27 03:06:00.000   35.311805483 -120.661093832   133.7741   3   7   0.9596   0.9369   2.0379   0.2497   0.6486  -0.7204   0.00    0.0
2006/12/27 03:06:30.000   35.311805251 -120.661093360   133.4541   3   7   0.9607   0.9373   2.0408   0.2475   0.6527  -0.7215   0.00    0.0
2006/12/27 03:07:00.000   35.311805507 -120.661093160   133.8402   3   7   0.9619   0.9377   2.0437   0.2453   0.6568  -0.7225   0.00    0.0
2006/12/27 03:07:30.000   35.311804558 -120.661093549   133.4957   3   7   0.9631   0.9382   2.0465   0.2430   0.6609  -0.7234   0.00    0.0
2006/12/27 03:08:00.000   35.311805628 -120.661092885   133.8410   3   7   0.9644   0.9387   2.0493   0.2407   0.6651  -0.7242   0.00    0.0
2006/12/27 03:08:30.000   35.311804602 -120.661093916   133.6979   3   7   0.9656   0.9392   2.0520   0.2385   0.6693  -0.7249   0.00    0.0
2006/12/27 03:09:00.000   35.311806810 -120.661092071   133.5578   3   6   1.0977   1.1816   2.6468   0.6543  -0.8612  -1.1805   0.00    0.0
2006/12/27 03:09:30.000   35.311805881 -120.661093198   133.7270   3   6   1.0996   1.1789   2.6457   0.6522  -0.8506  -1.1807   0.00    0.0
2006/12/27 03:10:00.000   35.311806855 -120.661093789   133.8653   3   6   1.1014   1.1763   2.6446   0.6501  -0.8399  -1.1809   0.00    0.0
2006/12/27 03:10:30.000   35.311806583 -120.661092829   133.7262   3   6   1.1033   1.1736   2.6434   0.6479  -0.8290  -1.1809   0.00    0.0
2006/12/27 03:11:00.000   35.311805587 -120.661097956   133.8817   3   6   1.1046   1.1709   2.6383   0.6458  -0.8176  -1.1824   0.00    0.0
2006/12/27 03:11:30.000   35.311806267 -120.661094767   133.2859   3   6   1.1064   1.1683   2.6368   0.6435  -0.8063  -1.1825   0.00    0.0
2006/12/27 03:12:00.000   35.311807989 -120.661094432   133.3157   3   6   1.1083   1.1658   2.6352   0.6413  -0.7949  -1.1824   0.00    0.0
2006/12/27 03:12:30.000   35.311807852 -120.661094575   133.2055   3   6   1.1102   1.1633   2.6337   0.6390  -0.7833  -1.1822   0.00    0.0
2006/12/27 03:13:00.000   35.311808630 -120.661094484   133.5294   3   6   1.1121   1.1608   2.6322   0.6367  -0.7715  -1.1819   0.00    0.0
2006/12/27 03:13:30.000   35.311807852 -120.661096333   133.2869   3   6   1.1140   1.1584   2.6307   0.6343  -0.7594  -1.1815   0.00    0.0
2006/12/27 03:14:00.000   35.311808074 -120.661095619   133.3702   3   6   1.1159   1.1560   2.6293   0.6320  -0.7472  -1.1810   0.00    0.0
2006/12/27 03:14:30.000   35.311807803 -120.661094021   133.3337   3   6   1.1178   1.1536   2.6280   0.6296  -0.7348  -1.1804   0.00    0.0
2006/12/27 03:15:00.000   35.311806531 -120.661094757   133.5273   3   6   1.1198   1.1513   2.6268   0.6272  -0.7221  -1.1797   0.00    0.0
2006/12/27 03:15:30.000   35.311806041 -120.661095499   133.7609   3   6   1.1216   1.1490   2.6248   0.6248  -0.7093  -1.1790   0.00    0.0
2006/12/27 03:16:00.000   35.311806518 -120.661093082   134.0049   3   6   1.1235   1.1467   2.6233   0.6223  -0.6961  -1.1782   0.00    0.0
2006/12/27 03:16:30.000   35.311807003 -120.661092238   133.6173   3   6   1.1343   1.1445   2.7000   0.6201  -0.6819  -1.1381   0.00    0.0
2006/12/27 03:17:00.000   35.311805813 -120.661094261   134.0589   3   6   1.1363   1.1423   2.6988   0.6178  -0.6672  -1.1372   0.00    0.0
2006/12/27 03:17:30.000   35.311806467 -120.661093000   133.3108   3   6   1.1382   1.1402   2.6977   0.6155  -0.6522  -1.1362   0.00    0.0
2006/12/27 03:18:00.000   35.311806250 -120.661093226   133.4132   3   6   1.1402   1.1382   2.6968   0.6133  -0.6368  -1.1351   0.00    0.0
2006/12/27 03:18:30.000   35.311806912 -120.661094910   133.2419   3   6   1.1146   1.0983   2.6022   0.6677  -0.7685  -1.0534   0.00    0.0
2006/12/27 03:19:00.000   35.311805907 -120.661094907   133.5624   3   6   1.1170   1.0955   2.6023   0.6659  -0.7563  -1.0527   0.00    0.0
2006/12/27 03:19:30.000   35.311807331 -120.661095129   132.9917   3   6   1.1195   1.0927   2.6024   0.6639  -0.7439  -1.0518   0.00    0.0
2006/12/27 03:20:00.000   35.311806027 -120.661096601   133.3616   3   6   1.1220   1.0900   2.6027   0.6620  -0.7313  -1.0508   0.00    0.0
2006/12/27 03:20:30.000   35.311806438 -120.661096961   133.2426   3   6   1.1242   1.0872   2.6012   0.6601  -0.7185  -1.0505   0.00    0.0
2006/12/27 03:21:00.000   35.311806171 -120.661095613   132.7684   3   6   1.1267   1.0846   2.6018   0.6582  -0.7054  -1.0493   0.00    0.0
2006/12/27 03:21:30.000   35.311805457 -120.661096152   132.6811   3   6   1.1293   1.0820   2.6025   0.6562  -0.6920  -1.0479   0.00    0.0
2006/12/27 03:22:00.000   35.311805575 -120.661096914   132.8047   3   7   1.1306   1.0783   2.5993   0.6521  -0.6837  -1.0502   0.00    0.0
2006/12/27 03:22:30.000   35.311806088 -120.661095877   132.4613   3   7   1.1332   1.0758   2.6006   0.6501  -0.6698  -1.0485   0.00    0.0
2006/12/27 03:23:00.000   35.311805491 -120.661095924   132.9665   3   6   1.1374   1.0745   2.6062   0.6503  -0.6499  -1.0425   0.00    0.0
2006/12/27 03:23:30.000   35.311806311 -120.661094829   133.0198   3   7   1.1387   1.0708   2.6038   0.6460  -0.6411  -1.0444   0.00    0.0
2006/12/27 03:24:00.000   35.311806524 -120.661094469   133.3544   3   7   1.1415   1.0684   2.6059   0.6440  -0.6261  -1.0421   0.00    0.0
2006/12/27 03:24:30.000   35.311805780 -120.661093887   133.2603   3   7   1.1444   1.0661   2.6083   0.6420  -0.6107  -1.0395   0.00    0.0
2006/12/27 03:25:00.000   35.311807071 -120.661096229   133.3127   3   7   1.1471   1.0637   2.6095   0.6400  -0.5952  -1.0374   0.00    0.0
2006/12/27 03:25:30.000   35.311806140 -120.661093454   133.3639   3   7   1.1500   1.0614   2.6124   0.6380  -0.5788  -1.0344   0.00    0.0
2006/12/27 03:26:00.000   35.311806152 -120.661094375   133.6130   3   7   1.1531   1.0592   2.6159   0.6361  -0.5619  -1.0311   0.00    0.0
2006/12/27 03:26:30.000   35.311805675 -120.661093946   133.6333   3   7   1.1562   1.0570   2.6198   0.6341  -0.5442  -1.0275   0.00    0.0
2006/12/27 03:27:00.000   35.311805424 -120.661094598   133.9411   3   7   1.1594   1.0549   2.6242   0.6322  -0.5258  -1.0236   0.00    0.0
2006/12/27 03:27:30.000   35.311806997 -120.661094589   133.6205   3   7   1.1704   1.0531   2.6862   0.6326  -0.4948  -0.9824   0.00    0.0
2006/12/27 03:28:00.000   35.311804921 -120.661094046   134.1793   3   7   1.1736   1.0511   2.6903   0.6309  -0.4735  -0.9784   0.00    0.0
2006/12/27 03:28:30.000   35.311806214 -120.661092724   133.8215   3   7   1.1769   1.0492   2.6949   0.6292  -0.4511  -0.9741   0.00    0.0
2006/12/27 03:29:00.000   35.311805950 -120.661093123   134.3029   3   7   1.1802   1.0473   2.7000   0.6275  -0.4272  -0.9694   0.00    0.0
2006/12/27 03:29:30.000   35.311807221 -120.661092276   134.0198   3   7   1.1836   1.0455   2.7056   0.6259  -0.4016  -0.9643   0.00    0.0
2006/12/27 03:30:00.000   35.311804913 -120.661093078   134.3134   3   7   1.1869   1.0436   2.7103   0.6243  -0.3749  -0.9595   0.00    0.0
2006/12/27 03:30:30.000   35.311805891 -120.661093419   133.9523   3   7   1.1905   1.0420   2.7172   0.6228  -0.3447  -0.9535   0.00    0.0
2006/12/27 03:31:00.000   35.311803919 -120.661092425   134.3845   3   7   1.1943   1.0403   2.7247   0.6214  -0.3111  -0.9471   0.00    0.0
2006/12/27 03:31:30.000   35.311806215 -120.661092627   134.3889   3   7   1.1981   1.0388   2.7329   0.6201  -0.2727  -0.9401   0.00    0.0
2006/12/27 03:32:00.000   35.311804447 -120.661091799   134.8207   3   7   1.2021   1.0373   2.7417   0.6188  -0.2271  -0.9326   0.00    0.0
2006/12/27 03:32:30.000   35.311806389 -120.661091770   134.6122   3   7   1.2061   1.0359   2.7513   0.6176  -0.1685  -0.9245   0.00    0.0
2006/12/27 03:33:00.000   35.311805446 -120.661089474   134.3484   3   7   1.2103   1.0345   2.7616   0.6165  -0.0691  -0.9159   0.00    0.0
2006/12/27 03:33:30.000   35.311806744 -120.661092975   134.8784   3   6   1.3225   1.0437   3.5037   0.6753   0.5790   0.5468   0.00    0.0
2006/12/27 03:34:00.000   35.311808362 -120.661090100   134.1670   3   6   1.3240   1.0430   3.4966   0.6749   0.6020   0.5377   0.00    0.0
2006/12/27 03:34:30.000   35.311807511 -120.661091620   134.2848   3   6   1.3255   1.0423   3.4891   0.6745   0.6237   0.5280   0.00    0.0
