% program   : rnx2rtkp ver.2.4.2
% inp file  : ../../../test/data/rinex/07590920.05o
% inp file  : ../../../test/data/rinex/30400920.05n
% inp file  : ../../../test/data/rinex/30400920.05o
% obs start : 2005/04/02 00:00:00.0 GPST (week1316 518400.0s)
% obs end   : 2005/04/02 00:59:30.0 GPST (week1316 521970.0s)
%
% (e/n/u-baseline=WGS84,Q=1:fix,2:float,3:sbas,4:dgps,5:single,6:ppp,ns=# of satellites)
%  GPST                  e-baseline(m)  n-baseline(m)  u-baseline(m)   Q  ns   sde(m)   sdn(m)   sdu(m)  sden(m)  sdnu(m)  sdue(m) age(s)  ratio
2005/04/02 00:00:00.000      -953.3383      3196.2361        -6.4050   1   7   0.0044   0.0058   0.0136   0.0022  -0.0055  -0.0047   0.00   24.9
2005/04/02 00:00:30.000      -953.3357      3196.2353        -6.4118   1   7   0.0043   0.0056   0.0136   0.0022  -0.0054  -0.0046   0.00   40.5
2005/04/02 00:01:00.000      -953.3360      3196.2340        -6.4097   1   7   0.0043   0.0058   0.0136   0.0024  -0.0054  -0.0047  -0.00   40.0
2005/04/02 00:01:30.000      -953.3378      3196.2328        -6.3992   1   7   0.0042   0.0057   0.0135   0.0022  -0.0054  -0.0046  -0.00   52.0
2005/04/02 00:02:00.000      -953.3331      3196.2378        -6.4023   1   7   0.0044   0.0058   0.0135   0.0021  -0.0055  -0.0045  -0.00   62.7
2005/04/02 00:02:30.000      -953.3345      3196.2369        -6.4048   1   7   0.0044   0.0057   0.0135   0.0020  -0.0054  -0.0046  -0.00   65.8
2005/04/02 00:03:00.000      -953.3364      3196.2344        -6.3909   1   7   0.0045   0.0057   0.0135   0.0021  -0.0053  -0.0045  -0.00   75.2
2005/04/02 00:03:30.000      -953.3383      3196.2325        -6.3868   1   7   0.0044   0.0058   0.0135   0.0020  -0.0052  -0.0045  -0.00   69.0
2005/04/02 00:04:00.000      -953.3390      3196.2363        -6.3895   1   7   0.0044   0.0056   0.0135   0.0020  -0.0053  -0.0044  -0.00   67.2
2005/04/02 00:04:30.000      -953.3319      3196.2376        -6.4050   1   7   0.0047   0.0059   0.0134   0.0023  -0.0052  -0.0044  -0.00   64.1
2005/04/02 00:05:00.000      -953.3361      3196.2411        -6.4003   1   7   0.0043   0.0057   0.0134   0.0022  -0.0052  -0.0045  -0.00   67.7
2005/04/02 00:05:30.000      -953.3395      3196.2426        -6.3930   1   7   0.0044   0.0057   0.0133   0.0020  -0.0053  -0.0044  -0.00   83.7
2005/04/02 00:06:00.000      -953.3382      3196.2433        -6.4027   1   7   0.0042   0.0057   0.0133   0.0021  -0.0051  -0.0045   0.00   81.5
2005/04/02 00:06:30.000      -953.3381      3196.2409        -6.4023   1   7   0.0043   0.0056   0.0134   0.0019  -0.0051  -0.0044   0.00   85.0
2005/04/02 00:07:00.000      -953.3410      3196.2373        -6.3963   1   7   0.0042   0.0057   0.0133   0.0021  -0.0051  -0.0042   0.00   86.7
2005/04/02 00:07:30.000      -953.3412      3196.2374        -6.3943   1   7   0.0046   0.0058   0.0133   0.0023  -0.0050  -0.0041   0.00   87.7
2005/04/02 00:08:00.000      -953.3386      3196.2384        -6.3994   1   7   0.0044   0.0057   0.0133   0.0019  -0.0048  -0.0043  -0.00   93.7
2005/04/02 00:08:30.000      -953.3416      3196.2360        -6.4005   1   7   0.0044   0.0057   0.0133   0.0018  -0.0049  -0.0041  -0.00   99.5
2005/04/02 00:09:00.000      -953.3380      3196.2336        -6.3997   1   7   0.0048   0.0057   0.0132   0.0019  -0.0047  -0.0044  -0.00  105.5
2005/04/02 00:09:30.000      -953.3314      3196.2383        -6.4245   1   7   0.0041   0.0059   0.0132   0.0021  -0.0046  -0.0043   0.00  108.2
2005/04/02 00:10:00.000      -953.3350      3196.2375        -6.4036   1   7   0.0040   0.0057   0.0132   0.0019  -0.0048  -0.0041   0.00  110.4
2005/04/02 00:10:30.000      -953.3382      3196.2366        -6.4059   1   7   0.0047   0.0059   0.0131   0.0024  -0.0046  -0.0043   0.00  122.7
2005/04/02 00:11:00.000      -953.3357      3196.2383        -6.4074   1   7   0.0048   0.0059   0.0130   0.0017  -0.0047  -0.0042   0.00  128.1
2005/04/02 00:11:30.000      -953.3333      3196.2414        -6.4117   1   7   0.0037   0.0058   0.0130   0.0018  -0.0045  -0.0044   0.00  132.2
2005/04/02 00:12:00.000      -953.3353      3196.2387        -6.3968   1   7   0.0042   0.0060   0.0130   0.0026  -0.0045  -0.0041   0.00  143.6
2005/04/02 00:12:30.000      -953.3332      3196.2410        -6.4074   1   7   0.0042   0.0060   0.0131   0.0020  -0.0046  -0.0040   0.00  158.1
2005/04/02 00:13:00.000      -953.3353      3196.2416        -6.3975   1   7   0.0043   0.0057   0.0130   0.0025  -0.0045  -0.0040   0.00  162.8
2005/04/02 00:13:30.000      -953.3388      3196.2413        -6.4011   1   7   0.0042   0.0058   0.0130   0.0022  -0.0043  -0.0039   0.00  173.2
2005/04/02 00:14:00.000      -953.3392      3196.2391        -6.3895   1   7   0.0044   0.0061   0.0130   0.0022  -0.0041  -0.0040   0.00  184.9
2005/04/02 00:14:30.000      -953.3360      3196.2415        -6.3999   1   7   0.0041   0.0059   0.0130   0.0022  -0.0042  -0.0038  -0.00  185.3
2005/04/02 00:15:00.000      -953.3345      3196.2370        -6.3956   1   7   0.0045   0.0058   0.0129   0.0021  -0.0044  -0.0037  -0.00  174.8
2005/04/02 00:15:30.000      -953.3364      3196.2375        -6.3997   1   7   0.0045   0.0058   0.0130   0.0019  -0.0042  -0.0036  -0.00  165.0
2005/04/02 00:16:00.000      -953.3341      3196.2379        -6.4046   1   7   0.0044   0.0059   0.0129   0.0022  -0.0040  -0.0038  -0.00  156.3
2005/04/02 00:16:30.000      -953.3352      3196.2371        -6.3980   1   7   0.0040   0.0060   0.0129   0.0024  -0.0039  -0.0038  -0.00  146.9
2005/04/02 00:17:00.000      -953.3355      3196.2380        -6.3954   1   7   0.0044   0.0061   0.0129   0.0021  -0.0037  -0.0038  -0.00  146.7
2005/04/02 00:17:30.000      -953.3352      3196.2343        -6.3956   1   7   0.0043   0.0060   0.0129   0.0021  -0.0038  -0.0038  -0.00  142.4
2005/04/02 00:18:00.000      -953.3333      3196.2378        -6.3955   1   6   0.0042   0.0060   0.0142   0.0020  -0.0025  -0.0028  -0.00  141.9
2005/04/02 00:18:30.000      -953.3335      3196.2370        -6.4067   1   6   0.0047   0.0062   0.0142   0.0024  -0.0020  -0.0026  -0.00  140.5
2005/04/02 00:19:00.000      -953.3323      3196.2351        -6.3935   1   6   0.0039   0.0059   0.0141   0.0025  -0.0018  -0.0031  -0.00  139.6
2005/04/02 00:19:30.000      -953.3340      3196.2333        -6.4010   1   6   0.0040   0.0062   0.0141   0.0023  -0.0021  -0.0028  -0.00  139.8
2005/04/02 00:20:00.000      -953.3354      3196.2341        -6.3944   1   6   0.0041   0.0062   0.0142   0.0022  -0.0013  -0.0029  -0.00  137.8
2005/04/02 00:20:30.000      -953.3359      3196.2354        -6.4025   1   6   0.0045   0.0062   0.0142   0.0021  -0.0007  -0.0029  -0.00   76.3
2005/04/02 00:20:59.999      -953.3332      3196.2388        -6.4024   1   6   0.0042   0.0061   0.0142   0.0021  -0.0010  -0.0027  -0.00   76.4
2005/04/02 00:21:30.000      -953.3371      3196.2398        -6.4019   1   6   0.0044   0.0062   0.0141   0.0027   0.0010  -0.0027   0.00   77.1
2005/04/02 00:22:00.000      -953.3381      3196.2366        -6.3900   1   6   0.0044   0.0061   0.0141   0.0022   0.0015  -0.0027   0.00   82.8
2005/04/02 00:22:30.000      -953.3387      3196.2350        -6.4009   1   6   0.0043   0.0061   0.0141   0.0020   0.0012  -0.0027   0.00   85.1
2005/04/02 00:23:00.000      -953.3369      3196.2363        -6.4002   1   6   0.0047   0.0062   0.0141   0.0023   0.0018  -0.0027   0.00   91.1
2005/04/02 00:23:30.000      -953.3376      3196.2356        -6.3951   1   6   0.0044   0.0063   0.0141   0.0022   0.0015  -0.0023   0.00   93.7
2005/04/02 00:24:00.000      -953.3321      3196.2397        -6.4101   1   6   0.0043   0.0063   0.0141   0.0026   0.0022  -0.0025   0.00   96.5
2005/04/02 00:24:30.000      -953.3329      3196.2386        -6.3985   1   6   0.0040   0.0063   0.0142   0.0020   0.0019  -0.0024   0.00  100.9
2005/04/02 00:25:00.000      -953.3360      3196.2362        -6.3949   1   6   0.0041   0.0062   0.0142   0.0019   0.0027  -0.0025   0.00  104.7
2005/04/02 00:25:30.000      -953.3354      3196.2355        -6.3940   1   6   0.0044   0.0065   0.0142   0.0025   0.0023  -0.0020   0.00  107.2
2005/04/02 00:26:00.000      -953.3329      3196.2363        -6.4007   1   6   0.0044   0.0063   0.0142   0.0025   0.0025  -0.0019   0.00  110.9
2005/04/02 00:26:30.000      -953.3299      3196.2350        -6.3984   1   6   0.0042   0.0065   0.0142   0.0023   0.0028  -0.0021   0.00  118.1
2005/04/02 00:27:00.000      -953.3331      3196.2359        -6.3965   1   6   0.0045   0.0065   0.0142   0.0026   0.0029  -0.0021   0.00  123.8
2005/04/02 00:27:30.000      -953.3338      3196.2345        -6.3885   1   6   0.0040   0.0065   0.0142   0.0014   0.0030  -0.0022   0.00  128.3
2005/04/02 00:28:00.000      -953.3355      3196.2363        -6.3965   1   6   0.0037   0.0065   0.0142   0.0027   0.0029  -0.0022  -0.00  134.7
2005/04/02 00:28:30.000      -953.3373      3196.2347        -6.3975   1   6   0.0047   0.0065   0.0142   0.0023   0.0033  -0.0019  -0.00  140.8
2005/04/02 00:29:00.000      -953.3360      3196.2355        -6.4023   1   6   0.0045   0.0066   0.0142   0.0018   0.0034  -0.0022  -0.00  148.9
2005/04/02 00:29:30.000      -953.3359      3196.2340        -6.3977   1   6   0.0045   0.0069   0.0143   0.0020   0.0035  -0.0016  -0.00  150.8
2005/04/02 00:30:00.000      -953.3329      3196.2380        -6.3973   1   6   0.0042   0.0066   0.0142   0.0017   0.0037  -0.0020  -0.00  148.1
2005/04/02 00:30:30.000      -953.3343      3196.2341        -6.4048   1   6   0.0044   0.0067   0.0143   0.0021   0.0037  -0.0016  -0.00  146.4
2005/04/02 00:31:00.000      -953.3325      3196.2331        -6.3961   1   6   0.0042   0.0068   0.0143   0.0023   0.0038  -0.0018  -0.00  146.4
2005/04/02 00:31:30.000      -953.3352      3196.2338        -6.4048   1   6   0.0044   0.0066   0.0143   0.0021   0.0042  -0.0017  -0.00  147.5
2005/04/02 00:32:00.000      -953.3301      3196.2404        -6.4147   1   6   0.0043   0.0068   0.0143   0.0021   0.0041  -0.0014  -0.00  149.4
2005/04/02 00:32:30.000      -953.3344      3196.2375        -6.4012   1   6   0.0043   0.0066   0.0144   0.0025   0.0042  -0.0014  -0.00  150.6
2005/04/02 00:33:00.000      -953.3346      3196.2328        -6.3965   1   6   0.0047   0.0068   0.0144   0.0023   0.0043  -0.0011   0.00  156.9
2005/04/02 00:33:30.000      -953.3317      3196.2399        -6.3957   1   6   0.0045   0.0065   0.0144   0.0022   0.0046  -0.0012   0.00  166.5
2005/04/02 00:34:00.000      -953.3373      3196.2410        -6.3887   1   6   0.0043   0.0070   0.0144   0.0024   0.0046  -0.0012   0.00  179.6
2005/04/02 00:34:30.000      -953.3350      3196.2415        -6.4010   1   6   0.0044   0.0069   0.0145   0.0026   0.0047  -0.0010  -0.00  190.4
2005/04/02 00:35:00.000      -953.3339      3196.2408        -6.3947   1   6   0.0044   0.0069   0.0145   0.0018   0.0048   0.0003  -0.00  193.5
2005/04/02 00:35:30.000      -953.3351      3196.2375        -6.4123   1   6   0.0043   0.0072   0.0146   0.0019   0.0048   0.0008  -0.00  196.3
2005/04/02 00:36:00.000      -953.3309      3196.2418        -6.3937   1   6   0.0046   0.0073   0.0146   0.0021   0.0050  -0.0006  -0.00  199.4
2005/04/02 00:36:30.000      -953.3326      3196.2381        -6.4094   1   6   0.0046   0.0072   0.0147   0.0024   0.0049   0.0012   0.00  200.5
2005/04/02 00:37:00.000      -953.3353      3196.2382        -6.3983   1   6   0.0040   0.0073   0.0146   0.0025   0.0052  -0.0003   0.00  200.3
2005/04/02 00:37:30.000      -953.3356      3196.2347        -6.4038   1   6   0.0045   0.0073   0.0147   0.0020   0.0052   0.0009   0.00  201.9
2005/04/02 00:38:00.000      -953.3340      3196.2345        -6.4037   1   6   0.0045   0.0074   0.0146   0.0024   0.0054  -0.0004   0.00  202.3
2005/04/02 00:38:30.000      -953.3326      3196.2337        -6.4025   1   6   0.0032   0.0073   0.0147   0.0033   0.0056  -0.0015   0.00  205.1
2005/04/02 00:39:00.000      -953.3372      3196.2325        -6.4031   1   6   0.0047   0.0076   0.0148   0.0021   0.0056   0.0012   0.00  202.1
2005/04/02 00:39:30.000      -953.3370      3196.2312        -6.4040   1   6   0.0042   0.0072   0.0148   0.0029   0.0058   0.0006   0.00  202.6
2005/04/02 00:40:00.000      -953.3369      3196.2382        -6.4033   1   6   0.0044   0.0073   0.0149   0.0023   0.0059   0.0011   0.00  198.0
2005/04/02 00:40:30.000      -953.3329      3196.2392        -6.3970   1   6   0.0039   0.0075   0.0149   0.0028   0.0060   0.0008   0.00  198.3
2005/04/02 00:41:00.000      -953.3341      3196.2333        -6.4082   1   6   0.0045   0.0076   0.0150   0.0022   0.0059   0.0016   0.00  200.3
2005/04/02 00:41:30.000      -953.3355      3196.2354        -6.4074   1   6   0.0043   0.0076   0.0150   0.0026   0.0060   0.0017  -0.00  201.3
2005/04/02 00:42:00.000      -953.3368      3196.2302        -6.3967   1   6   0.0043   0.0076   0.0150   0.0023   0.0063   0.0010  -0.00  203.9
2005/04/02 00:42:30.000      -953.3349      3196.2290        -6.4028   1   6   0.0043   0.0079   0.0151   0.0022   0.0062   0.0020  -0.00  203.8
2005/04/02 00:43:00.000      -953.3378      3196.2285        -6.4051   1   6   0.0040   0.0077   0.0151   0.0028   0.0065   0.0007  -0.00  202.7
2005/04/02 00:43:30.000      -953.3396      3196.2251        -6.4070   1   6   0.0043   0.0077   0.0152   0.0025   0.0066   0.0013  -0.00  205.3
2005/04/02 00:44:00.000      -953.3356      3196.2305        -6.4038   1   6   0.0043   0.0077   0.0153   0.0025   0.0066   0.0018  -0.00  206.9
2005/04/02 00:44:30.000      -953.3384      3196.2352        -6.3934   1   6   0.0044   0.0079   0.0153   0.0024   0.0067   0.0017  -0.00  210.2
2005/04/02 00:45:00.000      -953.3341      3196.2360        -6.4006   1   6   0.0045   0.0081   0.0154   0.0022   0.0067   0.0022   0.00  215.1
2005/04/02 00:45:30.000      -953.3369      3196.2362        -6.4122   1   6   0.0041   0.0081   0.0154   0.0026   0.0069   0.0018   0.00  213.3
2005/04/02 00:46:00.000      -953.3372      3196.2391        -6.4089   1   6   0.0044   0.0081   0.0155   0.0022   0.0069   0.0021   0.00  211.1
2005/04/02 00:46:30.000      -953.3355      3196.2401        -6.4142   1   6   0.0042   0.0081   0.0156   0.0027   0.0072   0.0017   0.00  209.0
2005/04/02 00:47:00.000      -953.3404      3196.2390        -6.4163   1   6   0.0041   0.0080   0.0156   0.0028   0.0073   0.0015   0.00  206.8
2005/04/02 00:47:30.000      -953.3409      3196.2379        -6.4047   1   6   0.0040   0.0082   0.0157   0.0031   0.0073   0.0019   0.00  209.8
2005/04/02 00:48:00.000      -953.3427      3196.2358        -6.4015   1   6   0.0045   0.0084   0.0158   0.0022   0.0074   0.0023  -0.00  213.2
2005/04/02 00:48:30.000      -953.3418      3196.2325        -6.4132   1   6   0.0043   0.0082   0.0159   0.0026   0.0076   0.0019  -0.00  213.8
2005/04/02 00:49:00.000      -953.3372      3196.2408        -6.3996   1   6   0.0043   0.0084   0.0159   0.0024   0.0076   0.0020  -0.00  214.6
2005/04/02 00:49:30.000      -953.3410      3196.2351        -6.4072   1   6   0.0042   0.0085   0.0160   0.0025   0.0076   0.0024  -0.00  215.4
2005/04/02 00:50:00.000      -953.3396      3196.2368        -6.4071   1   6   0.0042   0.0084   0.0161   0.0025   0.0078   0.0022  -0.00  217.2
2005/04/02 00:50:30.000      -953.3402      3196.2341        -6.4100   1   6   0.0039   0.0085   0.0162   0.0032   0.0078   0.0022  -0.00  219.2
2005/04/02 00:51:00.000      -953.3392      3196.2357        -6.4019   1   6   0.0046   0.0084   0.0162   0.0024   0.0081   0.0024  -0.00  223.6
2005/04/02 00:51:30.000      -953.3373      3196.2274        -6.4070   1   6   0.0046   0.0086   0.0163   0.0025   0.0081   0.0025   0.00  229.1
2005/04/02 00:52:00.000      -953.3345      3196.2285        -6.4089   1   6   0.0041   0.0086   0.0164   0.0028   0.0082   0.0024   0.00  228.0
2005/04/02 00:52:30.000      -953.3367      3196.2241        -6.4187   1   6   0.0046   0.0089   0.0165   0.0020   0.0082   0.0027   0.00  227.1
2005/04/02 00:53:00.000      -953.3345      3196.2297        -6.4119   1   6   0.0041   0.0088   0.0166   0.0023   0.0083   0.0025   0.00  226.6
2005/04/02 00:53:30.000      -953.3365      3196.2335        -6.4089   1   6   0.0042   0.0088   0.0166   0.0028   0.0085   0.0024   0.00  230.9
2005/04/02 00:54:00.000      -953.3363      3196.2367        -6.3987   1   6   0.0043   0.0090   0.0167   0.0025   0.0085   0.0025   0.00  234.2
2005/04/02 00:54:30.000      -953.3364      3196.2366        -6.3995   1   6   0.0044   0.0091   0.0168   0.0024   0.0085   0.0027  -0.00  230.1
2005/04/02 00:55:00.000      -953.3356      3196.2393        -6.4039   1   6   0.0043   0.0089   0.0169   0.0026   0.0087   0.0026  -0.00  233.9
2005/04/02 00:55:30.000      -953.3344      3196.2436        -6.3893   1   6   0.0038   0.0089   0.0170   0.0029   0.0088   0.0026  -0.00  240.6
2005/04/02 00:56:00.000      -953.3365      3196.2343        -6.3882   1   6   0.0039   0.0091   0.0171   0.0029   0.0089   0.0025  -0.00  244.9
2005/04/02 00:56:30.000      -953.3393      3196.2380        -6.4051   1   6   0.0040   0.0092   0.0172   0.0029   0.0089   0.0025  -0.00  248.1
2005/04/02 00:57:00.000      -953.3435      3196.2604        -6.3293   1   5   0.0084   0.0405   0.1048  -0.0166   0.0645  -0.0271   0.00  246.5
