% program   : rnx2rtkp ver.2.4.2
% inp file  : ../../../test/data/rinex/07590920.05o
% inp file  : ../../../test/data/rinex/30400920.05n
% obs start : 2005/04/02 00:00:00.0 GPST (week1316 518400.0s)
% obs end   : 2005/04/02 00:59:30.0 GPST (week1316 521970.0s)
%
% (lat/lon/height=WGS84/ellipsoidal,Q=1:fix,2:float,3:sbas,4:dgps,5:single,6:ppp,ns=# of satellites)
%  GPST                  latitude(deg) longitude(deg)  height(m)   Q  ns   sdn(m)   sde(m)   sdu(m)  sdne(m)  sdeu(m)  sdun(m) age(s)  ratio
2005/04/02 00:00:00.000   35.160868346  139.613825769    83.8246   5   7   5.8171   4.4367  12.7659   1.7120  -5.1463  -3.1490   0.00    0.0
2005/04/02 00:00:30.000   35.160868301  139.613828288    83.3839   5   7   5.8275   4.4248  12.7347   1.7105  -5.1133  -3.1622   0.00    0.0
2005/04/02 00:01:00.000   35.160867778  139.613829262    83.1661   5   7   5.8380   4.4130  12.7025   1.7092  -5.0801  -3.1761   0.00    0.0
2005/04/02 00:01:30.000   35.160865468  139.613828079    83.9181   5   7   5.8485   4.4013  12.6695   1.7081  -5.0465  -3.1908   0.00    0.0
2005/04/02 00:02:00.000   35.160864596  139.613828910    82.9118   5   7   5.8589   4.3897  12.6357   1.7071  -5.0126  -3.2061   0.00    0.0
2005/04/02 00:02:30.000   35.160867493  139.613825633    84.0332   5   7   5.8694   4.3782  12.6011   1.7063  -4.9784  -3.2221   0.00    0.0
2005/04/02 00:03:00.000   35.160868745  139.613829569    83.8060   5   7   5.8799   4.3668  12.5658   1.7056  -4.9439  -3.2387   0.00    0.0
2005/04/02 00:03:30.000   35.160868816  139.613832138    83.3575   5   7   5.8904   4.3555  12.5297   1.7050  -4.9092  -3.2560   0.00    0.0
2005/04/02 00:04:00.000   35.160867173  139.613828949    84.2412   5   7   5.9010   4.3443  12.4930   1.7045  -4.8742  -3.2739   0.00    0.0
2005/04/02 00:04:30.000   35.160871292  139.613828125    83.6858   5   7   5.9115   4.3333  12.4556   1.7041  -4.8390  -3.2924   0.00    0.0
2005/04/02 00:05:00.000   35.160874289  139.613830698    83.6549   5   7   5.9221   4.3223  12.4176   1.7039  -4.8036  -3.3114   0.00    0.0
2005/04/02 00:05:30.000   35.160868851  139.613828686    83.2389   5   7   5.9327   4.3115  12.3790   1.7037  -4.7680  -3.3310   0.00    0.0
2005/04/02 00:06:00.000   35.160871753  139.613828033    83.1818   5   7   5.9433   4.3008  12.3400   1.7036  -4.7322  -3.3512   0.00    0.0
2005/04/02 00:06:30.000   35.160867473  139.613830216    83.9863   5   7   5.9539   4.2902  12.3004   1.7035  -4.6963  -3.3718   0.00    0.0
2005/04/02 00:07:00.000   35.160869075  139.613831502    83.6722   5   7   5.9645   4.2798  12.2604   1.7035  -4.6602  -3.3929   0.00    0.0
2005/04/02 00:07:30.000   35.160868389  139.613830988    83.9915   5   7   5.9752   4.2695  12.2199   1.7036  -4.6239  -3.4145   0.00    0.0
2005/04/02 00:08:00.000   35.160873988  139.613829000    84.0925   5   7   5.9858   4.2594  12.1791   1.7037  -4.5875  -3.4366   0.00    0.0
2005/04/02 00:08:30.000   35.160873187  139.613830857    83.5367   5   7   5.9965   4.2493  12.1379   1.7038  -4.5511  -3.4590   0.00    0.0
2005/04/02 00:09:00.000   35.160871072  139.613831849    83.7927   5   7   6.0072   4.2395  12.0964   1.7039  -4.5145  -3.4819   0.00    0.0
2005/04/02 00:09:30.000   35.160870854  139.613830471    83.5789   5   7   6.0179   4.2298  12.0546   1.7041  -4.4778  -3.5052   0.00    0.0
2005/04/02 00:10:00.000   35.160872152  139.613829961    83.5426   5   7   6.0286   4.2202  12.0125   1.7042  -4.4411  -3.5288   0.00    0.0
2005/04/02 00:10:30.000   35.160874184  139.613829332    83.6883   5   7   6.0394   4.2108  11.9703   1.7044  -4.4043  -3.5528   0.00    0.0
2005/04/02 00:11:00.000   35.160870839  139.613830353    83.3032   5   7   6.0501   4.2015  11.9278   1.7045  -4.3674  -3.5771   0.00    0.0
2005/04/02 00:11:30.000   35.160873854  139.613830712    82.8877   5   7   6.0609   4.1924  11.8852   1.7046  -4.3306  -3.6017   0.00    0.0
2005/04/02 00:12:00.000   35.160871257  139.613829707    84.8340   5   7   6.0717   4.1835  11.8425   1.7047  -4.2937  -3.6266   0.00    0.0
2005/04/02 00:12:30.000   35.160870371  139.613832322    83.8614   5   7   6.0825   4.1747  11.7997   1.7048  -4.2567  -3.6518   0.00    0.0
2005/04/02 00:13:00.000   35.160876483  139.613826589    84.0419   5   7   6.0934   4.1660  11.7568   1.7048  -4.2198  -3.6773   0.00    0.0
2005/04/02 00:13:30.000   35.160875618  139.613830424    83.3891   5   7   6.1042   4.1576  11.7139   1.7047  -4.1828  -3.7030   0.00    0.0
2005/04/02 00:14:00.000   35.160870797  139.613831506    83.2080   5   7   6.1151   4.1492  11.6710   1.7046  -4.1459  -3.7290   0.00    0.0
2005/04/02 00:14:30.000   35.160873719  139.613830465    83.6109   5   7   6.1260   4.1411  11.6281   1.7044  -4.1090  -3.7552   0.00    0.0
2005/04/02 00:15:00.000   35.160875889  139.613827643    84.3096   5   7   6.1369   4.1331  11.5853   1.7041  -4.0721  -3.7815   0.00    0.0
2005/04/02 00:15:30.000   35.160874246  139.613830426    84.0282   5   7   6.1479   4.1252  11.5425   1.7038  -4.0352  -3.8081   0.00    0.0
2005/04/02 00:16:00.000   35.160873938  139.613828599    83.8925   5   7   6.1588   4.1176  11.4999   1.7033  -3.9984  -3.8349   0.00    0.0
2005/04/02 00:16:30.000   35.160874103  139.613830409    84.4580   5   7   6.1698   4.1100  11.4574   1.7027  -3.9616  -3.8618   0.00    0.0
2005/04/02 00:17:00.000   35.160875856  139.613827561    84.6606   5   7   6.1808   4.1027  11.4150   1.7021  -3.9249  -3.8888   0.00    0.0
2005/04/02 00:17:30.000   35.160875631  139.613831058    83.9541   5   7   6.1919   4.0955  11.3728   1.7013  -3.8882  -3.9161   0.00    0.0
2005/04/02 00:18:00.000   35.160871743  139.613826695    83.0055   5   6   7.6398   4.4477  13.7295   3.2712  -1.1215   4.3621   0.00    0.0
2005/04/02 00:18:30.000   35.160869211  139.613828495    83.1100   5   6   7.6775   4.4499  13.7336   3.2987  -0.8300   4.4156   0.00    0.0
2005/04/02 00:19:00.000   35.160871995  139.613824614    82.6265   5   6   7.7155   4.4527  13.7375   3.3265  -0.3449   4.4682   0.00    0.0
2005/04/02 00:19:30.000   35.160869924  139.613826840    82.7492   5   6   7.7535   4.4559  13.7412   3.3546   0.6722   4.5199   0.00    0.0
2005/04/02 00:20:00.000   35.160870230  139.613826318    83.4977   5   6   7.7916   4.4595  13.7448   3.3830   1.0117   4.5706   0.00    0.0
2005/04/02 00:20:30.000   35.160868152  139.613825253    83.1225   5   6   7.8299   4.4636  13.7482   3.4117   1.2633   4.6205   0.00    0.0
2005/04/02 00:20:59.999   35.160869588  139.613824145    83.4926   5   6   7.8682   4.4681  13.7515   3.4407   1.4728   4.6694   0.00    0.0
2005/04/02 00:21:30.000   35.160865988  139.613826748    83.0501   5   6   7.9066   4.4731  13.7545   3.4700   1.6561   4.7173   0.00    0.0
2005/04/02 00:22:00.000   35.160869829  139.613827352    83.2048   5   6   7.9451   4.4785  13.7574   3.4995   1.8211   4.7643   0.00    0.0
2005/04/02 00:22:30.000   35.160867943  139.613823659    82.7192   5   6   7.9835   4.4844  13.7601   3.5292   1.9724   4.8103   0.00    0.0
2005/04/02 00:23:00.000   35.160870527  139.613826914    81.7514   5   6   8.0220   4.4907  13.7625   3.5591   2.1130   4.8553   0.00    0.0
2005/04/02 00:23:30.000   35.160873040  139.613827495    83.1533   5   6   8.0605   4.4974  13.7647   3.5892   2.2447   4.8993   0.00    0.0
2005/04/02 00:24:00.000   35.160868306  139.613823628    82.7624   5   6   8.0989   4.5046  13.7667   3.6194   2.3690   4.9423   0.00    0.0
2005/04/02 00:24:30.000   35.160871314  139.613827835    82.8320   5   6   8.1372   4.5122  13.7685   3.6498   2.4871   4.9842   0.00    0.0
2005/04/02 00:25:00.000   35.160872576  139.613823162    81.8417   5   6   8.1755   4.5202  13.7700   3.6802   2.5997   5.0251   0.00    0.0
2005/04/02 00:25:30.000   35.160871501  139.613824969    82.8954   5   6   8.2136   4.5286  13.7712   3.7108   2.7074   5.0648   0.00    0.0
2005/04/02 00:26:00.000   35.160871964  139.613825515    82.0715   5   6   8.2516   4.5374  13.7722   3.7414   2.8109   5.1034   0.00    0.0
2005/04/02 00:26:30.000   35.160871158  139.613826019    82.8241   5   6   8.2895   4.5467  13.7729   3.7720   2.9104   5.1409   0.00    0.0
2005/04/02 00:27:00.000   35.160874064  139.613826042    82.1564   5   6   8.3272   4.5563  13.7733   3.8026   3.0065   5.1771   0.00    0.0
2005/04/02 00:27:30.000   35.160874141  139.613827069    82.6688   5   6   8.3646   4.5663  13.7733   3.8332   3.0993   5.2122   0.00    0.0
2005/04/02 00:28:00.000   35.160873494  139.613828786    83.1483   5   6   8.4018   4.5767  13.7731   3.8638   3.1891   5.2460   0.00    0.0
2005/04/02 00:28:30.000   35.160873452  139.613823619    82.8842   5   6   8.4387   4.5874  13.7725   3.8943   3.2762   5.2786   0.00    0.0
2005/04/02 00:29:00.000   35.160874348  139.613826119    83.0080   5   6   8.4754   4.5985  13.7716   3.9247   3.3607   5.3099   0.00    0.0
2005/04/02 00:29:30.000   35.160873981  139.613825842    81.1794   5   6   8.5117   4.6099  13.7704   3.9549   3.4427   5.3398   0.00    0.0
2005/04/02 00:30:00.000   35.160874565  139.613824892    82.6498   5   6   8.5477   4.6216  13.7687   3.9850   3.5225   5.3684   0.00    0.0
2005/04/02 00:30:30.000   35.160875570  139.613829475    83.4537   5   6   8.5832   4.6337  13.7667   4.0149   3.6000   5.3956   0.00    0.0
2005/04/02 00:31:00.000   35.160875703  139.613826223    82.9764   5   6   8.6184   4.6461  13.7644   4.0446   3.6755   5.4214   0.00    0.0
2005/04/02 00:31:30.000   35.160875194  139.613827909    83.0967   5   6   8.6531   4.6587  13.7616   4.0741   3.7490   5.4457   0.00    0.0
2005/04/02 00:32:00.000   35.160876183  139.613827006    83.5106   5   6   8.6873   4.6717  13.7584   4.1032   3.8207   5.4685   0.00    0.0
2005/04/02 00:32:30.000   35.160873703  139.613824194    83.0160   5   6   8.7210   4.6849  13.7548   4.1321   3.8904   5.4898   0.00    0.0
2005/04/02 00:33:00.000   35.160876390  139.613827332    83.1310   5   6   8.7542   4.6983  13.7507   4.1606   3.9585   5.5095   0.00    0.0
2005/04/02 00:33:30.000   35.160877123  139.613826287    82.6895   5   6   8.7868   4.7120  13.7463   4.1887   4.0248   5.5276   0.00    0.0
2005/04/02 00:34:00.000   35.160878255  139.613828551    83.9597   5   6   8.8188   4.7259  13.7413   4.2164   4.0895   5.5441   0.00    0.0
2005/04/02 00:34:30.000   35.160879476  139.613826175    82.8647   5   6   8.8502   4.7401  13.7360   4.2437   4.1525   5.5589   0.00    0.0
2005/04/02 00:35:00.000   35.160879317  139.613826448    83.9160   5   6   8.8809   4.7544  13.7301   4.2705   4.2140   5.5720   0.00    0.0
2005/04/02 00:35:30.000   35.160879365  139.613826490    83.5970   5   6   8.9109   4.7688  13.7238   4.2969   4.2739   5.5833   0.00    0.0
2005/04/02 00:36:00.000   35.160879837  139.613830942    83.6093   5   6   8.9402   4.7835  13.7170   4.3227   4.3324   5.5928   0.00    0.0
2005/04/02 00:36:30.000   35.160881964  139.613826618    83.0312   5   6   8.9688   4.7982  13.7098   4.3479   4.3894   5.6005   0.00    0.0
2005/04/02 00:37:00.000   35.160878156  139.613827133    83.2124   5   6   8.9966   4.8131  13.7020   4.3725   4.4450   5.6064   0.00    0.0
2005/04/02 00:37:30.000   35.160882148  139.613829806    84.1263   5   6   9.0235   4.8281  13.6938   4.3965   4.4991   5.6103   0.00    0.0
2005/04/02 00:38:00.000   35.160879255  139.613825952    83.7431   5   6   9.0497   4.8432  13.6851   4.4199   4.5519   5.6123   0.00    0.0
2005/04/02 00:38:30.000   35.160881965  139.613829494    84.0405   5   6   9.0750   4.8584  13.6759   4.4426   4.6033   5.6124   0.00    0.0
2005/04/02 00:39:00.000   35.160881058  139.613827313    83.3237   5   6   9.0994   4.8736  13.6662   4.4645   4.6533   5.6104   0.00    0.0
2005/04/02 00:39:30.000   35.160883188  139.613829369    84.1795   5   6   9.1229   4.8888  13.6560   4.4857   4.7020   5.6064   0.00    0.0
2005/04/02 00:40:00.000   35.160885249  139.613828772    84.1068   5   6   9.1454   4.9041  13.6453   4.5062   4.7495   5.6003   0.00    0.0
2005/04/02 00:40:30.000   35.160886869  139.613828520    84.2147   5   6   9.1670   4.9194  13.6342   4.5258   4.7956   5.5920   0.00    0.0
2005/04/02 00:41:00.000   35.160883139  139.613828310    83.7586   5   6   9.1877   4.9346  13.6226   4.5446   4.8405   5.5817   0.00    0.0
2005/04/02 00:41:30.000   35.160881331  139.613825481    83.5683   5   6   9.2073   4.9498  13.6105   4.5626   4.8842   5.5691   0.00    0.0
2005/04/02 00:42:00.000   35.160882651  139.613826760    84.1617   5   6   9.2260   4.9650  13.5979   4.5796   4.9266   5.5543   0.00    0.0
2005/04/02 00:42:30.000   35.160884370  139.613827129    83.6050   5   6   9.2436   4.9801  13.5849   4.5958   4.9678   5.5373   0.00    0.0
2005/04/02 00:43:00.000   35.160883746  139.613827442    83.9028   5   6   9.2602   4.9952  13.5714   4.6110   5.0078   5.5179   0.00    0.0
2005/04/02 00:43:30.000   35.160886236  139.613831917    83.8203   5   6   9.2757   5.0101  13.5575   4.6252   5.0466   5.4963   0.00    0.0
2005/04/02 00:44:00.000   35.160882689  139.613831758    84.3314   5   6   9.2902   5.0250  13.5432   4.6385   5.0843   5.4723   0.00    0.0
2005/04/02 00:44:30.000   35.160884886  139.613829141    84.5561   5   6   9.3035   5.0397  13.5285   4.6507   5.1208   5.4459   0.00    0.0
2005/04/02 00:45:00.000   35.160885482  139.613832497    84.1927   5   6   9.3159   5.0543  13.5134   4.6620   5.1563   5.4170   0.00    0.0
2005/04/02 00:45:30.000   35.160891032  139.613828857    84.2984   5   6   9.3271   5.0688  13.4979   4.6722   5.1906   5.3857   0.00    0.0
2005/04/02 00:46:00.000   35.160890850  139.613831072    84.7249   5   6   9.3372   5.0831  13.4821   4.6813   5.2239   5.3519   0.00    0.0
2005/04/02 00:46:30.000   35.160890640  139.613828954    84.3539   5   6   9.3463   5.0972  13.4659   4.6893   5.2561   5.3156   0.00    0.0
2005/04/02 00:47:00.000   35.160888943  139.613830406    83.9278   5   6   9.3543   5.1112  13.4494   4.6963   5.2872   5.2767   0.00    0.0
2005/04/02 00:47:30.000   35.160887708  139.613828141    84.9586   5   6   9.3611   5.1249  13.4327   4.7021   5.3174   5.2352   0.00    0.0
2005/04/02 00:48:00.000   35.160889939  139.613830530    84.2334   5   6   9.3669   5.1385  13.4157   4.7068   5.3466   5.1910   0.00    0.0
2005/04/02 00:48:30.000   35.160895158  139.613830544    85.2803   5   6   9.3716   5.1518  13.3984   4.7104   5.3748   5.1442   0.00    0.0
2005/04/02 00:49:00.000   35.160892912  139.613828487    84.8153   5   6   9.3753   5.1650  13.3809   4.7128   5.4021   5.0946   0.00    0.0
2005/04/02 00:49:30.000   35.160893274  139.613830211    85.3336   5   6   9.3779   5.1779  13.3633   4.7140   5.4284   5.0422   0.00    0.0
2005/04/02 00:50:00.000   35.160890463  139.613828255    84.9629   5   6   9.3794   5.1906  13.3455   4.7141   5.4539   4.9871   0.00    0.0
2005/04/02 00:50:30.000   35.160890330  139.613829274    85.3896   5   6   9.3800   5.2031  13.3275   4.7129   5.4785   4.9290   0.00    0.0
2005/04/02 00:51:00.000   35.160891112  139.613827500    85.1533   5   6   9.3795   5.2154  13.3095   4.7106   5.5024   4.8680   0.00    0.0
2005/04/02 00:51:30.000   35.160896960  139.613830211    85.2123   5   6   9.3780   5.2274  13.2914   4.7071   5.5254   4.8040   0.00    0.0
2005/04/02 00:52:00.000   35.160895915  139.613827564    85.0626   5   6   9.3755   5.2392  13.2732   4.7024   5.5476   4.7369   0.00    0.0
2005/04/02 00:52:30.000   35.160898322  139.613833229    85.2273   5   6   9.3721   5.2507  13.2551   4.6965   5.5691   4.6666   0.00    0.0
2005/04/02 00:53:00.000   35.160896294  139.613828465    84.9513   5   6   9.3677   5.2620  13.2370   4.6894   5.5899   4.5931   0.00    0.0
2005/04/02 00:53:30.000   35.160897650  139.613831265    85.0027   5   6   9.3624   5.2731  13.2189   4.6810   5.6100   4.5163   0.00    0.0
2005/04/02 00:54:00.000   35.160897306  139.613830432    85.7999   5   6   9.3563   5.2839  13.2010   4.6715   5.6295   4.4360   0.00    0.0
2005/04/02 00:54:30.000   35.160898078  139.613828263    85.5327   5   6   9.3492   5.2945  13.1832   4.6607   5.6484   4.3521   0.00    0.0
2005/04/02 00:55:00.000   35.160897643  139.613831979    86.3165   5   6   9.3414   5.3049  13.1655   4.6487   5.6667   4.2645   0.00    0.0
2005/04/02 00:55:30.000   35.160897348  139.613828843    85.7926   5   6   9.3327   5.3150  13.1480   4.6355   5.6844   4.1730   0.00    0.0
2005/04/02 00:56:00.000   35.160897006  139.613829751    85.2842   5   6   9.3233   5.3249  13.1308   4.6211   5.7017   4.0774   0.00    0.0
2005/04/02 00:56:30.000   35.160893541  139.613827855    85.8637   5   6   9.3131   5.3346  13.1139   4.6054   5.7185   3.9775   0.00    0.0
2005/04/02 00:57:00.000   35.160936560  139.613819482    97.0361   5   5  52.9646  11.4538 133.3506 -22.5205 -36.2148  83.2734   0.00    0.0
