$GPRMC,235947.00,A,3509.6521008,N,13936.8295461,E,0.00,0.00,010405,0.0,E,A*37
$GPGGA,235947.00,3509.6521008,N,13936.8295461,E,1,07,1.0,47.347,M,36.478,M,0.0,*7B
$GPRMC,000017.00,A,3509.6520980,N,13936.8296973,E,0.00,0.00,020405,0.0,E,A*39
$GPGGA,000017.00,3509.6520980,N,13936.8296973,E,1,07,1.0,46.906,M,36.478,M,0.0,*78
$GPRMC,000047.00,A,3509.6520667,N,13936.8297557,E,0.00,0.00,020405,0.0,E,A*31
$GPGGA,000047.00,3509.6520667,N,13936.8297557,E,1,07,1.0,46.688,M,36.478,M,0.0,*79
$GPRMC,000117.00,A,3509.6519281,N,13936.8296847,E,0.00,0.00,020405,0.0,E,A*3E
$GPGGA,000117.00,3509.6519281,N,13936.8296847,E,1,07,1.0,47.441,M,36.478,M,0.0,*70
$GPRMC,000147.00,A,3509.6518757,N,13936.8297346,E,0.00,0.00,020405,0.0,E,A*3F
$GPGGA,000147.00,3509.6518757,N,13936.8297346,E,1,07,1.0,46.434,M,36.478,M,0.0,*72
$GPRMC,000217.00,A,3509.6520496,N,13936.8295380,E,0.00,0.00,020405,0.0,E,A*34
$GPGGA,000217.00,3509.6520496,N,13936.8295380,E,1,07,1.0,47.556,M,36.478,M,0.0,*7D
$GPRMC,000247.00,A,3509.6521247,N,13936.8297741,E,0.00,0.00,020405,0.0,E,A*31
$GPGGA,000247.00,3509.6521247,N,13936.8297741,E,1,07,1.0,47.328,M,36.478,M,0.0,*77
$GPRMC,000317.00,A,3509.6521290,N,13936.8299283,E,0.00,0.00,020405,0.0,E,A*3A
$GPGGA,000317.00,3509.6521290,N,13936.8299283,E,1,07,1.0,46.880,M,36.478,M,0.0,*74
$GPRMC,000347.00,A,3509.6520304,N,13936.8297370,E,0.00,0.00,020405,0.0,E,A*31
$GPGGA,000347.00,3509.6520304,N,13936.8297370,E,1,07,1.0,47.764,M,36.478,M,0.0,*7B
$GPRMC,000417.00,A,3509.6522775,N,13936.8296875,E,0.00,0.00,020405,0.0,E,A*3C
$GPGGA,000417.00,3509.6522775,N,13936.8296875,E,1,07,1.0,47.208,M,36.478,M,0.0,*79
$GPRMC,000447.00,A,3509.6524573,N,13936.8298419,E,0.00,0.00,020405,0.0,E,A*33
$GPGGA,000447.00,3509.6524573,N,13936.8298419,E,1,07,1.0,47.177,M,36.478,M,0.0,*7D
$GPRMC,000517.00,A,3509.6521311,N,13936.8297212,E,0.00,0.00,020405,0.0,E,A*32
$GPGGA,000517.00,3509.6521311,N,13936.8297212,E,1,07,1.0,46.761,M,36.478,M,0.0,*7C
$GPRMC,000547.00,A,3509.6523052,N,13936.8296820,E,0.00,0.00,020405,0.0,E,A*3B
$GPGGA,000547.00,3509.6523052,N,13936.8296820,E,1,07,1.0,46.704,M,36.478,M,0.0,*76
$GPRMC,000617.00,A,3509.6520484,N,13936.8298129,E,0.00,0.00,020405,0.0,E,A*3F
$GPGGA,000617.00,3509.6520484,N,13936.8298129,E,1,07,1.0,47.509,M,36.478,M,0.0,*7C
$GPRMC,000647.00,A,3509.6521445,N,13936.8298901,E,0.00,0.00,020405,0.0,E,A*34
$GPGGA,000647.00,3509.6521445,N,13936.8298901,E,1,07,1.0,47.195,M,36.478,M,0.0,*76
$GPRMC,000717.00,A,3509.6521034,N,13936.8298593,E,0.00,0.00,020405,0.0,E,A*35
$GPGGA,000717.00,3509.6521034,N,13936.8298593,E,1,07,1.0,47.514,M,36.478,M,0.0,*7A
$GPRMC,000747.00,A,3509.6524393,N,13936.8297400,E,0.00,0.00,020405,0.0,E,A*3F
$GPGGA,000747.00,3509.6524393,N,13936.8297400,E,1,07,1.0,47.615,M,36.478,M,0.0,*72
$GPRMC,000817.00,A,3509.6523912,N,13936.8298514,E,0.00,0.00,020405,0.0,E,A*3A
$GPGGA,000817.00,3509.6523912,N,13936.8298514,E,1,07,1.0,47.059,M,36.478,M,0.0,*79
$GPRMC,000847.00,A,3509.6522643,N,13936.8299109,E,0.00,0.00,020405,0.0,E,A*3C
$GPGGA,000847.00,3509.6522643,N,13936.8299109,E,1,07,1.0,47.315,M,36.478,M,0.0,*74
$GPRMC,000917.00,A,3509.6522513,N,13936.8298283,E,0.00,0.00,020405,0.0,E,A*3E
$GPGGA,000917.00,3509.6522513,N,13936.8298283,E,1,07,1.0,47.101,M,36.478,M,0.0,*71
$GPRMC,000947.00,A,3509.6523291,N,13936.8297977,E,0.00,0.00,020405,0.0,E,A*38
$GPGGA,000947.00,3509.6523291,N,13936.8297977,E,1,07,1.0,47.065,M,36.478,M,0.0,*74
$GPRMC,001017.00,A,3509.6524511,N,13936.8297599,E,0.00,0.00,020405,0.0,E,A*31
$GPGGA,001017.00,3509.6524511,N,13936.8297599,E,1,07,1.0,47.211,M,36.478,M,0.0,*7C
$GPRMC,001047.00,A,3509.6522504,N,13936.8298212,E,0.00,0.00,020405,0.0,E,A*3D
$GPGGA,001047.00,3509.6522504,N,13936.8298212,E,1,07,1.0,46.826,M,36.478,M,0.0,*7F
$GPRMC,001117.00,A,3509.6524312,N,13936.8298427,E,0.00,0.00,020405,0.0,E,A*3E
$GPGGA,001117.00,3509.6524312,N,13936.8298427,E,1,07,1.0,46.410,M,36.478,M,0.0,*75
$GPRMC,001147.00,A,3509.6522754,N,13936.8297824,E,0.00,0.00,020405,0.0,E,A*3B
$GPGGA,001147.00,3509.6522754,N,13936.8297824,E,1,07,1.0,48.356,M,36.478,M,0.0,*7B
$GPRMC,001217.00,A,3509.6522223,N,13936.8299393,E,0.00,0.00,020405,0.0,E,A*31
$GPGGA,001217.00,3509.6522223,N,13936.8299393,E,1,07,1.0,47.384,M,36.478,M,0.0,*71
$GPRMC,001247.00,A,3509.6525890,N,13936.8295954,E,0.00,0.00,020405,0.0,E,A*3C
$GPGGA,001247.00,3509.6525890,N,13936.8295954,E,1,07,1.0,47.564,M,36.478,M,0.0,*74
$GPRMC,001317.00,A,3509.6525371,N,13936.8298254,E,0.00,0.00,020405,0.0,E,A*3A
$GPGGA,001317.00,3509.6525371,N,13936.8298254,E,1,07,1.0,46.912,M,36.478,M,0.0,*7E
$GPRMC,001347.00,A,3509.6522478,N,13936.8298904,E,0.00,0.00,020405,0.0,E,A*38
$GPGGA,001347.00,3509.6522478,N,13936.8298904,E,1,07,1.0,46.730,M,36.478,M,0.0,*72
$GPRMC,001417.00,A,3509.6524232,N,13936.8298279,E,0.00,0.00,020405,0.0,E,A*35
$GPGGA,001417.00,3509.6524232,N,13936.8298279,E,1,07,1.0,47.133,M,36.478,M,0.0,*7B
$GPRMC,001447.00,A,3509.6525533,N,13936.8296586,E,0.00,0.00,020405,0.0,E,A*3E
$GPGGA,001447.00,3509.6525533,N,13936.8296586,E,1,07,1.0,47.832,M,36.478,M,0.0,*78
$GPRMC,001517.00,A,3509.6524547,N,13936.8298256,E,0.00,0.00,020405,0.0,E,A*3C
$GPGGA,001517.00,3509.6524547,N,13936.8298256,E,1,07,1.0,47.551,M,36.478,M,0.0,*72
$GPRMC,001547.00,A,3509.6524363,N,13936.8297159,E,0.00,0.00,020405,0.0,E,A*3A
$GPGGA,001547.00,3509.6524363,N,13936.8297159,E,1,07,1.0,47.415,M,36.478,M,0.0,*75
$GPRMC,001617.00,A,3509.6524462,N,13936.8298245,E,0.00,0.00,020405,0.0,E,A*3B
$GPGGA,001617.00,3509.6524462,N,13936.8298245,E,1,07,1.0,47.980,M,36.478,M,0.0,*75
$GPRMC,001647.00,A,3509.6525514,N,13936.8296537,E,0.00,0.00,020405,0.0,E,A*33
$GPGGA,001647.00,3509.6525514,N,13936.8296537,E,1,07,1.0,48.183,M,36.478,M,0.0,*79
$GPRMC,001717.00,A,3509.6525379,N,13936.8298635,E,0.00,0.00,020405,0.0,E,A*35
$GPGGA,001717.00,3509.6525379,N,13936.8298635,E,1,07,1.0,47.477,M,36.478,M,0.0,*7E
$GPRMC,001747.00,A,3509.6523046,N,13936.8296017,E,0.00,0.00,020405,0.0,E,A*31
$GPGGA,001747.00,3509.6523046,N,13936.8296017,E,1,06,1.0,46.528,M,36.478,M,0.0,*71
$GPRMC,001817.00,A,3509.6521527,N,13936.8297097,E,0.00,0.00,020405,0.0,E,A*32
$GPGGA,001817.00,3509.6521527,N,13936.8297097,E,1,06,1.0,46.632,M,36.478,M,0.0,*7A
$GPRMC,001847.00,A,3509.6523197,N,13936.8294769,E,0.00,0.00,020405,0.0,E,A*3F
$GPGGA,001847.00,3509.6523197,N,13936.8294769,E,1,06,1.0,46.149,M,36.478,M,0.0,*7C
$GPRMC,001917.00,A,3509.6521954,N,13936.8296104,E,0.00,0.00,020405,0.0,E,A*31
$GPGGA,001917.00,3509.6521954,N,13936.8296104,E,1,06,1.0,46.272,M,36.478,M,0.0,*79
$GPRMC,001947.00,A,3509.6522138,N,13936.8295791,E,0.00,0.00,020405,0.0,E,A*3C
$GPGGA,001947.00,3509.6522138,N,13936.8295791,E,1,06,1.0,47.020,M,36.478,M,0.0,*70
$GPRMC,002017.00,A,3509.6520891,N,13936.8295152,E,0.00,0.00,020405,0.0,E,A*32
$GPGGA,002017.00,3509.6520891,N,13936.8295152,E,1,06,1.0,46.645,M,36.478,M,0.0,*7A
$GPRMC,002047.00,A,3509.6521753,N,13936.8294487,E,0.00,0.00,020405,0.0,E,A*3B
$GPGGA,002047.00,3509.6521753,N,13936.8294487,E,1,06,1.0,47.015,M,36.478,M,0.0,*71
$GPRMC,002117.00,A,3509.6519593,N,13936.8296049,E,0.00,0.00,020405,0.0,E,A*3E
$GPGGA,002117.00,3509.6519593,N,13936.8296049,E,1,06,1.0,46.573,M,36.478,M,0.0,*70
$GPRMC,002147.00,A,3509.6521897,N,13936.8296411,E,0.00,0.00,020405,0.0,E,A*30
$GPGGA,002147.00,3509.6521897,N,13936.8296411,E,1,06,1.0,46.727,M,36.478,M,0.0,*7D
$GPRMC,002217.00,A,3509.6520766,N,13936.8294196,E,0.00,0.00,020405,0.0,E,A*3E
$GPGGA,002217.00,3509.6520766,N,13936.8294196,E,1,06,1.0,46.242,M,36.478,M,0.0,*75
$GPRMC,002247.00,A,3509.6522316,N,13936.8296149,E,0.00,0.00,020405,0.0,E,A*3A
$GPGGA,002247.00,3509.6522316,N,13936.8296149,E,1,06,1.0,45.274,M,36.478,M,0.0,*77
$GPRMC,002317.00,A,3509.6523824,N,13936.8296497,E,0.00,0.00,020405,0.0,E,A*33
$GPGGA,002317.00,3509.6523824,N,13936.8296497,E,1,06,1.0,46.676,M,36.478,M,0.0,*7B
$GPRMC,002347.00,A,3509.6520984,N,13936.8294177,E,0.00,0.00,020405,0.0,E,A*37
$GPGGA,002347.00,3509.6520984,N,13936.8294177,E,1,06,1.0,46.285,M,36.478,M,0.0,*77
$GPRMC,002417.00,A,3509.6522789,N,13936.8296701,E,0.00,0.00,020405,0.0,E,A*31
$GPGGA,002417.00,3509.6522789,N,13936.8296701,E,1,06,1.0,46.354,M,36.478,M,0.0,*7C
$GPRMC,002447.00,A,3509.6523546,N,13936.8293897,E,0.00,0.00,020405,0.0,E,A*31
$GPGGA,002447.00,3509.6523546,N,13936.8293897,E,1,06,1.0,45.364,M,36.478,M,0.0,*7C
$GPRMC,002517.00,A,3509.6522901,N,13936.8294982,E,0.00,0.00,020405,0.0,E,A*39
$GPGGA,002517.00,3509.6522901,N,13936.8294982,E,1,06,1.0,46.418,M,36.478,M,0.0,*7B
$GPRMC,002547.00,A,3509.6523178,N,13936.8295309,E,0.00,0.00,020405,0.0,E,A*33
$GPGGA,002547.00,3509.6523178,N,13936.8295309,E,1,06,1.0,45.594,M,36.478,M,0.0,*77
$GPRMC,002617.00,A,3509.6522695,N,13936.8295611,E,0.00,0.00,020405,0.0,E,A*3C
$GPGGA,002617.00,3509.6522695,N,13936.8295611,E,1,06,1.0,46.346,M,36.478,M,0.0,*72
$GPRMC,002647.00,A,3509.6524439,N,13936.8295625,E,0.00,0.00,020405,0.0,E,A*3C
$GPGGA,002647.00,3509.6524439,N,13936.8295625,E,1,06,1.0,45.679,M,36.478,M,0.0,*78
$GPRMC,002717.00,A,3509.6524485,N,13936.8296242,E,0.00,0.00,020405,0.0,E,A*39
$GPGGA,002717.00,3509.6524485,N,13936.8296242,E,1,06,1.0,46.191,M,36.478,M,0.0,*7F
$GPRMC,002747.00,A,3509.6524097,N,13936.8297272,E,0.00,0.00,020405,0.0,E,A*39
$GPGGA,002747.00,3509.6524097,N,13936.8297272,E,1,06,1.0,46.671,M,36.478,M,0.0,*76
$GPRMC,002817.00,A,3509.6524071,N,13936.8294172,E,0.00,0.00,020405,0.0,E,A*3B
$GPGGA,002817.00,3509.6524071,N,13936.8294172,E,1,06,1.0,46.407,M,36.478,M,0.0,*77
$GPRMC,002847.00,A,3509.6524609,N,13936.8295671,E,0.00,0.00,020405,0.0,E,A*32
$GPGGA,002847.00,3509.6524609,N,13936.8295671,E,1,06,1.0,46.530,M,36.478,M,0.0,*7B
$GPRMC,002917.00,A,3509.6524389,N,13936.8295505,E,0.00,0.00,020405,0.0,E,A*3B
$GPGGA,002917.00,3509.6524389,N,13936.8295505,E,1,06,1.0,44.702,M,36.478,M,0.0,*73
$GPRMC,002947.00,A,3509.6524739,N,13936.8294935,E,0.00,0.00,020405,0.0,E,A*3F
$GPGGA,002947.00,3509.6524739,N,13936.8294935,E,1,06,1.0,46.172,M,36.478,M,0.0,*74
$GPRMC,003017.00,A,3509.6525342,N,13936.8297685,E,0.00,0.00,020405,0.0,E,A*3C
$GPGGA,003017.00,3509.6525342,N,13936.8297685,E,1,06,1.0,46.976,M,36.478,M,0.0,*7B
$GPRMC,003047.00,A,3509.6525422,N,13936.8295734,E,0.00,0.00,020405,0.0,E,A*31
$GPGGA,003047.00,3509.6525422,N,13936.8295734,E,1,06,1.0,46.499,M,36.478,M,0.0,*7A
$GPRMC,003117.00,A,3509.6525116,N,13936.8296746,E,0.00,0.00,020405,0.0,E,A*31
$GPGGA,003117.00,3509.6525116,N,13936.8296746,E,1,06,1.0,46.619,M,36.478,M,0.0,*70
$GPRMC,003147.00,A,3509.6525710,N,13936.8296204,E,0.00,0.00,020405,0.0,E,A*37
$GPGGA,003147.00,3509.6525710,N,13936.8296204,E,1,06,1.0,47.033,M,36.478,M,0.0,*79
$GPRMC,003217.00,A,3509.6524222,N,13936.8294517,E,0.00,0.00,020405,0.0,E,A*33
$GPGGA,003217.00,3509.6524222,N,13936.8294517,E,1,06,1.0,46.538,M,36.478,M,0.0,*72
$GPRMC,003247.00,A,3509.6525834,N,13936.8296399,E,0.00,0.00,020405,0.0,E,A*38
$GPGGA,003247.00,3509.6525834,N,13936.8296399,E,1,06,1.0,46.653,M,36.478,M,0.0,*77
$GPRMC,003317.00,A,3509.6526274,N,13936.8295772,E,0.00,0.00,020405,0.0,E,A*33
$GPGGA,003317.00,3509.6526274,N,13936.8295772,E,1,06,1.0,46.212,M,36.478,M,0.0,*7D
$GPRMC,003347.00,A,3509.6526953,N,13936.8297131,E,0.00,0.00,020405,0.0,E,A*3B
$GPGGA,003347.00,3509.6526953,N,13936.8297131,E,1,06,1.0,47.482,M,36.478,M,0.0,*7B
$GPRMC,003417.00,A,3509.6527686,N,13936.8295705,E,0.00,0.00,020405,0.0,E,A*3C
$GPGGA,003417.00,3509.6527686,N,13936.8295705,E,1,06,1.0,46.387,M,36.478,M,0.0,*7F
$GPRMC,003447.00,A,3509.6527590,N,13936.8295869,E,0.00,0.00,020405,0.0,E,A*38
$GPGGA,003447.00,3509.6527590,N,13936.8295869,E,1,06,1.0,47.438,M,36.478,M,0.0,*79
$GPRMC,003517.00,A,3509.6527619,N,13936.8295894,E,0.00,0.00,020405,0.0,E,A*3C
$GPGGA,003517.00,3509.6527619,N,13936.8295894,E,1,06,1.0,47.119,M,36.478,M,0.0,*7B
$GPRMC,003547.00,A,3509.6527902,N,13936.8298565,E,0.00,0.00,020405,0.0,E,A*32
$GPGGA,003547.00,3509.6527902,N,13936.8298565,E,1,06,1.0,47.132,M,36.478,M,0.0,*7C
$GPRMC,003617.00,A,3509.6529179,N,13936.8295971,E,0.00,0.00,020405,0.0,E,A*3A
$GPGGA,003617.00,3509.6529179,N,13936.8295971,E,1,06,1.0,46.554,M,36.478,M,0.0,*71
$GPRMC,003647.00,A,3509.6526893,N,13936.8296280,E,0.00,0.00,020405,0.0,E,A*3B
$GPGGA,003647.00,3509.6526893,N,13936.8296280,E,1,06,1.0,46.735,M,36.478,M,0.0,*75
$GPRMC,003717.00,A,3509.6529289,N,13936.8297883,E,0.00,0.00,020405,0.0,E,A*39
$GPGGA,003717.00,3509.6529289,N,13936.8297883,E,1,06,1.0,47.649,M,36.478,M,0.0,*7C
$GPRMC,003747.00,A,3509.6527553,N,13936.8295571,E,0.00,0.00,020405,0.0,E,A*30
$GPGGA,003747.00,3509.6527553,N,13936.8295571,E,1,06,1.0,47.265,M,36.478,M,0.0,*7F
$GPRMC,003817.00,A,3509.6529179,N,13936.8297696,E,0.00,0.00,020405,0.0,E,A*30
$GPGGA,003817.00,3509.6529179,N,13936.8297696,E,1,06,1.0,47.563,M,36.478,M,0.0,*7E
$GPRMC,003847.00,A,3509.6528635,N,13936.8296388,E,0.00,0.00,020405,0.0,E,A*30
$GPGGA,003847.00,3509.6528635,N,13936.8296388,E,1,06,1.0,46.846,M,36.478,M,0.0,*75
$GPRMC,003917.00,A,3509.6529913,N,13936.8297621,E,0.00,0.00,020405,0.0,E,A*39
$GPGGA,003917.00,3509.6529913,N,13936.8297621,E,1,06,1.0,47.702,M,36.478,M,0.0,*72
$GPRMC,003947.00,A,3509.6531149,N,13936.8297263,E,0.00,0.00,020405,0.0,E,A*30
$GPGGA,003947.00,3509.6531149,N,13936.8297263,E,1,06,1.0,47.629,M,36.478,M,0.0,*73
$GPRMC,004017.00,A,3509.6532122,N,13936.8297112,E,0.00,0.00,020405,0.0,E,A*30
$GPGGA,004017.00,3509.6532122,N,13936.8297112,E,1,06,1.0,47.737,M,36.478,M,0.0,*7D
$GPRMC,004047.00,A,3509.6529883,N,13936.8296986,E,0.00,0.00,020405,0.0,E,A*39
$GPGGA,004047.00,3509.6529883,N,13936.8296986,E,1,06,1.0,47.281,M,36.478,M,0.0,*7C
$GPRMC,004117.00,A,3509.6528799,N,13936.8295288,E,0.00,0.00,020405,0.0,E,A*3E
$GPGGA,004117.00,3509.6528799,N,13936.8295288,E,1,06,1.0,47.091,M,36.478,M,0.0,*78
$GPRMC,004147.00,A,3509.6529590,N,13936.8296056,E,0.00,0.00,020405,0.0,E,A*33
$GPGGA,004147.00,3509.6529590,N,13936.8296056,E,1,06,1.0,47.684,M,36.478,M,0.0,*77
$GPRMC,004217.00,A,3509.6530622,N,13936.8296278,E,0.00,0.00,020405,0.0,E,A*39
$GPGGA,004217.00,3509.6530622,N,13936.8296278,E,1,06,1.0,47.127,M,36.478,M,0.0,*73
$GPRMC,004247.00,A,3509.6530248,N,13936.8296465,E,0.00,0.00,020405,0.0,E,A*3E
$GPGGA,004247.00,3509.6530248,N,13936.8296465,E,1,06,1.0,47.425,M,36.478,M,0.0,*73
$GPRMC,004317.00,A,3509.6531741,N,13936.8299150,E,0.00,0.00,020405,0.0,E,A*3B
$GPGGA,004317.00,3509.6531741,N,13936.8299150,E,1,06,1.0,47.343,M,36.478,M,0.0,*71
$GPRMC,004347.00,A,3509.6529614,N,13936.8299055,E,0.00,0.00,020405,0.0,E,A*32
$GPGGA,004347.00,3509.6529614,N,13936.8299055,E,1,06,1.0,47.854,M,36.478,M,0.0,*75
$GPRMC,004417.00,A,3509.6530931,N,13936.8297485,E,0.00,0.00,020405,0.0,E,A*37
$GPGGA,004417.00,3509.6530931,N,13936.8297485,E,1,06,1.0,48.078,M,36.478,M,0.0,*79
$GPRMC,004447.00,A,3509.6531289,N,13936.8299498,E,0.00,0.00,020405,0.0,E,A*39
$GPGGA,004447.00,3509.6531289,N,13936.8299498,E,1,06,1.0,47.715,M,36.478,M,0.0,*74
$GPRMC,004517.00,A,3509.6534619,N,13936.8297314,E,0.00,0.00,020405,0.0,E,A*38
$GPGGA,004517.00,3509.6534619,N,13936.8297314,E,1,06,1.0,47.821,M,36.478,M,0.0,*7D
$GPRMC,004547.00,A,3509.6534510,N,13936.8298643,E,0.00,0.00,020405,0.0,E,A*3F
$GPGGA,004547.00,3509.6534510,N,13936.8298643,E,1,06,1.0,48.247,M,36.478,M,0.0,*7F
$GPRMC,004617.00,A,3509.6534384,N,13936.8297372,E,0.00,0.00,020405,0.0,E,A*3A
$GPGGA,004617.00,3509.6534384,N,13936.8297372,E,1,06,1.0,47.876,M,36.478,M,0.0,*7D
$GPRMC,004647.00,A,3509.6533366,N,13936.8298244,E,0.00,0.00,020405,0.0,E,A*3F
$GPGGA,004647.00,3509.6533366,N,13936.8298244,E,1,06,1.0,47.450,M,36.478,M,0.0,*70
$GPRMC,004717.00,A,3509.6532625,N,13936.8296885,E,0.00,0.00,020405,0.0,E,A*31
$GPGGA,004717.00,3509.6532625,N,13936.8296885,E,1,06,1.0,48.481,M,36.478,M,0.0,*7D
$GPRMC,004747.00,A,3509.6533963,N,13936.8298318,E,0.00,0.00,020405,0.0,E,A*39
$GPGGA,004747.00,3509.6533963,N,13936.8298318,E,1,06,1.0,47.756,M,36.478,M,0.0,*73
$GPRMC,004817.00,A,3509.6537095,N,13936.8298326,E,0.00,0.00,020405,0.0,E,A*3A
$GPGGA,004817.00,3509.6537095,N,13936.8298326,E,1,06,1.0,48.803,M,36.478,M,0.0,*70
$GPRMC,004847.00,A,3509.6535747,N,13936.8297092,E,0.00,0.00,020405,0.0,E,A*36
$GPGGA,004847.00,3509.6535747,N,13936.8297092,E,1,06,1.0,48.338,M,36.478,M,0.0,*7F
$GPRMC,004917.00,A,3509.6535965,N,13936.8298126,E,0.00,0.00,020405,0.0,E,A*3D
$GPGGA,004917.00,3509.6535965,N,13936.8298126,E,1,06,1.0,48.856,M,36.478,M,0.0,*77
$GPRMC,004947.00,A,3509.6534278,N,13936.8296953,E,0.00,0.00,020405,0.0,E,A*3A
$GPGGA,004947.00,3509.6534278,N,13936.8296953,E,1,06,1.0,48.485,M,36.478,M,0.0,*72
$GPRMC,005017.00,A,3509.6534198,N,13936.8297564,E,0.00,0.00,020405,0.0,E,A*33
$GPGGA,005017.00,3509.6534198,N,13936.8297564,E,1,06,1.0,48.912,M,36.478,M,0.0,*78
$GPRMC,005047.00,A,3509.6534667,N,13936.8296500,E,0.00,0.00,020405,0.0,E,A*32
$GPGGA,005047.00,3509.6534667,N,13936.8296500,E,1,06,1.0,48.676,M,36.478,M,0.0,*74
$GPRMC,005117.00,A,3509.6538176,N,13936.8298127,E,0.00,0.00,020405,0.0,E,A*32
$GPGGA,005117.00,3509.6538176,N,13936.8298127,E,1,06,1.0,48.735,M,36.478,M,0.0,*72
$GPRMC,005147.00,A,3509.6537549,N,13936.8296538,E,0.00,0.00,020405,0.0,E,A*34
$GPGGA,005147.00,3509.6537549,N,13936.8296538,E,1,06,1.0,48.585,M,36.478,M,0.0,*7D
$GPRMC,005217.00,A,3509.6538993,N,13936.8299937,E,0.00,0.00,020405,0.0,E,A*3A
$GPGGA,005217.00,3509.6538993,N,13936.8299937,E,1,06,1.0,48.750,M,36.478,M,0.0,*79
$GPRMC,005247.00,A,3509.6537777,N,13936.8297079,E,0.00,0.00,020405,0.0,E,A*39
$GPGGA,005247.00,3509.6537777,N,13936.8297079,E,1,06,1.0,48.474,M,36.478,M,0.0,*7F
$GPRMC,005317.00,A,3509.6538590,N,13936.8298759,E,0.00,0.00,020405,0.0,E,A*33
$GPGGA,005317.00,3509.6538590,N,13936.8298759,E,1,06,1.0,48.525,M,36.478,M,0.0,*70
$GPRMC,005347.00,A,3509.6538384,N,13936.8298259,E,0.00,0.00,020405,0.0,E,A*30
$GPGGA,005347.00,3509.6538384,N,13936.8298259,E,1,06,1.0,49.322,M,36.478,M,0.0,*73
$GPRMC,005417.00,A,3509.6538847,N,13936.8296958,E,0.00,0.00,020405,0.0,E,A*32
$GPGGA,005417.00,3509.6538847,N,13936.8296958,E,1,06,1.0,49.055,M,36.478,M,0.0,*72
$GPRMC,005447.00,A,3509.6538586,N,13936.8299187,E,0.00,0.00,020405,0.0,E,A*32
$GPGGA,005447.00,3509.6538586,N,13936.8299187,E,1,06,1.0,49.839,M,36.478,M,0.0,*70
$GPRMC,005517.00,A,3509.6538409,N,13936.8297306,E,0.00,0.00,020405,0.0,E,A*35
$GPGGA,005517.00,3509.6538409,N,13936.8297306,E,1,06,1.0,49.315,M,36.478,M,0.0,*72
$GPRMC,005547.00,A,3509.6538204,N,13936.8297851,E,0.00,0.00,020405,0.0,E,A*32
$GPGGA,005547.00,3509.6538204,N,13936.8297851,E,1,06,1.0,48.807,M,36.478,M,0.0,*7C
$GPRMC,005617.00,A,3509.6536124,N,13936.8296713,E,0.00,0.00,020405,0.0,E,A*33
$GPGGA,005617.00,3509.6536124,N,13936.8296713,E,1,06,1.0,49.386,M,36.478,M,0.0,*7E
$GPRMC,005647.00,A,3509.6561936,N,13936.8291689,E,0.00,0.00,020405,0.0,E,A*3A
$GPGGA,005647.00,3509.6561936,N,13936.8291689,E,1,05,1.0,60.558,M,36.478,M,0.0,*7A
