     2.10           OBSERVATION DATA    G (GPS)             RINEX VERSION / TYPE
teqc  2006Dec12     UNAVCO Archive Ops  20061228 04:13:46UTCPGM / RUN BY / DATE
Solaris 5.9|UltraSparc IIIi|cc -xarch=v9 SC5.8|=+-|*Sparc   COMMENT
BIT 2 OF LLI FLAGS DATA COLLECTED UNDER A/S CONDITION       COMMENT
USLO                                                        MARKER NAME
49714M001                                                   MARKER NUMBER
Freddy Blume        UNAVCO                                  OBSERVER / AGENCY
LP02643             ASHTECH Z-XII3      CC00                REC # / TYPE / VERS
CR519991817         ASH701933B_M    SCIT                    ANT # / TYPE
 -2657201.1481 -4482167.4171  3666227.1204                  APPROX POSITION XYZ
        0.0083        0.0000        0.0000                  ANTENNA: DELTA H/E/N
     1     1                                                WAVELENGTH FACT L1/2
     7    L1    L2    C1    P2    P1    S1    S2            # / TYPES OF OBSERV
    30.0000                                                 INTERVAL
RINEX file created by UNAVCO GPS Archive.                   COMMENT
For more information contact archive@unavco.org             COMMENT
Monument ID: 18694                                          COMMENT
UNAVCO 4-char name:   USLO                                  COMMENT
4-char name from Log or data file: USLO                     COMMENT
Monument location: 35.311803 -120.661092 134.6419           COMMENT
Visit ID: 79583                                             COMMENT
End of DB comments                                          COMMENT
 SNR is mapped to RINEX snr flag value [0-9]                COMMENT
  L1 & L2: min(max(int(snr_dBHz/6), 0), 9)                  COMMENT
pseudorange smoothing corrections not applied               COMMENT
  2006    12    27     0     0   30.0000000     GPS         TIME OF FIRST OBS
                                                            END OF HEADER
 06 12 27  0  0 30.0000000  0 11G29G18G22G30G16G 6G 5G10G 7G26G21
  -9907430.63747  -7673715.37345  22761166.2294   22761172.6104   22761166.4724
        45.4004         33.8004
 -14012040.83748 -10335395.61646  22158259.7894   22158266.1514   22158259.1664
        51.0004         40.1004
  -1091644.51147    279118.9304
        44.4004          1.5004
  -7072575.91147  -4942057.17945  23365557.2504   23365565.1804   23365557.3614
        47.5004         32.8004
  -4731175.50847  -3638711.23544  23817518.8734   23817525.1374   23817520.2144
        45.4004         29.0004
 -24569788.05249 -19101680.20448  20185383.3524   20185390.1754   20185383.2804
        54.1004         49.1004
   3094341.35046   2446708.95643  25607847.5844   25607858.0674   25607849.4454
        36.4004         18.9004
  -7471739.47047  -5787345.92345  23488549.1804   23488556.7644   23488546.2884
        43.7004         31.0004
 -21837320.47749 -16985678.09548  20422360.9754   20422368.0484   20422360.1044
        54.8004         50.5004
 -10263038.27547  -7473754.04844  22660171.1674   22660179.5914   22660172.4794
        45.0004         29.0004
 -18454001.19748 -14354608.89247  21349885.0074   21349890.3754   21349884.3634
        53.7004         46.3004
 06 12 27  0  1  0.0000000  0 11G29G18G22G30G16G 6G 5G10G 7G26G21
  -9935217.34947  -7695367.31445  22755878.7884   22755885.3654   22755879.3334
        46.8004         33.8004
 -14093530.59948 -10398894.11446  22142752.8314   22142759.2584   22142752.1024
        51.3004         40.4004
  -1199107.20347    195384.5344
        44.4004          1.5004
  -6968529.54747  -4860982.10045  23385356.6794   23385365.2704   23385357.0944
        46.8004         32.8004
  -4792485.11147  -3686485.00044  23805852.1914   23805858.9584   23805849.7734
        43.0004         28.3004
 -24561348.05149 -19095103.58048  20186989.4444   20186995.9404   20186989.2684
        54.1004         49.1004
   3197068.20446   2526755.76543  25627395.8204   25627405.6664   25627397.5924
        37.1004         18.2004
  -7368966.95547  -5707263.38745  23508106.2634   23508111.3174   23508106.7564
        46.4004         31.0004
 -21868080.02049 -17009646.56348  20416507.6204   20416514.6054   20416506.8964
        54.8004         50.5004
 -10327727.59847  -7524161.27444  22647861.2794   22647869.2824   22647860.2434
        44.7004         29.7004
 -18491666.35048 -14383958.33347  21342717.6114   21342722.7954   21342717.0444
        53.7004         46.3004
 06 12 27  0  1 30.0000000  0 11G29G18G22G30G16G 6G 5G10G 7G26G21
  -9962491.19447  -7716619.66245  22750688.7874   22750695.1904   22750688.8764
        45.4004         33.1004
 -14174693.77148 -10462138.13146  22127308.0024   22127314.3244   22127307.7844
        51.0004         40.8004
  -1306483.35047    649616.9454
        43.7004          1.5004
  -6864388.24447  -4779833.03645  23405174.1314   23405182.5394   23405174.4254
        46.8004         32.4004
  -4853345.64247  -3733908.78044  23794270.8224   23794274.7664   23794270.4694
        44.7004         28.6004
 -24552470.21049 -19088185.78248  20188678.8454   20188685.6114   20188678.6594
        54.1004         49.1004
   3299620.81146   2606666.80643  25646910.8784   25646919.4654   25646910.6634
        39.5004         20.3004
  -7266019.48647  -5627044.66545  23527696.3134   23527703.8064   23527696.0954
        46.1004         30.3004
 -21898460.35149 -17033319.54148  20410726.4084   20410733.4064   20410725.6694
        55.1004         50.5004
 -10391963.42647  -7574215.10944  22635637.2014   22635644.5134   22635634.5264
        42.3004         28.6004
 -18529162.51048 -14413176.08847  21335582.3174   21335587.6194   21335581.6844
        53.7004         46.3004
 06 12 27  0  2  0.0000000  0 11G29G18G22G30G16G 6G 5G10G 7G26G21
  -9989250.08547  -7737470.70845  22745596.5334   22745603.2874   22745597.1414
        45.4004         32.8004
 -14255527.98848 -10525125.81246  22111925.7944   22111932.0484   22111925.3434
        51.3004         40.8004
  -1413769.95747    566016.8164
        43.7004          1.5004
  -6760154.36247  -4698611.84945  23425009.2334   23425017.1884   23425009.3834
        46.8004         32.1004
  -4913754.62747  -3780980.63444  23782775.1814   23782781.5974   23782775.6774
        46.1004         29.0004
 -24543153.20149 -19080925.77548  20190451.7954   20190458.6774   20190451.6914
        54.1004         49.1004
   3401997.91346   2686441.07543  25666392.6984   25666402.6664   25666391.0874
        36.7004         19.6004
  -7162899.56946  -5546691.42745  23547319.6494   23547327.3474   23547315.3234
        41.6004         30.3004
 -21928459.41549 -17056695.42548  20405017.7884   20405024.9504   20405016.9914
        55.1004         50.5004
 -10455742.00547  -7623912.65644  22623499.7814   22623507.2254   22623498.9584
        42.6004         27.9004
 -18566489.19448 -14442261.79047  21328479.2554   21328484.3934   21328478.7914
        53.7004         46.7004
 06 12 27  0  2 30.0000000  0 11G29G18G22G30G16G 6G 5G10G 7G26G21
 -10015492.16847  -7757919.05945  22740602.8594   22740611.1384   22740602.6284
        45.4004         33.5004
 -14336032.21148 -10587856.35646  22096606.3834   22096612.4044   22096605.8884
        51.6004         41.1004
  -1520966.52447    482487.21542                  24850358.6264
        43.0004         13.7004
  -6655831.00547  -4617320.95145  23444861.3774   23444868.8954   23444861.1904
        46.1004         32.1004
  -4973710.45047  -3827699.48044  23771366.2124   23771369.8864   23771365.3064
        44.4004         28.6004
 -24533396.52249 -19073323.17248  20192308.4654   20192315.3344   20192308.3664
        54.1004         49.1004
   3504197.11046   2766076.71443  25685840.5104   25685850.9744   25685839.4334
        39.5004         20.6004
  -7059610.12047  -5466206.15544  23566974.6944   23566981.2344   23566974.5434
        46.1004         29.3004
 -21958075.68249 -17079773.02848  20399381.9654   20399388.9654   20399381.2224
        55.1004         50.5004
 -10519060.14447  -7673251.43544  22611450.5684   22611457.5774   22611451.9184
        44.7004         28.3004
 -18603646.72548 -14471215.68947  21321408.3944   21321413.7074   21321407.8564
        53.7004         46.3004
 06 12 27  0  3  0.0000000  0 11G29G18G22G30G16G 6G 5G10G 7G26G21
 -10041216.97947  -7777964.32845  22735707.5524   22735714.8724   22735706.8084
        45.4004         33.5004
 -14416205.50848 -10650329.02846  22081349.9104   22081355.8184   22081349.4504
        52.0004         41.1004
  -1628071.67647    399028.75844  24829970.5994   24829977.1894   24829969.2604
        42.3004         24.1004
  -6551422.13347  -4535963.41545  23464729.7924   23464737.8674   23464730.0554
        46.1004         31.7004
  -5033212.19647  -3874064.44944  23760043.4764   23760047.7174   23760040.9164
        44.4004         29.0004
 -24523200.44449 -19065378.17948  20194248.7134   20194255.4344   20194248.6534
        54.1004         49.1004
   3606215.43146   2845571.41143  25705253.8824   25705263.8814   25705253.1544
        39.8004         21.7004
  -6956154.56846  -5385591.51445  23586661.7654   23586669.6034   23586657.9564
        41.9004         30.3004
 -21987308.41649 -17102551.77248  20393819.1644   20393826.1194   20393818.5734
        55.1004         50.5004
 -10581915.53847  -7722229.64945  22599490.1644   22599499.0484   22599492.4474
        46.4004         30.0004
 -18640636.05148 -14500038.51847  21314369.5064   21314374.7944   21314368.7904
        53.7004         46.3004
 06 12 27  0  3 30.0000000  0 11G29G18G22G30G16G 6G 5G10G 7G26G21
 -10066421.98347  -7797604.58745  22730910.9664   22730917.5364   22730911.9274
        46.4004         33.1004
 -14496046.05148 -10712542.41246  22066156.7344   22066163.0264   22066156.1484
        51.6004         41.1004
  -1735082.69446    315643.63644  24809607.0914   24809612.9304   24809607.1464
        41.2004         25.1004
  -6446929.80347  -4454540.83545  23484613.9634   23484621.4944   23484613.8804
        45.4004         31.7004
  -5092257.36847  -3920073.66744  23748807.4754   23748814.0714   23748806.9734
        45.0004         29.3004
 -24512563.42349 -19057089.59148  20196272.8674   20196279.5504   20196272.7014
        54.1004         49.1004
   3708051.49745   2924924.09142  25724632.6774   25724642.4094   25724634.1364
        35.7004         17.8004
  -6852535.21047  -5304849.04844  23606379.8724   23606382.9974   23606380.6434
        46.4004         29.0004
 -22016155.43449 -17125029.95548  20388329.7264   20388336.5274   20388328.9844
        55.1004         50.5004
 -10644304.44047  -7770844.34545  22587618.5954   22587627.6354   22587618.9874
        43.7004         31.0004
 -18677456.74648 -14528729.94947  21307362.6794   21307367.8694   21307362.1304
        53.4004         46.3004
 06 12 27  0  4  0.0000000  0 11G29G18G22G30G16G 6G 5G10G 7G26G21
 -10091106.52147  -7816839.27945  22726213.8644   22726220.9674   22726213.7604
        45.4004         33.5004
 -14575553.10648 -10774495.92346  22051027.0334   22051033.1204   22051026.6724
        52.0004         41.1004
  -1841998.73146    232332.50944  24789261.6724   24789268.4104   24789261.1624
        40.5004         24.8004
  -6342358.28447  -4373056.57145  23504513.0554   23504520.9444   23504513.4444
        45.4004         31.7004
  -5150845.45147  -3965726.69744  23737658.3834   23737661.5624   23737658.1414
        44.7004         28.6004
 -24501485.75649 -19048457.63448  20198380.8994   20198387.6754   20198380.7524
        54.1004         49.1004
   3809702.80846   3004132.80543  25743976.2124   25743984.9844   25743976.1764
        36.4004         20.6004
  -6748755.45247  -5223981.89045  23626128.3234   23626136.5814   23626128.2724
        45.4004         30.0004
 -22044615.84849 -17147206.88648  20382913.9044   20382920.9224   20382913.1734
        55.1004         50.5004
 -10706224.64646  -7819093.78345  22575835.1954   22575844.2674   22575832.5864
        41.9004         30.7004
 -18714109.68248 -14557290.65447  21300387.7964   21300393.1504   21300387.0094
        53.4004         46.3004
 06 12 27  0  4 30.0000000  0 11G29G18G22G30G16G 6G 5G10G 7G26G21
 -10115265.68847  -7835664.58345  22721616.3424   22721622.5724   22721614.9134
        45.0004         33.1004
 -14654721.84348 -10836185.82146  22035961.7144   22035967.5234   22035961.2024
        51.6004         41.1004
  -1948814.55446    149099.43044  24768935.3664   24768941.2184   24768934.1844
        39.8004         24.4004
  -6237707.55647  -4291510.57545  23524427.3194   23524435.5164   23524427.7284
        45.4004         31.7004
  -5208971.14047  -4011019.36044  23726597.3954   23726601.9334   23726596.5794
        45.0004         29.0004
 -24489963.45448 -19039479.22348  20200573.5094   20200580.2054   20200573.2844
        53.7004         49.1004
   3911169.98446   3083198.02743  25763284.8864   25763292.0354   25763285.2694
        38.1004         18.9004
  -6644814.83747  -5142989.09544  23645907.9644   23645911.6974   23645907.1094
        44.0004         29.7004
 -22072684.83849 -17169078.82248  20377572.5814   20377579.4554   20377571.8914
        54.4004         50.5004
 -10767669.66147  -7866972.92344  22564141.5684   22564150.2244   22564140.9804
        42.3004         29.3004
 -18750591.94048 -14585718.37647  21293445.3804   21293450.8514   21293444.6854
        53.4004         46.3004
 06 12 27  0  5  0.0000000  0 11G29G18G22G30G16G 6G 5G10G 7G26G21
 -10138903.06347  -7854083.29645  22717118.1034   22717125.4484   22717118.8064
        46.1004         33.1004
 -14733555.89948 -10897614.91246  22020960.0434   22020965.8834   22020959.6174
        52.0004         41.1004
  -2055533.39646     65941.89044  24748627.4124   24748633.0484   24748626.3924
        40.2004         24.1004
  -6132984.98647  -4209908.59445  23544355.3774   23544363.1444   23544356.3414
        45.7004         31.7004
  -5266637.81147  -4055954.45844  23715623.7714   23715630.0794   23715622.6164
        44.7004         29.3004
 -24478001.05448 -19030157.87048  20202849.9124   20202856.7024   20202849.8184
        53.7004         49.1004
   4012446.79946   3162114.90443  25782557.3354   25782567.0444   25782556.5584
        39.8004         21.0004
  -6540720.95447  -5061877.01945  23665716.0374   23665724.7644   23665716.4654
        47.5004         30.0004
 -22100365.87649 -17190648.45148  20372305.0364   20372312.1314   20372304.2974
        54.4004         50.5004
 -10828641.27247  -7914483.24244  22552539.0884   22552546.1314   22552540.3614
        44.4004         29.3004
 -18786908.75648 -14614017.17547  21286534.4494   21286540.0114   21286533.7794
        53.4004         46.3004
 06 12 27  0  5 30.0000000  0 11G29G18G22G30G16G 6G 5G10G 7G26G21
 -10162012.92247  -7872090.94145  22712720.4784   22712729.1054   22712720.1914
        46.1004         33.8004
 -14812049.65248 -10958778.82346  22006023.1574   22006028.8014   22006022.4884
        52.0004         41.1004
  -2162149.17546    -17135.35543  24728339.0314   24728343.9784   24728337.7584
        39.5004         23.7004
  -6028189.70447  -4128249.95445  23564297.3254   23564305.1004   23564297.9664
        46.1004         32.1004
  -5323839.88247  -4100527.43544  23704738.5074   23704744.8594   23704736.8524
        45.0004         29.3004
 -24465593.86348 -19020489.93248  20205210.9254   20205217.6934   20205210.6544
        53.7004         49.1004
   4113534.26046   3240884.24343  25801793.8064   25801802.6834   25801793.0404
        40.5004         20.3004
  -6436472.75547  -4980644.75944  23685553.9994   23685557.6974   23685550.2254
        43.7004         28.6004
 -22127653.27249 -17211911.34748  20367112.3964   20367119.3634   20367111.5624
        54.4004         50.5004
 -10889132.53147  -7961619.27744  22541028.6284   22541035.4114   22541027.1024
        43.0004         29.3004
 -18823056.19948 -14642184.00447  21279655.7814   21279661.0574   21279655.2814
        53.4004         46.3004
 06 12 27  0  6  0.0000000  0 11G29G18G22G30G16G 6G 5G10G 7G26G21
 -10184594.69447  -7889687.08345  22708423.2274   22708432.1354   22708422.9364
        46.4004         34.5004
 -14890202.49348 -11019677.10946  21991151.1914   21991157.2414   21991150.8934
        52.0004         41.1004
  -2268661.17946   -100131.72244  24708070.5004   24708076.1494   24708069.8994
        40.9004         24.1004
  -5923325.71847  -4046537.78045  23584252.3144   23584260.3884   23584253.1114
        46.4004         32.1004
  -5380576.53247  -4144737.81244  23693941.7034   23693948.9034   23693939.1074
        44.0004         29.3004
 -24452741.97748 -19010475.48048  20207656.5264   20207663.4484   20207656.2414
        53.7004         49.1004
   4214430.45746   3319504.62242  25820993.5124   25821006.3914   25820991.8394
        39.5004         16.1004
  -6332073.65947  -4899294.74144  23705420.3204   23705428.2314   23705420.7394
        46.1004         28.6004
 -22154546.21749 -17232866.88348  20361994.8044   20362001.8284   20361993.9854
        54.1004         50.5004
 -10949141.21247  -8008379.22145  22529609.1154   22529618.5294   22529608.6074
        44.0004         30.0004
 -18859035.36148 -14670219.70547  21272809.1514   21272814.7384   21272808.4414
        53.4004         46.3004
 06 12 27  0  6 30.0000000  0 11G29G18G22G30G16G 6G 5G10G 7G26G21
 -10206647.26347  -7906870.86145  22704226.7894   22704235.2034   22704227.4304
        46.8004         34.9004
 -14968013.67148 -11080309.15746  21976344.1434   21976350.0294   21976343.9344
        51.6004         41.5004
  -2375067.40046   -183045.65844  24687822.0424   24687827.6524   24687820.9874
        41.2004         24.1004
  -5818396.49647  -3964774.76145  23604219.8874   23604227.5024   23604220.8184
        46.4004         32.1004
  -5436846.70247  -4188584.69744  23683233.6954   23683240.8274   23683235.6474
        44.7004         29.7004
 -24439445.36749 -19000114.48548  20210186.7614   20210193.5184   20210186.4894
        54.1004         49.1004
   4315132.71746   3397973.74243  25840156.5744   25840164.5024   25840156.3724
        37.4004         18.5004
  -6227526.76647  -4817829.69144  23725315.1284   23725322.6354   23725313.6174
        43.3004         29.0004
 -22181043.61549 -17253514.20348  20356952.4884   20356959.4424   20356951.8064
        54.1004         50.5004
 -11008664.28947  -8054760.76345  22518282.1924   22518291.9204   22518282.3284
        43.7004         30.3004
 -18894846.52348 -14698124.49747  21265994.5414   21266000.1494   21265994.0094
        53.4004         46.7004
 06 12 27  0  7  0.0000000  0 10G29G18G22G30G16G 6G10G 7G26G21
 -10228168.73147  -7923640.80545  22700131.5054   22700139.8574   22700131.0064
        46.8004         35.2004
 -15045481.44848 -11140673.61446  21961602.5374   21961608.5014   21961601.6104
        51.6004         41.5004
  -2481366.24746   -265875.87844  24667593.8284   24667599.5894   24667593.2114
        40.9004         24.4004
  -5713404.40547  -3882962.75745  23624199.3814   23624207.2704   23624199.9474
        46.8004         32.1004
  -5492648.03647  -4232066.21344  23672615.0534   23672621.2354   23672615.2594
        45.7004         29.7004
 -24425703.08749 -18989406.21548  20212801.8464   20212808.6044   20212801.5794
        54.1004         49.1004
  -6122834.30147  -4736251.11244  23745237.5224   23745241.6484   23745237.2544
        46.1004         27.2004
 -22207143.61849 -17273851.86048  20351985.7644   20351992.7964   20351985.0544
        54.1004         50.5004
 -11067698.46647  -8100761.36945  22507048.5294   22507057.7634   22507050.6934
        45.7004         31.0004
 -18930489.34548 -14725898.11447  21259211.9444   21259217.2644   21259211.6244
        53.7004         46.7004
 06 12 27  0  7 30.0000000  0 10G29G18G22G30G16G 6G10G 7G26G21
 -10249158.41247  -7939996.37445  22696137.2604   22696145.8134   22696137.2314
        47.1004         34.9004
 -15122605.15748 -11200769.97646  21946926.3154   21946931.9574   21946925.6604
        51.6004         41.5004
  -2587556.56546   -348621.50244  24647386.3994   24647392.6434   24647385.2804
        41.9004         24.8004
  -5608353.18047  -3801104.68045  23644190.0504   23644197.1074   23644189.8384
        46.4004         31.7004
  -5547979.78647  -4275181.85745  23662085.7394   23662092.2094   23662085.7994
        44.7004         30.0004
 -24411515.18748 -18978350.71348  20215501.7004   20215508.6724   20215501.5394
        53.7004         49.1004
  -6017999.75347  -4654561.85645  23765187.0584   23765194.4274   23765185.8044
        43.3004         30.0004
 -22232845.46049 -17293879.26648  20347094.8824   20347101.8714   20347094.1504
        54.1004         50.5004
 -11126241.59147  -8146379.36445  22495908.9094   22495916.3774   22495909.8364
        45.0004         31.7004
 -18965964.84048 -14753541.34347  21252461.2404   21252466.6534   21252460.7484
        53.7004         46.7004
 06 12 27  0  8  0.0000000  0 10G29G18G22G30G16G 6G10G 7G26G21
 -10269613.37847  -7955935.27045  22692244.9414   22692251.5734   22692244.7264
        47.5004         34.5004
 -15199381.90848 -11260595.97646  21932316.1464   21932322.1484   21932315.5744
        52.0004         41.8004
  -2693634.86447   -431279.81844  24627200.2394   24627206.5064   24627200.0444
        43.0004         25.1004
  -5503244.36847  -3719201.74045  23664191.6724   23664199.5794   23664191.3014
        46.4004         31.7004
  -5602838.84247  -4317929.12245  23651646.2974   23651653.5004   23651645.6164
        46.1004         30.3004
 -24396879.67948 -18966946.42148  20218286.7334   20218293.7774   20218286.7314
        53.7004         49.1004
  -5913024.05947  -4572762.69844  23785163.2024   23785166.8414   23785164.3934
        47.8004         28.6004
 -22258145.84649 -17313593.84648  20342280.3664   20342287.3934   20342279.6034
        54.4004         50.5004
 -11184289.13647  -8191611.14745  22484862.8834   22484869.7554   22484862.0044
        44.0004         31.0004
 -19001271.76048 -14781053.21247  21245742.5574   21245747.8944   21245742.0694
        53.7004         47.0004
 06 12 27  0  8 30.0000000  0 10G29G18G22G30G16G 6G10G 7G26G21
 -10289532.64347  -7971456.75245  22688454.3314   22688460.3674   22688453.8804
        46.4004         33.5004
 -15275810.67448 -11320150.82646  21917772.2534   21917778.3564   21917771.2334
        52.0004         41.8004
  -2799599.65047   -513849.67944  24607035.6964   24607042.1814   24607035.4344
        42.6004         25.1004
  -5398081.25447  -3637256.46945  23684203.4554   23684210.7114   23684203.5874
        46.1004         31.4004
  -5657224.14747  -4360307.29245  23641297.1604   23641303.4094   23641295.5824
        44.4004         30.7004
 -24381796.44149 -18955193.25348  20221156.9834   20221164.0264   20221156.9444
        54.1004         49.1004
  -5807910.49146  -4490855.94344  23805165.8034   23805174.9964   23805162.1694
        40.5004         27.6004
 -22283043.87849 -17332994.90948  20337542.4374   20337549.3514   20337541.6234
        54.4004         50.5004
 -11241838.52947  -8236454.79145  22473911.3674   22473918.8264   22473912.1744
        45.4004         31.0004
 -19036410.64149 -14808434.14347  21239055.8694   21239061.2114   21239055.4384
        54.1004         47.0004
 06 12 27  0  9  0.0000000  0 10G29G18G22G30G16G 6G10G 7G26G21
 -10308918.23747  -7986562.38845  22684765.1074   22684773.2184   22684764.5744
        47.1004         33.5004
 -15351893.42348 -11379436.04847  21903294.1174   21903300.2704   21903293.4454
        52.0004         42.2004
  -2905452.34647   -596332.17444  24586892.4874   24586897.3704   24586891.4194
        43.7004         25.1004
  -5292870.44847  -3555274.02945  23704224.3604   23704231.9474   23704224.5974
        45.4004         31.0004
  -5711137.51647  -4402317.66245  23631037.7154   23631042.3954   23631036.2644
        45.7004         30.7004
 -24366268.52149 -18943093.58248  20224111.8594   20224118.6694   20224111.6994
        54.1004         49.1004
  -5702665.26647  -4408846.78345  23825193.0044   23825200.1144   23825194.0614
        46.8004         30.0004
 -22307541.36049 -17352083.85448  20332880.7404   20332887.5284   20332880.1204
        54.4004         50.5004
 -11298889.93547  -8280910.38345  22463055.0194   22463063.2874   22463055.5504
        45.0004         31.4004
 -19071384.92048 -14835686.80947  21232400.4964   21232406.0144   21232399.9854
        53.7004         47.0004
 06 12 27  0  9 30.0000000  0 10G29G18G22G30G16G 6G10G 7G26G21
 -10327765.04147  -8001248.17245  22681178.6234   22681186.2154   22681178.6074
        47.5004         34.2004
 -15427625.06848 -11438447.68747  21888882.7654   21888888.9974   21888882.0024
        51.6004         42.2004
  -3011187.62847   -678723.16644  24566771.6104   24566776.6814   24566771.6284
        43.3004         25.1004
  -5187610.97547  -3473253.67845  23724254.4224   23724263.0984   23724254.3904
        45.0004         30.3004
  -5764573.56847  -4443956.11945  23620869.2164   23620877.0794   23620868.3534
        46.1004         31.0004
 -24350291.35849 -18930643.84248  20227152.2394   20227159.0074   20227152.1044
        54.1004         49.1004
  -5597287.09746  -4326733.86544  23845245.9964   23845251.5784   23845242.4424
        39.1004         26.5004
 -22331632.94049 -17370856.50748  20328296.2784   20328303.0844   20328295.6944
        54.8004         50.5004
 -11355436.95047  -8324972.93545  22452294.3554   22452301.4324   22452294.5004
        45.4004         31.0004
 -19106191.01548 -14862808.42247  21225777.0944   21225782.3964   21225776.4914
        53.7004         47.0004
 06 12 27  0 10  0.0000000  0 10G29G18G22G30G16G 6G10G 7G26G21
 -10346069.07847  -8015511.03845  22677695.4954   22677702.4564   22677696.3674
        47.5004         34.2004
 -15503001.48448 -11497182.52847  21874539.1014   21874544.9044   21874538.3724
        52.0004         42.2004
  -3116801.10747   -761019.23844  24546673.7774   24546679.0544   24546673.7814
        43.0004         25.1004
  -5082303.57447  -3391195.99445  23744293.5364   23744301.9054   23744294.2874
        44.4004         30.0004
  -5817528.07547  -4485219.38745  23610792.3574   23610800.1994   23610792.5384
        44.7004         31.4004
 -24333861.90548 -18917841.67348  20230278.6554   20230285.5674   20230278.5204
        53.7004         49.1004
  -5491775.94447  -4244517.40244  23865323.6974   23865331.2094   23865324.4004
        46.4004         28.3004
 -22355314.53349 -17389309.68948  20323789.8874   20323796.6624   20323789.2734
        54.4004         50.5004
 -11411473.56647  -8368637.77945  22441630.8594   22441638.7734   22441628.8144
        44.0004         31.0004
 -19140826.50448 -14889797.09447  21219186.1564   21219191.3394   21219185.6134
        53.7004         47.0004
 06 12 27  0 10 30.0000000  0 10G29G18G22G30G16G 6G10G 7G26G21
 -10363831.73147  -8029352.04545  22674315.5664   22674322.0864   22674315.6984
        47.5004         34.9004
 -15578024.09548 -11555641.67447  21860262.7594   21860268.8814   21860261.9564
        51.6004         42.5004
  -3222293.48347   -843220.94844  24526599.1764   24526605.3424   24526598.1194
        43.0004         25.1004
  -4976953.22347  -3309104.83044  23764340.7964   23764349.7744   23764341.2894
        44.4004         29.7004
  -5870002.15247  -4526108.22845  23600806.8784   23600815.0824   23600805.7024
        46.1004         31.7004
 -24316982.40849 -18904688.82648  20233490.7104   20233497.7314   20233490.5264
        54.1004         48.8004
  -5386137.25446  -4162201.60744  23885426.4174   23885432.0694   23885422.5764
        38.8004         29.0004
 -22378587.32549 -17407444.32448  20319361.2464   20319368.1494   20319360.7394
        54.8004         50.8004
 -11466999.66647  -8411904.80945  22431064.1624   22431072.1454   22431062.8984
        44.7004         30.7004
 -19175294.25448 -14916655.05947  21212627.1314   21212632.5774   21212626.3944
        53.7004         47.0004
 06 12 27  0 11  0.0000000  0 10G29G18G22G30G16G 6G10G 7G26G21
 -10381051.98247  -8042770.39645  22671038.5244   22671045.1314   22671038.5174
        47.5004         34.2004
 -15652691.94548 -11613824.39347  21846053.9374   21846059.8084   21846053.3824
        52.0004         42.5004
  -3327663.19147   -925327.05844  24506547.7394   24506553.9594   24506547.4304
        43.0004         24.8004
  -4871563.10847  -3226982.67444  23784395.8074   23784404.6074   23784396.5054
        44.0004         29.0004
  -5921994.77747  -4566621.97245  23590913.1304   23590919.7094   23590913.0314
        45.4004         31.7004
 -24299652.60748 -18891185.08848  20236788.4834   20236795.1784   20236788.3334
        53.7004         48.8004
  -5280373.82947  -4079788.42044  23905552.1764   23905559.2434   23905552.2014
        45.7004         25.1004
 -22401449.85949 -17425259.27748  20315010.7214   20315017.4564   20315010.0314
        54.8004         50.8004
 -11522012.67547  -8454772.06045  22420595.3134   22420602.3064   22420594.6554
        45.4004         31.0004
 -19209594.28948 -14943382.34047  21206100.0034   21206105.5554   21206099.5534
        53.4004         47.0004
 06 12 27  0 11 30.0000000  0 10G29G18G22G30G16G 6G10G 7G26G21
 -10397727.66247  -8055764.40245  22667865.2224   22667871.2554   22667864.0744
        46.4004         34.2004
 -15727002.91448 -11671729.02347  21831913.0084   21831919.0134   21831912.2624
        52.0004         42.5004
  -3432907.71047  -1007335.62144  24486520.4424   24486526.9104   24486519.6754
        42.6004         25.1004
  -4766135.44947  -3144831.28244  23804458.0574   23804466.4524   23804459.0364
        44.0004         28.6004
  -5973503.47847  -4606758.61645  23581111.3914   23581116.0594   23581112.0664
        47.1004         31.4004
 -24281871.20548 -18877329.45748  20240172.1434   20240179.1454   20240171.9714
        53.7004         48.8004
  -5174487.65146  -3997279.80544  23925701.9834   23925709.8124   23925699.6334
        41.2004         28.3004
 -22423900.15049 -17442753.00648  20310738.5684   20310745.2894   20310737.7494
        54.4004         50.8004
 -11576508.94347  -8497236.65445  22410224.7274   22410231.4504   22410222.9754
        44.7004         30.7004
 -19243725.76448 -14969978.27647  21199604.9504   21199610.4534   21199604.5494
        53.4004         47.0004
 06 12 27  0 12  0.0000000  0 10G29G18G22G30G16G 6G10G 7G26G21
 -10413860.01347  -8068335.02945  22664795.1794   22664801.7514   22664795.4594
        47.5004         34.5004
 -15800958.17848 -11729356.48747  21817839.7254   21817845.8994   21817838.9244
        51.6004         42.9004
  -3538027.75847  -1089247.19144  24466516.5664   24466523.2634   24466516.5634
        42.6004         25.5004
  -4660676.18847  -3062655.27444  23824526.3804   23824535.0174   23824526.6034
        43.7004         28.3004
  -6024529.02047  -4646518.74745  23571401.6724   23571407.5944   23571398.7604
        45.0004         31.7004
 -24263640.14948 -18863123.44448  20243641.4044   20243648.3944   20243641.1394
        53.7004         48.8004
  -5068483.33147  -3914679.12844  23945873.6404   23945877.9064   23945875.6954
        43.3004         25.8004
 -22445938.86749 -17459926.03048  20306544.7234   20306551.3944   20306543.9524
        54.4004         50.8004
 -11630487.90547  -8539298.13545  22399952.4754   22399959.4544   22399952.0564
        46.1004         31.0004
 -19277691.52248 -14996445.08647  21193141.4074   21193146.8784   21193140.9044
        53.4004         47.0004
 06 12 27  0 12 30.0000000  0 10G29G18G22G30G16G 6G10G 7G26G21
 -10429444.87447  -8080479.05945  22661829.5324   22661837.1224   22661829.4624
        46.8004         34.9004
 -15874553.28948 -11786703.30547  21803835.0034   21803840.8764   21803834.5694
        52.3004         42.9004
  -3643018.65347  -1171058.12944  24446537.3244   24446543.2904   24446536.3554
        43.0004         25.8004
  -4555185.25447  -2980454.56844  23844600.7294   23844609.2134   23844601.6364
        43.7004         28.3004
  -6075067.20347  -4685899.16345  23561784.5844   23561789.8004   23561786.4554
        46.4004         31.7004
 -24244956.29349 -18848564.59248  20247196.7994   20247203.5844   20247196.4084
        54.1004         48.8004
  -4962360.81747  -3831986.14244  23966068.2544   23966076.9744   23966067.4074
        43.7004         26.5004
 -22467561.81949 -17476775.07948  20302429.9984   20302436.6714   20302429.3614
        54.4004         50.8004
 -11683943.56247  -8580951.86045  22389780.2984   22389787.5784   22389780.3684
        46.8004         31.7004
 -19311488.42648 -15022780.31147  21186710.0414   21186715.5084   21186709.5764
        53.4004         47.0004
 06 12 27  0 13  0.0000000  0 10G29G18G22G30G16G 6G10G 7G26G21
 -10444481.71047  -8092196.03145  22658968.1284   22658975.7434   22658968.9324
        47.8004         35.9004
 -15947787.93748 -11843769.24447  21789898.9454   21789904.8634   21789898.5374
        52.3004         42.9004
  -3747879.13647  -1252767.46644  24426582.9504   24426589.0494   24426583.1284
        42.6004         26.2004
  -4449665.38347  -2898231.31444  23864680.5114   23864688.5574   23864681.1354
        44.0004         28.6004
  -6125117.46247  -4724899.29445  23552260.3754   23552265.5394   23552259.8004
        46.8004         31.7004
 -24225819.68848 -18833652.95248  20250838.4024   20250845.2914   20250838.2864
        53.7004         48.8004
  -4856123.12046  -3749203.63544  23986284.5374   23986292.3194   23986283.0724
        41.6004         27.6004
 -22488768.10049 -17493299.45148  20298394.5824   20298401.4634   20298393.7644
        54.4004         50.8004
 -11736874.00847  -8622196.33045  22379708.0114   22379715.6164   22379707.6714
        47.1004         32.4004
 -19345117.70248 -15048984.91747  21180310.5754   21180316.1384   21180310.0864
        53.7004         47.0004
 06 12 27  0 13 30.0000000  0 10G29G18G22G30G16G 6G10G 7G26G21
 -10458969.06048  -8103484.85846  22656211.4174   22656218.6754   22656212.2814
        48.2004         36.6004
 -16020660.42248 -11900552.98247  21776031.7974   21776037.5704   21776031.3674
        52.3004         43.2004
  -3852607.07747  -1334373.55144  24406653.8024   24406660.2834   24406653.1664
        43.7004         26.5004
  -4344119.44347  -2815987.74544  23884765.1764   23884774.1124   23884766.4204
        44.0004         28.6004
  -6174678.08147  -4763517.97745  23542829.2834   23542834.6264   23542826.8304
        45.4004         31.4004
 -24206229.72848 -18818388.06048  20254566.2144   20254572.9104   20254566.0264
        53.7004         48.8004
  -4749772.77347  -3666333.24144  24006522.1354   24006528.5014   24006521.7914
        43.7004         26.2004
 -22509555.94449 -17509497.77348  20294438.7454   20294445.6414   20294437.9734
        54.4004         50.8004
 -11789276.05047  -8663029.07245  22369736.1414   22369744.2344   22369736.5444
        47.5004         32.8004
 -19378579.02848 -15075058.66147  21173943.1194   21173948.3584   21173942.7344
        53.7004         47.0004
 06 12 27  0 14  0.0000000  0 10G29G18G22G30G16G 6G10G 7G26G21
 -10472906.78847  -8114345.40546  22653559.3814   22653566.0044   22653559.6874
        47.8004         36.6004
 -16093170.42348 -11957054.26047  21762233.5784   21762239.5994   21762232.9104
        52.7004         43.2004
  -3957201.49647  -1415875.58344  24386750.1464   24386756.5724   24386750.3644
        43.3004         26.9004
  -4238551.59647  -2733727.11744  23904854.0444   23904863.2214   23904855.0634
        44.4004         29.3004
  -6223748.09047  -4801754.33945  23533491.5224   23533497.5074   23533489.0154
        44.7004         31.4004
 -24186186.90448 -18802770.27448  20258380.2614   20258387.2074   20258380.0754
        53.7004         48.8004
  -4643313.24546  -3583377.71444  24026780.7564   24026788.8144   24026779.0074
        41.6004         26.5004
 -22529924.81549 -17525369.62148  20290562.6724   20290569.4454   20290561.9864
        54.4004         50.8004
 -11841147.58647  -8703448.42845  22359865.4094   22359872.7994   22359865.4274
        47.8004         33.1004
 -19411873.32048 -15101002.24847  21167607.4394   21167612.8504   21167607.0114
        53.7004         47.0004
 06 12 27  0 14 30.0000000  0 10G29G18G22G30G16G 6G10G 7G26G21
 -10486291.94747  -8124775.37646  22651012.3314   22651019.8294   22651011.8714
        47.8004         36.6004
 -16165314.76048 -12013270.59747  21748504.9704   21748511.0494   21748504.1844
        52.7004         43.5004
  -4061658.87447  -1497270.84944  24366872.4574   24366878.7154   24366872.2654
        43.7004         26.9004
  -4132963.06647  -2651450.36544  23924946.7674   23924955.8704   23924947.7834
        44.4004         29.7004
  -6272324.79147  -4839606.27145  23524247.5984   23524252.5604   23524245.8434
        45.0004         31.0004
 -24165689.17149 -18786798.01348  20262280.8604   20262287.6944   20262280.7654
        54.1004         48.8004
  -4536745.39647  -3500337.94244  24047059.8804   24047067.5614   24047059.6974
        43.3004         26.5004
 -22549871.68249 -17540912.63048  20286766.8784   20286773.7354   20286766.1044
        54.4004         50.8004
 -11892484.38947  -8743451.10045  22350096.3854   22350104.3384   22350096.8404
        47.8004         33.8004
 -19444998.90148 -15126814.37247  21161303.8824   21161309.2784   21161303.4244
        53.7004         47.0004
 06 12 27  0 15  0.0000000  0 10G29G18G22G30G16G 6G10G 7G26G21
 -10499125.29747  -8134775.36246  22648570.2004   22648577.6084   22648569.0724
        46.8004         36.3004
 -16237094.32448 -12069202.69847  21734845.6894   21734851.6044   21734844.8604
        52.3004         43.5004
  -4165979.20247  -1578559.33344  24347020.9954   24347027.0304   24347019.8894
        43.7004         27.2004
  -4027358.49647  -2569161.12745  23945042.7074   23945051.7144   23945043.2614
        44.7004         30.0004
  -6320408.66447  -4877074.21745  23515097.4994   23515102.1864   23515094.6794
        45.0004         31.0004
 -24144737.97649 -18770472.41348  20266267.7074   20266274.5374   20266267.6154
        54.1004         48.8004
  -4430073.43747  -3417216.86544  24067359.1854   24067364.8264   24067358.2254
        43.3004         27.2004
 -22569396.79049 -17556127.00148  20283051.3674   20283058.3094   20283050.7164
        54.4004         50.8004
 -11943285.24047  -8783036.14445  22340429.4474   22340437.3504   22340429.4034
        47.1004         34.5004
 -19477957.74749 -15152496.58047  21155032.0474   21155037.3294   21155031.6164
        54.1004         47.0004
 06 12 27  0 15 30.0000000  0 10G29G18G22G30G16G 6G10G 7G26G21
 -10511405.46447  -8144344.29645  22646233.0174   22646240.9784   22646232.8194
        46.8004         35.9004
 -16308507.45848 -12124849.26547  21721256.1534   21721262.1454   21721255.4184
        52.3004         43.5004
  -4270160.83247  -1659739.75844  24327195.7864   24327202.0004   24327195.0334
        43.0004         26.9004
  -3921740.37647  -2486861.32545  23965141.1704   23965150.9064   23965141.9174
        45.0004         30.3004
  -6367997.75547  -4914156.64845  23506041.5624   23506049.6644   23506041.6964
        44.0004         31.4004
 -24123332.65949 -18753792.95248  20270341.0604   20270347.9304   20270340.8654
        54.1004         48.8004
  -4323299.65446  -3334016.51344  24087677.3654   24087685.2904   24087675.3394
        40.9004         25.8004
 -22588498.48149 -17571011.43148  20279416.4544   20279423.2194   20279415.7634
        54.4004         50.8004
 -11993547.15447  -8822201.23145  22330865.0594   22330874.3874   22330865.8734
        47.5004         34.9004
 -19510749.26449 -15178048.39847  21148792.0524   21148797.3414   21148791.5264
        54.1004         47.4004
 06 12 27  0 16  0.0000000  0 10G29G18G22G30G16G 6G10G 7G26G21
 -10523129.09747  -8153479.55445  22644002.0634   22644009.7634   22644000.9244
        46.4004         35.9004
 -16379550.65948 -12180207.57147  21707737.0334   21707743.0854   21707736.0374
        52.0004         43.5004
  -4374199.27146  -1740808.63444  24307397.7124   24307403.8534   24307396.9494
        41.9004         26.9004
  -3816109.39047  -2404551.50845  23985242.2054   23985251.1864   23985242.9124
        45.4004         30.7004
  -6415088.83047  -4950850.96545  23497080.3564   23497086.2824   23497080.8094
        45.7004         31.0004
 -24101470.64449 -18736757.61948  20274501.2474   20274508.1674   20274500.9354
        54.1004         48.8004
  -4216424.49047  -3250737.24244  24108014.9484   24108022.5664   24108014.2494
        44.4004         26.5004
 -22607173.05349 -17585563.04148  20275862.7734   20275869.6254   20275862.0534
        54.8004         50.8004
 -12043265.27147  -8860942.58545  22321403.8744   22321411.3744   22321403.1644
        47.1004         34.9004
 -19543371.94649 -15203468.65547  21142584.1564   21142589.4664   21142583.6344
        54.4004         47.4004
 06 12 27  0 16 30.0000000  0 10G29G18G22G30G16G 6G10G 7G26G21
 -10534297.06247  -8162181.82345  22641876.7244   22641883.6694   22641876.8654
        46.8004         35.6004
 -16450224.61648 -12235278.14547  21694288.1694   21694294.1924   21694287.4674
        52.0004         43.5004
  -4478094.86547  -1821766.19144  24287626.7824   24287633.5264   24287626.0264
        42.3004         26.9004
  -3710470.07447  -2322235.18945  24005344.8324   24005353.9894   24005345.9154
        45.7004         31.0004
  -6461682.36747  -4987157.58645  23488213.8794   23488221.6674   23488214.7774
        45.0004         31.0004
 -24079153.42048 -18719367.57048  20278748.0984   20278754.8004   20278747.6454
        53.7004         48.8004
  -4109452.38747  -3167382.28844  24128371.2924   24128378.3864   24128370.9964
        44.4004         27.2004
 -22625421.12949 -17599782.31148  20272390.2874   20272397.1394   20272389.5574
        54.4004         50.8004
 -12092438.48447  -8899259.35845  22312046.3264   22312052.7484   22312046.4624
        47.1004         34.5004
 -19575826.48549 -15228757.89647  21136408.2144   21136413.4524   21136407.7894
        54.1004         47.0004
 06 12 27  0 17  0.0000000  0 10G29G18G22G30G16G 6G10G 7G26G21
 -10544908.40447  -8170450.36145  22639857.4634   22639864.8904   22639856.3244
        46.1004         35.2004
 -16520528.67148 -12290060.48547  21680909.6854   21680916.0694   21680908.9894
        52.0004         43.5004
  -4581845.97946  -1902611.17444  24267883.5184   24267889.5004   24267882.6844
        41.9004         26.5004
  -3604825.65047  -2239914.89745  24025448.4604   24025457.1534   24025449.9374
        45.7004         31.4004
  -6507777.09347  -5023075.56245  23479442.3214   23479448.6704   23479442.7604
        45.4004         30.7004
 -24056380.93748 -18701622.78648  20283081.5434   20283088.4134   20283081.2954
        53.7004         48.8004
  -4002385.62246  -3083953.62744  24148745.4404   24148753.5374   24148743.9624
        41.2004         25.8004
 -22643241.30149 -17613668.15248  20268999.2384   20269006.0364   20268998.4244
        54.4004         50.8004
 -12141064.34747  -8937149.60845  22302792.9314   22302799.1094   22302793.0684
        47.5004         34.5004
 -19608114.38049 -15253917.28547  21130264.0404   21130269.2674   21130263.3334
        54.1004         47.0004
 06 12 27  0 17 30.0000000  0 10G29G18G22G30G16G 6G10G 7G26G21
 -10554960.41047  -8178283.07345  22637944.5424   22637950.4484   22637944.3374
        46.4004         34.5004
 -16590459.34848 -12344551.87847  21667602.2864   21667608.1154   21667601.6814
        52.0004         43.5004
  -4685448.71646  -1983340.53644  24248168.4964   24248175.5964   24248169.0824
        41.9004         26.5004
  -3499176.95547  -2157591.26445  24045552.8544   24045562.0954   24045553.8694
        45.4004         31.0004
  -6553369.81347  -5058602.33645  23470766.2294   23470771.9964   23470766.7664
        44.4004         30.7004
 -24033150.93249 -18683521.48848  20287502.0774   20287509.0424   20287501.9754
        54.1004         48.8004
  -3895224.84447  -3000451.79844  24169137.1924   24169144.3684   24169135.7854
        42.3004         25.5004
 -22660630.33549 -17627218.04048  20265690.2084   20265697.1054   20265689.4954
        54.4004         50.8004
 -12189138.28448  -8974609.79345  22293644.8134   22293651.0804   22293644.9914
        48.2004         35.2004
 -19640233.47149 -15278945.13947  21124151.9804   21124157.0774   21124151.2544
        54.1004         47.4004
 06 12 27  0 18  0.0000000  0 10G29G18G22G30G16G 6G10G 7G26G21
 -10564454.19347  -8185680.77245  22636138.0184   22636144.5434   22636136.7694
        46.4004         34.5004
 -16660017.47448 -12398752.97447  21654365.7614   21654371.9224   21654365.0954
        52.3004         43.9004
  -4788903.66547  -2063954.74244  24228481.5414   24228487.9554   24228481.8314
        43.0004         26.5004
  -3393528.67647  -2075267.96345  24065657.0284   24065665.4004   24065657.8324
        45.4004         30.7004
  -6598461.52747  -5093738.71545  23462185.5844   23462192.6414   23462185.0274
        45.7004         30.7004
 -24009465.31748 -18665065.16648  20292009.2764   20292016.1094   20292009.1744
        53.7004         48.8004
  -3787974.83347  -2916880.34344  24189546.2214   24189554.6214   24189544.9374
        43.7004         26.9004
 -22677588.93949 -17640432.53048  20262463.1114   20262469.9494   20262462.3794
        54.4004         50.8004
 -12236659.75948  -9011639.48045  22284601.7944   22284608.7824   22284601.6014
        48.2004         35.6004
 -19672185.47349 -15303842.79447  21118071.7304   21118076.9144   21118071.2244
        54.1004         47.4004
 06 12 27  0 18 30.0000000  0 10G29G18G22G30G16G 6G10G 7G26G21
 -10573390.17347  -8192643.85445  22634437.4434   22634443.4324   22634437.8154
        47.1004         34.9004
 -16729203.76048 -12452664.33147  21641200.0644   21641205.9484   21641199.5294
        52.3004         43.9004
  -4892210.30447  -2144453.39244  24208822.8594   24208830.0164   24208823.3304
        42.3004         26.9004
  -3287885.60447  -1992948.72045  24085760.4114   24085769.2934   24085761.1354
        45.4004         30.3004
  -6643051.99247  -5128484.53445  23453700.2874   23453708.0044   23453700.4214
        45.4004         30.7004
 -23985325.30848 -18646254.77748  20296602.9694   20296610.0804   20296602.8344
        53.7004         48.8004
  -3680639.38547  -2833242.30644  24209971.6544   24209979.6654   24209971.1164
        42.6004         26.9004
 -22694117.15349 -17653311.65348  20259317.8964   20259324.6054   20259317.2864
        54.4004         50.8004
 -12283627.65748  -9048237.80446  22275664.1074   22275670.4194   22275664.3084
        48.2004         36.3004
 -19703972.00849 -15328611.52047  21112022.9684   21112028.2744   21112022.2214
        54.1004         47.4004
 06 12 27  0 19  0.0000000  0 10G29G18G22G30G16G 6G10G 7G26G21
 -10581763.81947  -8199168.74145  22632844.1114   22632851.1974   22632843.7284
        47.1004         35.2004
 -16798012.92848 -12506281.82847  21628106.0984   21628112.4154   21628105.6144
        52.3004         43.9004
  -4995363.03747  -2224832.11744  24189193.4954   24189200.6124   24189193.7904
        43.3004         27.2004
  -3182246.71347  -1910632.73945  24105862.8914   24105870.7114   24105863.2684
        44.4004         30.0004
  -6687136.77447  -5162836.30745  23445311.2094   23445315.5994   23445311.3894
        45.7004         30.7004
 -23960726.78448 -18627087.09948  20301283.9524   20301290.8944   20301283.8244
        53.7004         48.8004
  -3573217.16846  -2749536.67944  24230413.5674   24230420.9184   24230413.3344
        41.6004         25.8004
 -22710210.00849 -17665851.52848  20256255.5314   20256262.4224   20256254.8474
        54.4004         50.8004
 -12330035.21048  -9084399.51046  22266833.1154   22266839.7234   22266832.8424
        48.2004         36.6004
 -19735589.29049 -15353248.35547  21106006.4084   21106011.6334   21106005.7764
        54.4004         47.4004
 06 12 27  0 19 30.0000000  0 10G29G18G22G30G16G 6G10G 7G26G21
 -10589575.91847  -8205256.08745  22631357.5114   22631363.3334   22631358.2874
        47.1004         35.2004
 -16866445.98148 -12559606.25247  21615083.6774   21615089.6564   21615083.2894
        52.7004         44.2004
  -5098362.10947  -2305091.11444  24169593.4444   24169600.1734   24169593.3294
        44.0004         27.9004
  -3076616.53247  -1828323.55644  24125963.6354   24125972.0504   24125964.1134
        44.4004         29.3004
  -6730716.43147  -5196794.48345  23437018.2274   23437024.8034   23437018.8594
        45.7004         30.7004
 -23935671.39748 -18607563.42648  20306051.8044   20306058.8474   20306051.5134
        53.7004         48.8004
  -3465712.55647  -2665766.88344  24250871.0904   24250878.5744   24250870.8114
        42.3004         25.5004
 -22725867.97749 -17678052.54048  20253275.8944   20253282.7374   20253275.2394
        54.4004         50.8004
 -12375882.09947  -9120124.32346  22258108.7664   22258115.7994   22258108.4324
        47.5004         36.9004
 -19767039.67349 -15377755.14447  21100021.6104   21100026.7984   21100021.0794
        54.1004         47.4004
 06 12 27  0 20  0.0000000  0 10G29G18G22G30G16G 6G10G 7G26G21
 -10596823.41947  -8210903.48245  22629978.3704   22629985.3984   22629977.8924
        47.1004         34.9004
 -16934499.36748 -12612634.82347  21602133.5304   21602139.6664   21602133.0644
        52.7004         44.2004
  -5201203.30847  -2385227.08944  24150023.5854   24150030.2364   24150023.7464
        43.7004         28.6004
  -2970995.41847  -1746021.43544  24146062.6144   24146071.4144   24146063.6684
        43.7004         28.6004
  -6773787.14047  -5230356.05845  23428822.0754   23428828.6564   23428822.3844
        46.1004         30.7004
 -23910156.55848 -18587681.73048  20310907.0984   20310913.8304   20310906.9224
        53.7004         48.4004
  -3358125.67047  -2581932.95344  24271344.0714   24271351.0634   24271342.6494
        43.7004         27.2004
 -22741087.34449 -17689911.77448  20250379.7324   20250386.5374   20250379.0644
        54.4004         50.8004
 -12421163.28048  -9155408.31146  22249491.8264   22249499.0994   22249491.5874
        48.2004         37.3004
 -19798320.19749 -15402129.57047  21094069.1364   21094074.4574   21094068.8204
        54.1004         47.4004
 06 12 27  0 20 30.0000000  0 10G29G18G22G30G16G 6G10G 7G26G21
 -10603508.45948  -8216112.57745  22628706.3104   22628712.9164   22628706.8624
        48.2004         35.2004
 -17002174.84748 -12665368.93647  21589255.3024   21589261.4474   21589255.0604
        52.7004         44.6004
  -5303887.94347  -2465241.07644  24130483.3944   24130490.4444   24130483.5444
        44.7004         29.0004
  -2865389.71247  -1663731.33344  24166158.6984   24166167.2044   24166159.3264
        44.0004         28.3004
  -6816350.85147  -5263522.59545  23420722.5124   23420727.3754   23420721.2424
        45.0004         30.7004
 -23884185.29448 -18567444.38348  20315849.2254   20315856.0814   20315849.0004
        53.7004         48.4004
  -3250462.16847  -2498039.31544  24291831.7634   24291838.3484   24291830.7364
        44.0004         27.9004
 -22755869.71049 -17701430.49548  20247566.7564   20247573.3864   20247566.2024
        54.4004         50.8004
 -12465878.89848  -9190251.60846  22240982.5924   22240991.1544   22240982.9384
        48.5004         37.6004
 -19829434.41949 -15426374.40847  21088148.2764   21088153.3264   21088147.8894
        54.1004         47.7004
 06 12 27  0 21  0.0000000  0 10G29G18G22G30G16G 6G10G 7G26G21
 -10609627.56948  -8220880.69945  22627541.9554   22627549.3904   22627541.8394
        48.2004         35.6004
 -17069468.94548 -12717805.86047  21576449.6914   21576455.8624   21576449.2754
        52.7004         44.6004
  -5406411.59347  -2545129.61144  24110973.8914   24110980.2644   24110974.1904
        44.4004         29.3004
  -2759799.17947  -1581453.04744  24186251.9664   24186260.3384   24186251.8364
        43.7004         27.9004
  -6858403.79747  -5296291.11945  23412719.9544   23412727.1154   23412720.5314
        46.8004         30.7004
 -23857754.49548 -18546848.95048  20320878.8574   20320885.6484   20320878.5594
        53.7004         48.4004
  -3142721.55347  -2414085.56744  24312334.1754   24312341.2844   24312332.9424
        43.0004         27.9004
 -22770211.33949 -17712605.78348  20244837.6364   20244844.3184   20244836.9214
        54.8004         50.5004
 -12510024.17548  -9224650.47746  22232582.1824   22232590.4544   22232582.4834
        49.2004         38.3004
 -19860379.45149 -15450487.40747  21082259.6624   21082264.7214   21082259.2764
        54.1004         47.7004
 06 12 27  0 21 30.0000000  0 10G29G18G22G30G16G 6G10G 7G26G21
 -10615180.94347  -8225207.97745  22626485.1424   22626492.0744   22626484.3814
        47.5004         35.6004
 -17136381.53748 -12769945.51147  21563716.6474   21563722.5314   21563716.1604
        53.0004         44.6004
  -5508773.67947  -2624892.26144  24091495.0514   24091501.1524   24091495.2354
        44.0004         29.7004
  -2654227.60747  -1499189.53044  24206341.6564   24206349.4934   24206343.8374
        43.7004         27.6004
  -6899945.68047  -5328661.41345  23404814.7844   23404820.1234   23404814.9444
        45.0004         31.0004
 -23830865.13148 -18525896.20148  20325995.7174   20326002.6344   20325995.5364
        53.7004         48.4004
  -3034907.25647  -2330074.41444  24332850.4194   24332856.7334   24332849.2394
        42.6004         26.2004
 -22784111.81149 -17723437.31448  20242192.4474   20242199.1704   20242191.6424
        54.4004         50.5004
 -12553597.49548  -9258603.67046  22224290.5394   22224298.5164   22224291.0934
        49.6004         38.3004
 -19891156.29149 -15474469.35147  21076403.0314   21076408.2034   21076402.4404
        54.1004         47.7004
 06 12 27  0 22  0.0000000  0 10G29G18G22G30G16G 6G10G 7G26G21
 -10620168.63047  -8229094.45345  22625535.7784   22625542.7994   22625534.9384
        47.5004         35.2004
 -17202912.28048 -12821787.61847  21551056.2644   21551061.8344   21551055.7454
        53.0004         44.9004
  -5610973.03247  -2704528.10845  24072047.1534   24072053.8234   24072047.4284
        45.0004         30.0004
  -2548678.66147  -1416943.65344  24226426.9494   24226435.8534   24226427.7734
        44.0004         27.2004
  -6940976.36047  -5360633.38345  23397006.9614   23397013.8024   23397006.7894
        44.7004         31.0004
 -23803517.82148 -18504586.60648  20331199.7904   20331206.5854   20331199.9034
        53.7004         48.4004
  -2927022.44046  -2246008.31344  24353380.1624   24353388.8664   24353379.0864
        40.9004         24.1004
 -22797570.60549 -17733924.67548  20239631.3014   20239637.9854   20239630.4854
        54.4004         50.5004
 -12596597.12348  -9292109.84446  22216108.0304   22216114.7654   22216108.1984
        49.2004         38.3004
 -19921765.49049 -15498320.65847  21070578.2964   21070583.3164   21070577.7434
        54.1004         47.7004
 06 12 27  0 22 30.0000000  0 10G29G18G22G30G16G 6G10G 7G26G21
 -10624589.17647  -8232539.03145  22624694.3514   22624701.4834   22624694.8604
        47.8004         35.2004
 -17269059.39748 -12873330.80547  21538468.8674   21538474.8554   21538468.4494
        53.0004         44.9004
  -5713007.38147  -2784035.39145  24052630.6794   24052636.6874   24052630.4704
        45.4004         30.0004
  -2443154.33147  -1334716.93344  24246507.7164   24246515.8204   24246507.9024
        44.0004         26.9004
  -6981494.19247  -5392205.71045  23389296.6334   23389303.6214   23389295.9474
        45.0004         31.4004
 -23775711.70148 -18482919.50148  20336491.1194   20336498.2854   20336491.1504
        53.7004         48.4004
  -2819069.04846  -2161888.78343  24373923.0394   24373927.7394   24373922.4854
        38.8004         21.3004
 -22810585.79249 -17744066.37148  20237154.5624   20237161.3594   20237153.8704
        54.4004         50.5004
 -12639019.77448  -9325166.43246  22208035.1484   22208041.5774   22208034.5484
        48.9004         38.0004
 -19952206.86448 -15522041.19647  21064785.4954   21064790.4934   21064784.8234
        53.7004         47.7004
 06 12 27  0 23  0.0000000  0 10G29G18G22G30G16G 6G10G 7G26G21
 -10628441.71747  -8235540.99745  22623961.3004   22623967.7724   22623960.7284
        47.5004         34.9004
 -17334821.68248 -12924574.11547  21525954.7224   21525960.8224   21525954.4524
        53.0004         44.9004
  -5814874.58247  -2863412.43144  24033246.0654   24033252.4544   24033246.0104
        45.0004         29.7004
  -2337657.14747  -1252511.36744  24266583.2854   24266591.5634   24266584.5534
        44.0004         26.5004
  -7021497.65647  -5423377.23345  23381684.2594   23381690.3004   23381684.1874
        45.7004         31.4004
 -23747446.57149 -18460894.72848  20341869.8224   20341876.6704   20341869.6974
        54.1004         48.4004
  -2711048.91246  -2077717.19243  24394478.5954   24394483.2854   24394475.3564
        37.4004         18.2004
 -22823155.83649 -17753861.19948  20234762.5544   20234769.2604   20234761.7664
        54.4004         50.5004
 -12680862.70748  -9357771.27846  22200072.5344   22200080.2294   22200071.8204
        49.2004         38.0004
 -19982479.92149 -15545630.57447  21059024.6914   21059029.8304   21059024.0414
        54.1004         47.7004
 06 12 27  0 23 30.0000000  0 10G29G18G22G30G16G 6G10G 7G26G21
 -10631725.90647  -8238100.08545  22623336.3464   22623343.3984   22623336.5604
        47.8004         35.6004
 -17400198.49848 -12975517.05947  21513513.9284   21513519.6104   21513513.3354
        53.4004         44.9004
  -5916573.35147  -2942658.23544  24013893.4554   24013899.9374   24013893.6274
        44.4004         29.3004
  -2232190.46847  -1170329.58244  24286653.1484   24286661.3124   24286652.9904
        44.4004         26.5004
  -7060986.21247  -5454147.53945  23374169.8494   23374175.9204   23374169.2594
        45.4004         31.4004
 -23718722.52548 -18438512.35448  20347335.8294   20347342.7084   20347335.6034
        53.7004         48.4004
  -2602965.11845  -1993496.06342  24415046.3474                   24415045.3164
        35.0004         14.4004
 -22835279.82649 -17763308.45348  20232455.4204   20232462.2444   20232454.5934
        54.4004         50.5004
 -12722124.11048  -9389922.97046  22192220.5394   22192228.0964   22192220.0764
        48.9004         38.3004
 -20012585.02448 -15569089.08047  21053295.8334   21053300.7454   21053295.0674
        53.7004         47.7004
 06 12 27  0 24  0.0000000  0 10G29G18G22G30G16G 6G10G 7G26G21
